$GPRMC,060630.00,A,3046.9744153,N,10357.5039816,E,0.03,92.59,260319,0.0,E,D*00
$GPGGA,060630.00,3046.9744153,N,10357.5039816,E,4,23,1.0,532.103,M,-40.962,M,2.0,*6C
$GPGSA,A,3,07,08,09,16,23,26,27,,,,,,3.2,1.6,2.8,1*22
$GAGSA,A,3,02,03,08,24,25,36,,,,,,,2.9,1.1,2.7,3*3F
$GPGSV,2,1,07,07,23,311,44,08,58,183,48,09,45,298,47,16,47,031,44,1*68
$GPGSV,2,2,07,23,62,243,46,26,23,054,40,27,71,096,48,,,,,1*51
$GAGSV,2,1,06,02,41,300,42,03,44,232,43,08,30,298,41,24,16,070,00,7*78
$GAGSV,2,2,06,25,54,026,42,36,26,153,00,,,,,,,,,7*77
$GPRMC,060630.20,A,3046.9744155,N,10357.5039817,E,0.07,92.59,260319,0.0,E,D*01
$GPGGA,060630.20,3046.9744155,N,10357.5039817,E,4,23,1.0,532.103,M,-40.962,M,2.2,*6B
$GPGSA,A,3,07,08,09,16,23,26,27,,,,,,3.2,1.6,2.8,1*22
$GAGSA,A,3,02,03,08,24,25,36,,,,,,,2.9,1.1,2.7,3*3F
$GPGSV,2,1,07,07,23,311,44,08,58,183,48,09,45,298,47,16,47,031,44,1*68
$GPGSV,2,2,07,23,62,243,46,26,23,054,40,27,71,096,48,,,,,1*51
$GAGSV,2,1,06,02,41,300,42,03,44,232,43,08,30,298,41,24,16,070,00,7*78
$GAGSV,2,2,06,25,54,026,42,36,26,153,00,,,,,,,,,7*77
$GPRMC,060630.40,A,3046.9744155,N,10357.5039816,E,0.07,92.59,260319,0.0,E,D*06
$GPGGA,060630.40,3046.9744155,N,10357.5039816,E,4,23,1.0,532.104,M,-40.962,M,2.4,*6D
$GPGSA,A,3,07,08,09,16,23,26,27,,,,,,3.2,1.6,2.8,1*22
$GAGSA,A,3,02,03,08,24,25,36,,,,,,,2.9,1.1,2.7,3*3F
$GPGSV,2,1,07,07,23,311,44,08,58,183,48,09,45,298,47,16,47,031,44,1*68
$GPGSV,2,2,07,23,62,243,46,26,23,054,40,27,71,096,48,,,,,1*51
$GAGSV,2,1,06,02,41,300,42,03,44,232,43,08,30,298,41,24,16,070,00,7*78
$GAGSV,2,2,06,25,54,026,42,36,26,153,00,,,,,,,,,7*77
$GPRMC,060630.60,A,3046.9744153,N,10357.5039806,E,0.08,92.59,260319,0.0,E,D*0C
$GPGGA,060630.60,3046.9744153,N,10357.5039806,E,4,23,1.0,532.105,M,-40.962,M,2.6,*6B
$GPGSA,A,3,07,08,09,16,23,26,27,,,,,,3.2,1.6,2.8,1*22
$GAGSA,A,3,02,03,08,24,25,36,,,,,,,2.9,1.1,2.7,3*3F
$GPGSV,2,1,07,07,23,311,44,08,58,183,48,09,45,298,47,16,47,031,44,1*68
$GPGSV,2,2,07,23,62,243,46,26,23,054,40,27,71,096,48,,,,,1*51
$GAGSV,2,1,06,02,41,300,42,03,44,232,43,08,30,298,41,24,16,070,00,7*78
$GAGSV,2,2,06,25,54,026,42,36,26,153,00,,,,,,,,,7*77
$GPRMC,060630.80,A,3046.9744154,N,10357.5039812,E,0.05,92.59,260319,0.0,E,D*0D
$GPGGA,060630.80,3046.9744154,N,10357.5039812,E,4,23,1.0,532.104,M,-40.962,M,2.8,*68
$GPGSA,A,3,07,08,09,16,23,26,27,,,,,,3.2,1.6,2.8,1*22
$GAGSA,A,3,02,03,08,24,25,36,,,,,,,2.9,1.1,2.7,3*3F
$GPGSV,2,1,07,07,23,311,44,08,58,183,48,09,45,298,47,16,47,031,44,1*68
$GPGSV,2,2,07,23,62,243,46,26,23,054,40,27,71,096,48,,,,,1*51
$GAGSV,2,1,06,02,41,300,42,03,44,232,43,08,30,298,41,24,16,070,00,7*78
$GAGSV,2,2,06,25,53,026,42,36,26,153,00,,,,,,,,,7*70
$GPRMC,060631.00,A,3046.9744155,N,10357.5039816,E,0.10,92.59,260319,0.0,E,D*05
$GPGGA,060631.00,3046.9744155,N,10357.5039816,E,4,24,1.0,532.103,M,-40.962,M,1.0,*6F
$GPGSA,A,3,07,08,09,16,23,26,27,,,,,,3.2,1.6,2.8,1*22
$GAGSA,A,3,02,03,08,24,25,36,,,,,,,2.9,1.1,2.7,3*3F
$GPGSV,2,1,07,07,23,311,44,08,58,183,48,09,45,298,47,16,47,031,44,1*68
$GPGSV,2,2,07,23,62,243,46,26,23,054,40,27,71,096,48,,,,,1*51
$GAGSV,2,1,06,02,41,300,42,03,44,232,43,08,30,298,41,24,16,070,00,7*78
$GAGSV,2,2,06,25,53,026,42,36,26,153,00,,,,,,,,,7*70
$GPRMC,060631.20,A,3046.9744154,N,10357.5039815,E,0.08,92.59,260319,0.0,E,D*0C
$GPGGA,060631.20,3046.9744154,N,10357.5039815,E,4,24,1.0,532.106,M,-40.962,M,1.2,*68
$GPGSA,A,3,07,08,09,16,23,26,27,,,,,,3.2,1.6,2.8,1*22
$GAGSA,A,3,02,03,08,24,25,36,,,,,,,2.9,1.1,2.7,3*3F
$GPGSV,2,1,07,07,23,311,44,08,58,183,48,09,45,298,47,16,47,031,44,1*68
$GPGSV,2,2,07,23,62,243,46,26,23,054,40,27,71,096,48,,,,,1*51
$GAGSV,2,1,06,02,41,300,42,03,44,232,43,08,30,298,41,24,16,070,00,7*78
$GAGSV,2,2,06,25,53,026,42,36,26,153,00,,,,,,,,,7*70
$GPRMC,060631.40,A,3046.9744149,N,10357.5039806,E,0.04,92.59,260319,0.0,E,D*08
$GPGGA,060631.40,3046.9744149,N,10357.5039806,E,4,23,1.0,532.100,M,-40.962,M,1.4,*67
$GPGSA,A,3,07,08,09,16,23,26,27,,,,,,3.2,1.6,2.8,1*22
$GAGSA,A,3,02,03,08,24,25,36,,,,,,,2.9,1.1,2.7,3*3F
$GPGSV,2,1,07,07,23,311,44,08,58,183,48,09,45,298,47,16,47,031,44,1*68
$GPGSV,2,2,07,23,62,243,46,26,23,054,40,27,71,096,48,,,,,1*51
$GAGSV,2,1,06,02,41,300,42,03,44,232,43,08,30,298,41,24,16,070,00,7*78
$GAGSV,2,2,06,25,53,026,42,36,26,153,00,,,,,,,,,7*70
$GPRMC,060631.60,A,3046.9744150,N,10357.5039811,E,0.07,92.59,260319,0.0,E,D*07
$GPGGA,060631.60,3046.9744150,N,10357.5039811,E,4,23,1.0,532.098,M,-40.962,M,1.6,*69
$GPGSA,A,3,07,08,09,16,23,26,27,,,,,,3.2,1.6,2.8,1*22
$GAGSA,A,3,02,03,08,24,25,36,,,,,,,2.9,1.1,2.7,3*3F
$GPGSV,2,1,07,07,23,311,44,08,58,183,48,09,45,298,47,16,47,031,44,1*68
$GPGSV,2,2,07,23,62,243,46,26,23,054,40,27,71,096,48,,,,,1*51
$GAGSV,2,1,06,02,41,300,42,03,44,232,43,08,30,298,41,24,16,070,00,7*78
$GAGSV,2,2,06,25,53,026,42,36,26,153,00,,,,,,,,,7*70
$GPRMC,060631.80,A,3046.9744146,N,10357.5039809,E,0.04,92.59,260319,0.0,E,D*04
$GPGGA,060631.80,3046.9744146,N,10357.5039809,E,4,23,1.0,532.099,M,-40.962,M,1.8,*66
$GPGSA,A,3,07,08,09,16,23,26,27,,,,,,3.2,1.6,2.8,1*22
$GAGSA,A,3,02,03,08,24,25,36,,,,,,,2.9,1.1,2.7,3*3F
$GPGSV,2,1,07,07,23,311,44,08,58,183,48,09,45,298,47,16,47,031,44,1*68
$GPGSV,2,2,07,23,62,243,46,26,23,054,40,27,71,096,48,,,,,1*51
$GAGSV,2,1,06,02,41,300,42,03,44,232,43,08,30,298,41,24,16,070,00,7*78
$GAGSV,2,2,06,25,53,026,42,36,26,153,00,,,,,,,,,7*70
$GPRMC,060632.00,A,3046.9744151,N,10357.5039817,E,0.07,92.59,260319,0.0,E,D*05
$GPGGA,060632.00,3046.9744151,N,10357.5039817,E,4,24,1.0,532.104,M,-40.962,M,2.0,*6D
$GPGSA,A,3,07,08,09,16,23,26,27,,,,,,3.2,1.6,2.8,1*22
$GAGSA,A,3,02,03,08,24,25,36,,,,,,,2.9,1.1,2.7,3*3F
$GPGSV,2,1,07,07,23,311,44,08,58,183,48,09,45,298,47,16,47,031,44,1*68
$GPGSV,2,2,07,23,62,243,46,26,23,054,40,27,71,096,48,,,,,1*51
$GAGSV,2,1,06,02,41,300,42,03,44,232,43,08,30,298,41,24,16,070,00,7*78
$GAGSV,2,2,06,25,53,026,42,36,26,153,00,,,,,,,,,7*70
$GPRMC,060632.20,A,3046.9744154,N,10357.5039809,E,0.10,92.59,260319,0.0,E,D*0B
$GPGGA,060632.20,3046.9744154,N,10357.5039809,E,4,24,1.0,532.104,M,-40.962,M,2.2,*67
$GPGSA,A,3,07,08,09,16,23,26,27,,,,,,3.2,1.6,2.8,1*22
$GAGSA,A,3,02,03,08,24,25,36,,,,,,,2.9,1.1,2.7,3*3F
$GPGSV,2,1,07,07,23,311,44,08,58,183,48,09,45,298,47,16,47,031,44,1*68
$GPGSV,2,2,07,23,62,243,46,26,23,054,40,27,71,096,48,,,,,1*51
$GAGSV,2,1,06,02,41,300,42,03,44,232,43,08,30,298,41,24,16,070,00,7*78
$GAGSV,2,2,06,25,53,026,43,36,26,153,00,,,,,,,,,7*71
$GPRMC,060632.40,A,3046.9744158,N,10357.5039806,E,0.09,92.59,260319,0.0,E,D*06
$GPGGA,060632.40,3046.9744158,N,10357.5039806,E,4,24,1.0,532.108,M,-40.962,M,2.4,*68
$GPGSA,A,3,07,08,09,16,23,26,27,,,,,,3.2,1.6,2.8,1*22
$GAGSA,A,3,02,03,08,24,25,36,,,,,,,2.9,1.1,2.7,3*3F
$GPGSV,2,1,07,07,23,311,44,08,58,183,48,09,45,298,47,16,47,031,45,1*69
$GPGSV,2,2,07,23,62,243,47,26,23,054,40,27,71,096,48,,,,,1*50
$GAGSV,2,1,06,02,41,300,42,03,44,232,44,08,30,298,41,24,16,070,00,7*7F
$GAGSV,2,2,06,25,53,026,42,36,26,153,00,,,,,,,,,7*70
$GPRMC,060632.60,A,3046.9744154,N,10357.5039806,E,0.04,92.59,260319,0.0,E,D*05
$GPGGA,060632.60,3046.9744154,N,10357.5039806,E,4,24,1.0,532.106,M,-40.962,M,2.6,*6A
$GPGSA,A,3,07,08,09,16,23,26,27,,,,,,3.2,1.6,2.8,1*22
$GAGSA,A,3,02,03,08,24,25,36,,,,,,,2.9,1.1,2.7,3*3F
$GPGSV,2,1,07,07,23,311,44,08,58,183,48,09,45,298,47,16,47,031,44,1*68
$GPGSV,2,2,07,23,62,243,47,26,23,054,40,27,71,096,48,,,,,1*50
$GAGSV,2,1,06,02,41,300,42,03,44,232,43,08,30,298,41,24,16,070,00,7*78
$GAGSV,2,2,06,25,53,026,42,36,26,153,00,,,,,,,,,7*70
$GPRMC,060632.80,A,3046.9744151,N,10357.5039807,E,0.04,92.59,260319,0.0,E,D*0F
$GPGGA,060632.80,3046.9744151,N,10357.5039807,E,4,24,1.0,532.104,M,-40.962,M,2.8,*6C
$GPGSA,A,3,07,08,09,16,23,26,27,,,,,,3.2,1.6,2.8,1*22
$GAGSA,A,3,02,03,08,24,25,36,,,,,,,2.9,1.1,2.7,3*3F
$GPGSV,2,1,07,07,23,311,44,08,58,183,48,09,45,298,47,16,47,031,44,1*68
$GPGSV,2,2,07,23,62,243,47,26,23,054,40,27,71,096,48,,,,,1*50
$GAGSV,2,1,06,02,41,300,42,03,44,232,43,08,30,298,41,24,16,070,00,7*78
$GAGSV,2,2,06,25,53,026,42,36,26,153,00,,,,,,,,,7*70
$GPRMC,060633.00,A,3046.9744167,N,10357.5039808,E,0.03,92.59,260319,0.0,E,D*0B
$GPGGA,060633.00,3046.9744167,N,10357.5039808,E,4,24,1.0,532.106,M,-40.962,M,1.0,*66
$GPGSA,A,3,07,08,09,16,23,26,27,,,,,,3.2,1.6,2.8,1*22
$GAGSA,A,3,02,03,08,24,25,36,,,,,,,2.9,1.1,2.7,3*3F
$GPGSV,2,1,07,07,23,311,44,08,58,183,48,09,45,298,47,16,47,031,44,1*68
$GPGSV,2,2,07,23,62,243,47,26,23,054,40,27,71,096,48,,,,,1*50
$GAGSV,2,1,06,02,41,300,42,03,44,232,43,08,30,298,41,24,16,070,00,7*78
$GAGSV,2,2,06,25,53,026,42,36,26,153,00,,,,,,,,,7*70
$GPRMC,060633.20,A,3046.9744167,N,10357.5039797,E,0.07,92.59,260319,0.0,E,D*04
$GPGGA,060633.20,3046.9744167,N,10357.5039797,E,4,24,1.0,532.105,M,-40.962,M,1.2,*6C
$GPGSA,A,3,07,08,09,16,23,26,27,,,,,,3.2,1.6,2.8,1*22
$GAGSA,A,3,02,03,08,24,25,36,,,,,,,2.9,1.1,2.7,3*3F
$GPGSV,2,1,07,07,23,311,44,08,58,183,48,09,45,298,47,16,47,031,45,1*69
$GPGSV,2,2,07,23,62,243,46,26,23,054,40,27,71,096,48,,,,,1*51
$GAGSV,2,1,06,02,41,300,42,03,44,232,43,08,30,298,41,24,16,070,00,7*78
$GAGSV,2,2,06,25,53,026,42,36,26,153,00,,,,,,,,,7*70
$GPRMC,060633.40,A,3046.9744167,N,10357.5039803,E,0.05,92.59,260319,0.0,E,D*02
$GPGGA,060633.40,3046.9744167,N,10357.5039803,E,4,24,1.0,532.105,M,-40.962,M,1.4,*6E
$GPGSA,A,3,07,08,09,16,23,26,27,,,,,,3.2,1.6,2.8,1*22
$GAGSA,A,3,02,03,08,24,25,36,,,,,,,2.9,1.1,2.7,3*3F
$GPGSV,2,1,07,07,23,311,44,08,58,183,48,09,45,298,47,16,47,031,45,1*69
$GPGSV,2,2,07,23,62,243,47,26,23,054,40,27,71,096,48,,,,,1*50
$GAGSV,2,1,06,02,41,300,42,03,44,232,43,08,30,298,41,24,16,070,00,7*78
$GAGSV,2,2,06,25,53,026,43,36,26,153,00,,,,,,,,,7*71
$GPRMC,060633.60,A,3046.9744168,N,10357.5039802,E,0.06,92.59,260319,0.0,E,D*0D
$GPGGA,060633.60,3046.9744168,N,10357.5039802,E,4,24,1.0,532.106,M,-40.962,M,1.6,*63
$GPGSA,A,3,07,08,09,16,23,26,27,,,,,,3.2,1.6,2.8,1*22
$GAGSA,A,3,02,03,08,24,25,36,,,,,,,2.9,1.1,2.7,3*3F
$GPGSV,2,1,07,07,23,311,44,08,58,183,48,09,45,298,47,16,47,031,45,1*69
$GPGSV,2,2,07,23,62,243,47,26,23,054,40,27,71,096,48,,,,,1*50
$GAGSV,2,1,06,02,41,300,42,03,44,232,43,08,30,298,41,24,16,070,00,7*78
$GAGSV,2,2,06,25,53,026,43,36,26,153,00,,,,,,,,,7*71
$GPRMC,060633.80,A,3046.9744172,N,10357.5039801,E,0.01,92.59,260319,0.0,E,D*0C
$GPGGA,060633.80,3046.9744172,N,10357.5039801,E,4,24,1.0,532.105,M,-40.962,M,1.8,*68
$GPGSA,A,3,07,08,09,16,23,26,27,,,,,,3.2,1.6,2.8,1*22
$GAGSA,A,3,02,03,08,24,25,36,,,,,,,2.9,1.1,2.7,3*3F
$GPGSV,2,1,07,07,23,311,44,08,58,183,48,09,45,298,47,16,47,031,45,1*69
$GPGSV,2,2,07,23,62,243,47,26,23,054,40,27,71,096,48,,,,,1*50
$GAGSV,2,1,06,02,41,300,42,03,44,232,43,08,30,298,41,24,16,070,00,7*78
$GAGSV,2,2,06,25,53,026,42,36,26,153,00,,,,,,,,,7*70
$GPRMC,060634.00,A,3046.9744168,N,10357.5039795,E,0.11,92.59,260319,0.0,E,D*0B
$GPGGA,060634.00,3046.9744168,N,10357.5039795,E,4,24,1.0,532.106,M,-40.962,M,2.0,*66
$GPGSA,A,3,07,08,09,16,23,26,27,,,,,,3.2,1.6,2.8,1*22
$GAGSA,A,3,02,03,08,24,25,36,,,,,,,2.9,1.1,2.7,3*3F
$GPGSV,2,1,07,07,23,311,43,08,58,183,48,09,45,298,47,16,47,031,45,1*6E
$GPGSV,2,2,07,23,62,243,47,26,23,054,40,27,71,096,48,,,,,1*50
$GAGSV,2,1,06,02,41,300,42,03,44,232,43,08,30,298,41,24,16,070,00,7*78
$GAGSV,2,2,06,25,53,026,42,36,26,153,00,,,,,,,,,7*70
$GPRMC,060634.20,A,3046.9744176,N,10357.5039792,E,0.03,92.59,260319,0.0,E,D*02
$GPGGA,060634.20,3046.9744176,N,10357.5039792,E,4,24,1.0,532.106,M,-40.962,M,2.2,*6E
$GPGSA,A,3,07,08,09,16,23,26,27,,,,,,3.2,1.6,2.8,1*22
$GAGSA,A,3,02,03,08,24,25,36,,,,,,,2.9,1.1,2.7,3*3F
$GPGSV,2,1,07,07,23,311,44,08,58,183,48,09,45,298,47,16,47,031,44,1*68
$GPGSV,2,2,07,23,62,243,46,26,23,054,40,27,71,096,48,,,,,1*51
$GAGSV,2,1,06,02,41,300,42,03,44,232,43,08,30,298,41,24,16,070,00,7*78
$GAGSV,2,2,06,25,53,026,42,36,26,153,00,,,,,,,,,7*70
$GPRMC,060634.40,A,3046.9744166,N,10357.5039799,E,0.07,92.59,260319,0.0,E,D*0A
$GPGGA,060634.40,3046.9744166,N,10357.5039799,E,4,24,1.0,532.106,M,-40.962,M,2.4,*64
$GPGSA,A,3,07,08,09,16,23,26,27,,,,,,3.2,1.6,2.8,1*22
$GAGSA,A,3,02,03,08,24,25,36,,,,,,,2.9,1.1,2.7,3*3F
$GPGSV,2,1,07,07,23,311,43,08,58,183,48,09,45,298,47,16,47,031,44,1*6F
$GPGSV,2,2,07,23,62,243,46,26,23,054,40,27,71,096,48,,,,,1*51
$GAGSV,2,1,06,02,41,300,42,03,44,232,43,08,30,298,41,24,16,070,00,7*78
$GAGSV,2,2,06,25,53,026,42,36,26,153,00,,,,,,,,,7*70
$GPRMC,060634.60,A,3046.9744173,N,10357.5039794,E,0.04,92.59,260319,0.0,E,D*02
$GPGGA,060634.60,3046.9744173,N,10357.5039794,E,4,24,1.0,532.109,M,-40.962,M,2.6,*62
$GPGSA,A,3,07,08,09,16,23,26,27,,,,,,3.2,1.6,2.8,1*22
$GAGSA,A,3,02,03,08,24,25,36,,,,,,,2.9,1.1,2.7,3*3F
$GPGSV,2,1,07,07,23,311,43,08,58,183,48,09,45,298,47,16,47,031,44,1*6F
$GPGSV,2,2,07,23,62,243,46,26,23,054,40,27,71,096,48,,,,,1*51
$GAGSV,2,1,06,02,41,300,42,03,44,232,43,08,30,298,41,24,16,070,00,7*78
$GAGSV,2,2,06,25,53,026,42,36,26,153,00,,,,,,,,,7*70
$GPRMC,060634.80,A,3046.9744170,N,10357.5039792,E,0.13,92.59,260319,0.0,E,D*0F
$GPGGA,060634.80,3046.9744170,N,10357.5039792,E,4,24,1.0,532.111,M,-40.962,M,2.8,*6E
$GPGSA,A,3,07,08,09,16,23,26,27,,,,,,3.2,1.6,2.8,1*22
$GAGSA,A,3,02,03,08,24,25,36,,,,,,,2.9,1.1,2.7,3*3F
$GPGSV,2,1,07,07,23,311,43,08,58,183,48,09,45,298,47,16,47,031,44,1*6F
$GPGSV,2,2,07,23,62,243,46,26,23,054,40,27,71,096,48,,,,,1*51
$GAGSV,2,1,06,02,41,300,42,03,44,232,43,08,30,298,41,24,16,070,00,7*78
$GAGSV,2,2,06,25,53,026,42,36,26,153,00,,,,,,,,,7*70
$GPRMC,060635.00,A,3046.9744164,N,10357.5039807,E,0.11,92.59,260319,0.0,E,D*02
$GPGGA,060635.00,3046.9744164,N,10357.5039807,E,4,24,1.0,532.110,M,-40.962,M,1.0,*6B
$GPGSA,A,3,07,08,09,16,23,26,27,,,,,,3.2,1.6,2.8,1*22
$GAGSA,A,3,02,03,08,24,25,36,,,,,,,2.9,1.1,2.7,3*3F
$GPGSV,2,1,07,07,23,311,43,08,58,183,48,09,45,298,47,16,47,031,44,1*6F
$GPGSV,2,2,07,23,62,243,46,26,23,054,40,27,71,096,48,,,,,1*51
$GAGSV,2,1,06,02,41,300,42,03,44,232,43,08,30,298,41,24,16,070,00,7*78
$GAGSV,2,2,06,25,53,026,42,36,26,153,00,,,,,,,,,7*70
$GPRMC,060635.20,A,3046.9744170,N,10357.5039797,E,0.04,92.59,260319,0.0,E,D*07
$GPGGA,060635.20,3046.9744170,N,10357.5039797,E,4,24,1.0,532.110,M,-40.962,M,1.2,*68
$GPGSA,A,3,07,08,09,16,23,26,27,,,,,,3.2,1.6,2.8,1*22
$GAGSA,A,3,02,03,08,24,25,36,,,,,,,2.9,1.1,2.7,3*3F
$GPGSV,2,1,07,07,23,311,43,08,58,183,48,09,45,298,47,16,47,031,44,1*6F
$GPGSV,2,2,07,23,62,243,46,26,23,054,40,27,71,096,48,,,,,1*51
$GAGSV,2,1,06,02,41,300,42,03,44,232,43,08,30,298,41,24,16,070,00,7*78
$GAGSV,2,2,06,25,53,026,42,36,26,153,00,,,,,,,,,7*70
$GPRMC,060635.40,A,3046.9744171,N,10357.5039800,E,0.06,92.59,260319,0.0,E,D*03
$GPGGA,060635.40,3046.9744171,N,10357.5039800,E,4,24,1.0,532.105,M,-40.962,M,1.4,*6C
$GPGSA,A,3,07,08,09,16,23,26,27,,,,,,3.2,1.6,2.8,1*22
$GAGSA,A,3,02,03,08,24,25,36,,,,,,,2.9,1.1,2.7,3*3F
$GPGSV,2,1,07,07,23,311,43,08,58,183,48,09,45,298,47,16,47,031,44,1*6F
$GPGSV,2,2,07,23,62,243,46,26,23,054,40,27,71,096,48,,,,,1*51
$GAGSV,2,1,06,02,41,300,42,03,44,232,43,08,30,298,41,24,16,070,00,7*78
$GAGSV,2,2,06,25,53,026,42,36,26,153,00,,,,,,,,,7*70
$GPRMC,060635.60,A,3046.9744161,N,10357.5039802,E,0.11,92.59,260319,0.0,E,D*04
$GPGGA,060635.60,3046.9744161,N,10357.5039802,E,4,24,1.0,532.104,M,-40.962,M,1.6,*6E
$GPGSA,A,3,07,08,09,16,23,26,27,,,,,,3.2,1.6,2.8,1*22
$GAGSA,A,3,02,03,08,24,25,36,,,,,,,2.9,1.1,2.7,3*3F
$GPGSV,2,1,07,07,23,311,43,08,58,183,48,09,45,298,47,16,47,031,45,1*6E
$GPGSV,2,2,07,23,62,243,46,26,23,054,40,27,71,096,48,,,,,1*51
$GAGSV,2,1,06,02,41,300,42,03,44,232,43,08,30,298,41,24,16,070,00,7*78
$GAGSV,2,2,06,25,53,026,42,36,26,153,00,,,,,,,,,7*70
$GPRMC,060635.80,A,3046.9744167,N,10357.5039800,E,0.08,92.59,260319,0.0,E,D*06
$GPGGA,060635.80,3046.9744167,N,10357.5039800,E,4,24,1.0,532.105,M,-40.962,M,1.8,*6B
$GPGSA,A,3,07,08,09,16,23,26,27,,,,,,3.2,1.6,2.8,1*22
$GAGSA,A,3,02,03,08,24,25,36,,,,,,,2.9,1.1,2.7,3*3F
$GPGSV,2,1,07,07,23,311,43,08,58,183,48,09,45,298,47,16,47,031,45,1*6E
$GPGSV,2,2,07,23,62,243,46,26,23,054,40,27,71,096,48,,,,,1*51
$GAGSV,2,1,06,02,41,300,42,03,44,232,43,08,30,298,41,24,16,070,00,7*78
$GAGSV,2,2,06,25,53,026,42,36,26,153,00,,,,,,,,,7*70
$GPRMC,060636.00,A,3046.9744166,N,10357.5039798,E,0.04,92.59,260319,0.0,E,D*0E
$GPGGA,060636.00,3046.9744166,N,10357.5039798,E,4,24,1.0,532.105,M,-40.962,M,2.0,*64
$GPGSA,A,3,07,08,09,16,23,26,27,,,,,,3.2,1.6,2.8,1*22
$GAGSA,A,3,02,03,08,24,25,36,,,,,,,2.9,1.1,2.7,3*3F
$GPGSV,2,1,07,07,23,311,43,08,58,183,48,09,45,298,47,16,47,031,45,1*6E
$GPGSV,2,2,07,23,62,243,46,26,23,054,40,27,71,096,48,,,,,1*51
$GAGSV,2,1,06,02,41,300,42,03,44,232,43,08,30,298,41,24,16,070,00,7*78
$GAGSV,2,2,06,25,53,026,42,36,26,153,00,,,,,,,,,7*70
$GPRMC,060636.20,A,3046.9744164,N,10357.5039797,E,0.15,92.59,260319,0.0,E,D*01
$GPGGA,060636.20,3046.9744164,N,10357.5039797,E,4,24,1.0,532.105,M,-40.962,M,2.2,*69
$GPGSA,A,3,07,08,09,16,23,26,27,,,,,,3.2,1.6,2.8,1*22
$GAGSA,A,3,02,03,08,24,25,36,,,,,,,2.9,1.1,2.7,3*3F
$GPGSV,2,1,07,07,23,311,44,08,58,183,48,09,45,298,47,16,47,031,45,1*69
$GPGSV,2,2,07,23,62,243,46,26,23,054,40,27,71,096,48,,,,,1*51
$GAGSV,2,1,06,02,41,300,42,03,44,232,43,08,30,298,41,24,16,070,00,7*78
$GAGSV,2,2,06,25,53,026,42,36,26,153,00,,,,,,,,,7*70
$GPRMC,060636.40,A,3046.9744164,N,10357.5039801,E,0.07,92.59,260319,0.0,E,D*04
$GPGGA,060636.40,3046.9744164,N,10357.5039801,E,4,24,1.0,532.107,M,-40.962,M,2.4,*6B
$GPGSA,A,3,07,08,09,16,23,26,27,,,,,,3.2,1.6,2.8,1*22
$GAGSA,A,3,02,03,08,24,25,36,,,,,,,2.9,1.1,2.7,3*3F
$GPGSV,2,1,07,07,23,311,43,08,58,183,48,09,45,298,47,16,47,031,45,1*6E
$GPGSV,2,2,07,23,62,243,46,26,23,054,40,27,71,096,48,,,,,1*51
$GAGSV,2,1,06,02,41,300,42,03,44,232,43,08,30,298,41,24,16,070,00,7*78
$GAGSV,2,2,06,25,53,026,42,36,26,153,00,,,,,,,,,7*70
$GPRMC,060636.60,A,3046.9744161,N,10357.5039801,E,0.07,92.59,260319,0.0,E,D*03
$GPGGA,060636.60,3046.9744161,N,10357.5039801,E,4,24,1.0,532.107,M,-40.962,M,2.6,*6E
$GPGSA,A,3,07,08,09,16,23,26,27,,,,,,3.2,1.6,2.8,1*22
$GAGSA,A,3,02,03,08,24,25,36,,,,,,,2.9,1.1,2.7,3*3F
$GPGSV,2,1,07,07,23,311,43,08,58,183,48,09,45,298,47,16,47,031,45,1*6E
$GPGSV,2,2,07,23,62,243,46,26,23,054,40,27,71,096,48,,,,,1*51
$GAGSV,2,1,06,02,41,300,42,03,44,232,43,08,30,298,41,24,16,070,00,7*78
$GAGSV,2,2,06,25,53,026,42,36,26,153,00,,,,,,,,,7*70
$GPRMC,060636.80,A,3046.9744163,N,10357.5039802,E,0.03,92.59,260319,0.0,E,D*08
$GPGGA,060636.80,3046.9744163,N,10357.5039802,E,4,24,1.0,532.106,M,-40.962,M,2.8,*6E
$GPGSA,A,3,07,08,09,16,23,26,27,,,,,,3.2,1.6,2.8,1*22
$GAGSA,A,3,02,03,08,24,25,36,,,,,,,2.9,1.1,2.7,3*3F
$GPGSV,2,1,07,07,23,311,43,08,58,183,48,09,45,298,47,16,47,031,45,1*6E
$GPGSV,2,2,07,23,62,243,46,26,23,054,40,27,71,096,48,,,,,1*51
$GAGSV,2,1,06,02,41,300,42,03,44,232,43,08,30,298,41,24,16,070,00,7*78
$GAGSV,2,2,06,25,53,026,42,36,26,153,00,,,,,,,,,7*70
$GPRMC,060637.00,A,3046.9744166,N,10357.5039795,E,0.06,92.59,260319,0.0,E,D*00
$GPGGA,060637.00,3046.9744166,N,10357.5039795,E,4,24,1.0,532.106,M,-40.962,M,1.0,*68
$GPGSA,A,3,07,08,09,16,23,26,27,,,,,,3.2,1.6,2.8,1*22
$GAGSA,A,3,02,03,08,24,25,36,,,,,,,2.9,1.1,2.7,3*3F
$GPGSV,2,1,07,07,23,311,43,08,58,183,48,09,45,298,47,16,47,031,45,1*6E
$GPGSV,2,2,07,23,62,243,46,26,23,054,40,27,71,096,48,,,,,1*51
$GAGSV,2,1,06,02,41,300,42,03,44,232,43,08,30,298,41,24,16,070,00,7*78
$GAGSV,2,2,06,25,53,026,42,36,26,153,00,,,,,,,,,7*70
$GPRMC,060637.20,A,3046.9744163,N,10357.5039793,E,0.12,92.59,260319,0.0,E,D*04
$GPGGA,060637.20,3046.9744163,N,10357.5039793,E,4,24,1.0,532.107,M,-40.962,M,1.2,*6A
$GPGSA,A,3,07,08,09,16,23,26,27,,,,,,3.2,1.6,2.8,1*22
$GAGSA,A,3,02,03,08,24,25,36,,,,,,,2.9,1.1,2.7,3*3F
$GPGSV,2,1,07,07,23,311,43,08,58,183,48,09,45,298,47,16,47,031,45,1*6E
$GPGSV,2,2,07,23,62,243,46,26,23,054,40,27,71,096,48,,,,,1*51
$GAGSV,2,1,06,02,41,300,42,03,44,232,43,08,30,298,41,24,16,070,00,7*78
$GAGSV,2,2,06,25,53,026,42,36,26,153,00,,,,,,,,,7*70
$GPRMC,060637.40,A,3046.9744172,N,10357.5039788,E,0.02,92.59,260319,0.0,E,D*09
$GPGGA,060637.40,3046.9744172,N,10357.5039788,E,4,24,1.0,532.106,M,-40.962,M,1.4,*61
$GPGSA,A,3,07,08,09,16,23,26,27,,,,,,3.2,1.6,2.8,1*22
$GAGSA,A,3,02,03,08,24,25,36,,,,,,,2.9,1.1,2.7,3*3F
$GPGSV,2,1,07,07,23,311,43,08,58,183,48,09,45,298,47,16,47,031,45,1*6E
$GPGSV,2,2,07,23,62,243,46,26,23,054,40,27,71,096,48,,,,,1*51
$GAGSV,2,1,06,02,41,300,42,03,44,232,43,08,30,298,41,24,16,070,00,7*78
$GAGSV,2,2,06,25,53,026,42,36,26,153,00,,,,,,,,,7*70
$GPRMC,060637.60,A,3046.9744166,N,10357.5039801,E,0.03,92.59,260319,0.0,E,D*01
$GPGGA,060637.60,3046.9744166,N,10357.5039801,E,4,24,1.0,532.105,M,-40.962,M,1.6,*69
$GPGSA,A,3,07,08,09,16,23,26,27,,,,,,3.2,1.6,2.8,1*22
$GAGSA,A,3,02,03,08,24,25,36,,,,,,,2.9,1.1,2.7,3*3F
$GPGSV,2,1,07,07,23,311,43,08,58,183,48,09,45,298,47,16,47,031,45,1*6E
$GPGSV,2,2,07,23,62,243,46,26,23,054,40,27,71,096,48,,,,,1*51
$GAGSV,2,1,06,02,41,300,42,03,44,232,43,08,30,298,41,24,16,070,00,7*78
$GAGSV,2,2,06,25,53,026,42,36,26,153,00,,,,,,,,,7*70
$GPRMC,060637.80,A,3046.9744167,N,10357.5039792,E,0.06,92.59,260319,0.0,E,D*0E
$GPGGA,060637.80,3046.9744167,N,10357.5039792,E,4,24,1.0,532.104,M,-40.962,M,1.8,*6C
$GPGSA,A,3,07,08,09,16,23,26,27,,,,,,3.2,1.6,2.8,1*22
$GAGSA,A,3,02,03,08,24,25,36,,,,,,,2.9,1.1,2.7,3*3F
$GPGSV,2,1,07,07,23,311,43,08,58,183,48,09,45,298,47,16,47,031,45,1*6E
$GPGSV,2,2,07,23,62,243,46,26,23,054,40,27,71,096,48,,,,,1*51
$GAGSV,2,1,06,02,41,300,42,03,44,232,43,08,30,298,41,24,16,070,00,7*78
$GAGSV,2,2,06,25,53,026,42,36,26,153,00,,,,,,,,,7*70
$GPRMC,060638.00,A,3046.9744164,N,10357.5039790,E,0.12,92.59,260319,0.0,E,D*0D
$GPGGA,060638.00,3046.9744164,N,10357.5039790,E,4,24,1.0,532.105,M,-40.962,M,2.0,*60
$GPGSA,A,3,07,08,09,16,23,26,27,,,,,,3.2,1.6,2.8,1*22
$GAGSA,A,3,02,03,08,24,25,36,,,,,,,2.9,1.1,2.7,3*3F
$GPGSV,2,1,07,07,23,311,43,08,58,183,48,09,45,298,47,16,47,031,45,1*6E
$GPGSV,2,2,07,23,62,243,46,26,23,054,40,27,71,096,48,,,,,1*51
$GAGSV,2,1,06,02,41,300,42,03,44,232,43,08,30,298,41,24,16,070,00,7*78
$GAGSV,2,2,06,25,53,026,42,36,26,153,00,,,,,,,,,7*70
$GPRMC,060639.00,A,3046.9744169,N,10357.5039798,E,0.05,92.59,260319,0.0,E,D*0F
$GPGGA,060639.00,3046.9744169,N,10357.5039798,E,4,24,1.0,532.102,M,-40.962,M,1.0,*60
$GPGSA,A,3,07,08,09,16,23,26,27,,,,,,3.2,1.6,2.8,1*22
$GAGSA,A,3,02,03,08,24,25,36,,,,,,,2.9,1.1,2.7,3*3F
$GPGSV,2,1,07,07,23,311,43,08,58,183,48,09,45,298,47,16,47,031,45,1*6E
$GPGSV,2,2,07,23,62,243,46,26,23,054,40,27,71,096,48,,,,,1*51
$GAGSV,2,1,06,02,41,300,42,03,44,232,43,08,30,298,41,24,16,070,00,7*78
$GAGSV,2,2,06,25,53,026,42,36,26,153,00,,,,,,,,,7*70
$GPRMC,060639.20,A,3046.9744170,N,10357.5039796,E,0.01,92.59,260319,0.0,E,D*0F
$GPGGA,060639.20,3046.9744170,N,10357.5039796,E,4,24,1.0,532.103,M,-40.962,M,1.2,*67
$GPGSA,A,3,07,08,09,16,23,26,27,,,,,,3.2,1.6,2.8,1*22
$GAGSA,A,3,02,03,08,24,25,36,,,,,,,2.9,1.1,2.7,3*3F
$GPGSV,2,1,07,07,23,311,43,08,58,183,48,09,45,298,47,16,47,031,45,1*6E
$GPGSV,2,2,07,23,62,243,46,26,23,054,40,27,71,096,48,,,,,1*51
$GAGSV,2,1,06,02,41,300,42,03,44,232,43,08,30,298,41,24,16,070,00,7*78
$GAGSV,2,2,06,25,53,026,42,36,26,153,00,,,,,,,,,7*70
$GPRMC,060639.40,A,3046.9744168,N,10357.5039798,E,0.05,92.59,260319,0.0,E,D*0A
$GPGGA,060639.40,3046.9744168,N,10357.5039798,E,4,24,1.0,532.102,M,-40.962,M,1.4,*61
$GPGSA,A,3,07,08,09,16,23,26,27,,,,,,3.2,1.6,2.8,1*22
$GAGSA,A,3,02,03,08,24,25,36,,,,,,,2.9,1.1,2.7,3*3F
$GPGSV,2,1,07,07,23,311,43,08,58,183,48,09,45,298,47,16,47,031,45,1*6E
$GPGSV,2,2,07,23,62,243,46,26,23,054,40,27,71,096,48,,,,,1*51
$GAGSV,2,1,06,02,41,300,42,03,44,232,43,08,30,298,41,24,16,070,00,7*78
$GAGSV,2,2,06,25,53,026,42,36,26,153,00,,,,,,,,,7*70
$GPRMC,060639.60,A,3046.9744167,N,10357.5039789,E,0.08,92.59,260319,0.0,E,D*0A
$GPGGA,060639.60,3046.9744167,N,10357.5039789,E,4,24,1.0,532.103,M,-40.962,M,1.6,*6F
$GPGSA,A,3,07,08,09,16,23,26,27,,,,,,3.2,1.6,2.8,1*22
$GAGSA,A,3,02,03,08,24,25,36,,,,,,,2.9,1.1,2.7,3*3F
$GPGSV,2,1,07,07,23,311,43,08,58,183,48,09,45,298,47,16,47,031,45,1*6E
$GPGSV,2,2,07,23,62,243,46,26,23,054,40,27,71,096,48,,,,,1*51
$GAGSV,2,1,06,02,41,300,42,03,44,232,43,08,30,298,41,24,16,070,00,7*78
$GAGSV,2,2,06,25,53,026,42,36,26,153,00,,,,,,,,,7*70
$GPRMC,060639.80,A,3046.9744168,N,10357.5039797,E,0.04,92.59,260319,0.0,E,D*08
$GPGGA,060639.80,3046.9744168,N,10357.5039797,E,4,24,1.0,532.103,M,-40.962,M,1.8,*6F
$GPGSA,A,3,07,08,09,16,23,26,27,,,,,,3.2,1.6,2.8,1*22
$GAGSA,A,3,02,03,08,24,25,36,,,,,,,2.9,1.1,2.7,3*3F
$GPGSV,2,1,07,07,23,311,43,08,58,183,48,09,45,298,47,16,47,031,45,1*6E
$GPGSV,2,2,07,23,62,243,46,26,23,054,40,27,71,096,48,,,,,1*51
$GAGSV,2,1,06,02,41,300,42,03,44,232,43,08,30,298,41,24,16,070,00,7*78
$GAGSV,2,2,06,25,53,026,42,36,26,153,00,,,,,,,,,7*70
$GPRMC,060640.00,A,3046.9744166,N,10357.5039792,E,0.03,92.59,260319,0.0,E,D*02
$GPGGA,060640.00,3046.9744166,N,10357.5039792,E,4,24,1.0,532.101,M,-40.962,M,2.0,*6B
$GPGSA,A,3,07,08,09,16,23,26,27,,,,,,3.2,1.6,2.8,1*22
$GAGSA,A,3,02,03,08,24,25,36,,,,,,,2.9,1.1,2.7,3*3F
$GPGSV,2,1,07,07,23,311,43,08,58,183,48,09,45,298,47,16,47,031,45,1*6E
$GPGSV,2,2,07,23,62,243,46,26,23,054,40,27,71,096,48,,,,,1*51
$GAGSV,2,1,06,02,41,300,42,03,44,232,43,08,30,298,41,24,16,070,00,7*78
$GAGSV,2,2,06,25,53,026,42,36,26,153,00,,,,,,,,,7*70
$GPRMC,060640.20,A,3046.9744175,N,10357.5039795,E,0.05,92.59,260319,0.0,E,D*03
$GPGGA,060640.20,3046.9744175,N,10357.5039795,E,4,24,1.0,532.103,M,-40.962,M,2.2,*6C
$GPGSA,A,3,07,08,09,16,23,26,27,,,,,,3.2,1.6,2.8,1*22
$GAGSA,A,3,02,03,08,24,25,36,,,,,,,2.9,1.1,2.7,3*3F
$GPGSV,2,1,07,07,23,311,43,08,58,183,48,09,45,298,47,16,47,031,45,1*6E
$GPGSV,2,2,07,23,62,243,46,26,23,054,40,27,71,096,48,,,,,1*51
$GAGSV,2,1,06,02,41,300,42,03,44,232,43,08,30,298,41,24,16,070,00,7*78
$GAGSV,2,2,06,25,53,026,42,36,26,153,00,,,,,,,,,7*70
$GPRMC,060640.40,A,3046.9744165,N,10357.5039797,E,0.02,92.59,260319,0.0,E,D*01
$GPGGA,060640.40,3046.9744165,N,10357.5039797,E,4,24,1.0,532.101,M,-40.962,M,2.4,*6D
$GPGSA,A,3,07,08,09,16,23,26,27,,,,,,3.2,1.6,2.8,1*22
$GAGSA,A,3,02,03,08,24,25,36,,,,,,,2.9,1.1,2.7,3*3F
$GPGSV,2,1,07,07,23,311,43,08,58,183,48,09,45,298,47,16,47,031,45,1*6E
$GPGSV,2,2,07,23,62,243,46,26,23,054,40,27,71,096,48,,,,,1*51
$GAGSV,2,1,06,02,41,300,42,03,44,232,43,08,30,298,41,24,16,070,00,7*78
$GAGSV,2,2,06,25,53,026,42,36,26,153,00,,,,,,,,,7*70
$GPRMC,060640.60,A,3046.9744166,N,10357.5039796,E,0.08,92.59,260319,0.0,E,D*0B
$GPGGA,060640.60,3046.9744166,N,10357.5039796,E,4,24,1.0,532.100,M,-40.962,M,2.6,*6E
$GPGSA,A,3,07,08,09,16,23,26,27,,,,,,3.2,1.6,2.8,1*22
$GAGSA,A,3,02,03,08,24,25,36,,,,,,,2.9,1.1,2.7,3*3F
$GPGSV,2,1,07,07,23,311,43,08,58,183,48,09,45,298,47,16,47,031,45,1*6E
$GPGSV,2,2,07,23,62,243,46,26,23,054,40,27,71,096,48,,,,,1*51
$GAGSV,2,1,06,02,41,300,42,03,44,232,43,08,30,298,41,24,16,070,00,7*78
$GAGSV,2,2,06,25,53,026,42,36,26,153,00,,,,,,,,,7*70
$GPRMC,060640.80,A,3046.9744165,N,10357.5039789,E,0.08,92.59,260319,0.0,E,D*08
$GPGGA,060640.80,3046.9744165,N,10357.5039789,E,4,24,1.0,532.098,M,-40.962,M,2.8,*63
$GPGSA,A,3,07,08,09,16,23,26,27,,,,,,3.2,1.6,2.8,1*22
$GAGSA,A,3,02,03,08,24,25,36,,,,,,,2.9,1.1,2.7,3*3F
$GPGSV,2,1,07,07,23,311,43,08,58,183,48,09,45,298,47,16,47,031,45,1*6E
$GPGSV,2,2,07,23,62,243,46,26,23,054,40,27,71,096,48,,,,,1*51
$GAGSV,2,1,06,02,41,300,42,03,44,232,43,08,30,298,41,24,16,070,00,7*78
$GAGSV,2,2,06,25,53,026,42,36,26,153,00,,,,,,,,,7*70
$GPRMC,060641.00,A,3046.9744161,N,10357.5039788,E,0.03,92.59,260319,0.0,E,D*0F
$GPGGA,060641.00,3046.9744161,N,10357.5039788,E,4,24,1.0,532.098,M,-40.962,M,1.0,*64
$GPGSA,A,3,07,08,09,16,23,26,27,,,,,,3.2,1.6,2.8,1*22
$GAGSA,A,3,02,03,08,24,25,36,,,,,,,2.9,1.1,2.7,3*3F
$GPGSV,2,1,07,07,23,311,43,08,58,183,48,09,45,298,47,16,47,031,45,1*6E
$GPGSV,2,2,07,23,62,243,46,26,23,054,40,27,71,096,48,,,,,1*51
$GAGSV,2,1,06,02,41,301,42,03,44,232,43,08,30,298,41,24,16,070,00,7*79
$GAGSV,2,2,06,25,53,026,42,36,26,153,00,,,,,,,,,7*70
$GPRMC,060641.20,A,3046.9744165,N,10357.5039793,E,0.08,92.59,260319,0.0,E,D*08
$GPGGA,060641.20,3046.9744165,N,10357.5039793,E,4,24,1.0,532.100,M,-40.962,M,1.2,*6A
$GPGSA,A,3,07,08,09,16,23,26,27,,,,,,3.2,1.6,2.8,1*22
$GAGSA,A,3,02,03,08,24,25,36,,,,,,,2.9,1.1,2.7,3*3F
$GPGSV,2,1,07,07,23,311,43,08,58,183,48,09,45,298,47,16,47,031,45,1*6E
$GPGSV,2,2,07,23,62,243,46,26,23,054,40,27,71,096,48,,,,,1*51
$GAGSV,2,1,06,02,41,301,42,03,44,232,43,08,30,298,41,24,16,070,00,7*79
$GAGSV,2,2,06,25,53,026,42,36,26,153,00,,,,,,,,,7*70
$GPRMC,060641.40,A,3046.9744164,N,10357.5039782,E,0.07,92.59,260319,0.0,E,D*00
$GPGGA,060641.40,3046.9744164,N,10357.5039782,E,4,24,1.0,532.103,M,-40.962,M,1.4,*68
$GPGSA,A,3,07,08,09,16,23,26,27,,,,,,3.2,1.6,2.8,1*22
$GAGSA,A,3,02,03,08,24,25,36,,,,,,,2.9,1.1,2.7,3*3F
$GPGSV,2,1,07,07,23,311,43,08,58,183,48,09,45,298,47,16,47,031,45,1*6E
$GPGSV,2,2,07,23,62,243,46,26,23,054,40,27,71,096,48,,,,,1*51
$GAGSV,2,1,06,02,41,301,42,03,44,232,43,08,30,298,41,24,16,070,00,7*79
$GAGSV,2,2,06,25,53,026,42,36,26,153,00,,,,,,,,,7*70
$GPRMC,060641.60,A,3046.9744168,N,10357.5039787,E,0.09,92.59,260319,0.0,E,D*05
$GPGGA,060641.60,3046.9744168,N,10357.5039787,E,4,24,1.0,532.102,M,-40.962,M,1.6,*60
$GPGSA,A,3,07,08,09,16,23,26,27,,,,,,3.2,1.6,2.8,1*22
$GAGSA,A,3,02,03,08,24,25,36,,,,,,,2.9,1.1,2.7,3*3F
$GPGSV,2,1,07,07,23,311,43,08,58,183,48,09,45,298,47,16,47,031,45,1*6E
$GPGSV,2,2,07,23,62,243,46,26,23,054,40,27,71,096,48,,,,,1*51
$GAGSV,2,1,06,02,41,301,42,03,44,232,43,08,30,298,41,24,16,070,00,7*79
$GAGSV,2,2,06,25,53,026,42,36,26,153,00,,,,,,,,,7*70
$GPRMC,060641.80,A,3046.9744161,N,10357.5039785,E,0.04,92.59,260319,0.0,E,D*0D
$GPGGA,060641.80,3046.9744161,N,10357.5039785,E,4,24,1.0,532.102,M,-40.962,M,1.8,*6B
$GPGSA,A,3,07,08,09,16,23,26,27,,,,,,3.2,1.6,2.8,1*22
$GAGSA,A,3,02,03,08,24,25,36,,,,,,,2.9,1.1,2.7,3*3F
$GPGSV,2,1,07,07,23,311,43,08,58,183,48,09,45,298,47,16,47,031,45,1*6E
$GPGSV,2,2,07,23,62,243,46,26,23,054,40,27,71,096,48,,,,,1*51
$GAGSV,2,1,06,02,41,301,42,03,44,232,43,08,30,298,41,24,16,070,00,7*79
$GAGSV,2,2,06,25,53,026,42,36,26,153,00,,,,,,,,,7*70
$GPRMC,060642.00,A,3046.9744158,N,10357.5039786,E,0.05,92.59,260319,0.0,E,D*0E
$GPGGA,060642.00,3046.9744158,N,10357.5039786,E,4,24,1.0,532.100,M,-40.962,M,2.0,*60
$GPGSA,A,3,07,08,09,16,23,26,27,,,,,,3.2,1.6,2.8,1*22
$GAGSA,A,3,02,03,08,24,25,36,,,,,,,2.9,1.1,2.7,3*3F
$GPGSV,2,1,07,07,23,311,44,08,58,183,48,09,45,298,47,16,47,031,45,1*69
$GPGSV,2,2,07,23,62,243,46,26,23,054,40,27,71,096,48,,,,,1*51
$GAGSV,2,1,06,02,41,301,42,03,44,232,43,08,30,298,41,24,16,070,00,7*79
$GAGSV,2,2,06,25,53,026,42,36,26,153,00,,,,,,,,,7*70
$GPRMC,060642.20,A,3046.9744160,N,10357.5039788,E,0.03,92.59,260319,0.0,E,D*0F
$GPGGA,060642.20,3046.9744160,N,10357.5039788,E,4,24,1.0,532.100,M,-40.962,M,2.2,*65
$GPGSA,A,3,07,08,09,16,23,26,27,,,,,,3.2,1.6,2.8,1*22
$GAGSA,A,3,02,03,08,24,25,36,,,,,,,2.9,1.1,2.7,3*3F
$GPGSV,2,1,07,07,23,311,44,08,58,183,48,09,45,298,47,16,47,031,45,1*69
$GPGSV,2,2,07,23,62,243,46,26,23,054,40,27,71,096,48,,,,,1*51
$GAGSV,2,1,06,02,41,301,42,03,44,232,43,08,30,298,41,24,16,070,00,7*79
$GAGSV,2,2,06,25,53,026,42,36,26,153,00,,,,,,,,,7*70
$GPRMC,060642.40,A,3046.9744162,N,10357.5039781,E,0.03,92.59,260319,0.0,E,D*02
$GPGGA,060642.40,3046.9744162,N,10357.5039781,E,4,24,1.0,532.099,M,-40.962,M,2.4,*6F
$GPGSA,A,3,07,08,09,16,23,26,27,,,,,,3.2,1.6,2.8,1*22
$GAGSA,A,3,02,03,08,24,25,36,,,,,,,2.9,1.1,2.7,3*3F
$GPGSV,2,1,07,07,23,311,44,08,58,183,48,09,45,298,47,16,47,031,45,1*69
$GPGSV,2,2,07,23,62,243,46,26,23,054,40,27,71,096,48,,,,,1*51
$GAGSV,2,1,06,02,41,301,42,03,44,232,43,08,30,298,41,24,16,070,00,7*79
$GAGSV,2,2,06,25,53,026,42,36,26,153,00,,,,,,,,,7*70
$GPRMC,060642.60,A,3046.9744162,N,10357.5039785,E,0.02,92.59,260319,0.0,E,D*05
$GPGGA,060642.60,3046.9744162,N,10357.5039785,E,4,24,1.0,532.097,M,-40.962,M,2.6,*65
$GPGSA,A,3,07,08,09,16,23,26,27,,,,,,3.2,1.6,2.8,1*22
$GAGSA,A,3,02,03,08,24,25,36,,,,,,,2.9,1.1,2.7,3*3F
$GPGSV,2,1,07,07,23,311,44,08,58,183,48,09,45,298,47,16,47,031,45,1*69
$GPGSV,2,2,07,23,62,243,46,26,23,054,40,27,71,096,48,,,,,1*51
$GAGSV,2,1,06,02,41,301,42,03,44,232,43,08,30,298,41,24,16,070,00,7*79
$GAGSV,2,2,06,25,53,026,42,36,26,153,00,,,,,,,,,7*70
$GPRMC,060642.80,A,3046.9744165,N,10357.5039780,E,0.04,92.59,260319,0.0,E,D*0F
$GPGGA,060642.80,3046.9744165,N,10357.5039780,E,4,24,1.0,532.099,M,-40.962,M,2.8,*69
$GPGSA,A,3,07,08,09,16,23,26,27,,,,,,3.2,1.6,2.8,1*22
$GAGSA,A,3,02,03,08,24,25,36,,,,,,,2.9,1.1,2.7,3*3F
$GPGSV,2,1,07,07,23,311,43,08,58,183,48,09,45,298,47,16,47,031,45,1*6E
$GPGSV,2,2,07,23,62,243,46,26,23,054,40,27,71,096,48,,,,,1*51
$GAGSV,2,1,06,02,41,301,42,03,44,232,43,08,30,298,41,24,16,070,00,7*79
$GAGSV,2,2,06,25,53,026,42,36,26,153,00,,,,,,,,,7*70
$GPRMC,060643.00,A,3046.9744176,N,10357.5039764,E,0.04,92.59,260319,0.0,E,D*0E
$GPGGA,060643.00,3046.9744176,N,10357.5039764,E,4,24,1.0,532.100,M,-40.962,M,1.0,*62
$GPGSA,A,3,07,08,09,16,23,26,27,,,,,,3.2,1.6,2.8,1*22
$GAGSA,A,3,02,03,08,24,25,36,,,,,,,2.9,1.1,2.7,3*3F
$GPGSV,2,1,07,07,23,311,43,08,58,183,48,09,45,298,47,16,47,031,45,1*6E
$GPGSV,2,2,07,23,62,243,46,26,23,054,40,27,71,096,48,,,,,1*51
$GAGSV,2,1,06,02,41,301,42,03,44,232,43,08,30,298,41,24,16,070,00,7*79
$GAGSV,2,2,06,25,53,026,42,36,26,153,00,,,,,,,,,7*70
$GPRMC,060643.20,A,3046.9744173,N,10357.5039770,E,0.05,92.59,260319,0.0,E,D*0D
$GPGGA,060643.20,3046.9744173,N,10357.5039770,E,4,24,1.0,532.099,M,-40.962,M,1.2,*63
$GPGSA,A,3,07,08,09,16,23,26,27,,,,,,3.2,1.6,2.8,1*22
$GAGSA,A,3,02,03,08,24,25,36,,,,,,,2.9,1.1,2.7,3*3F
$GPGSV,2,1,07,07,23,311,44,08,58,183,48,09,45,298,47,16,47,031,45,1*69
$GPGSV,2,2,07,23,62,243,46,26,23,054,40,27,71,096,48,,,,,1*51
$GAGSV,2,1,06,02,41,301,42,03,44,232,43,08,30,298,41,24,16,070,00,7*79
$GAGSV,2,2,06,25,53,026,42,36,26,153,00,,,,,,,,,7*70
$GPRMC,060643.40,A,3046.9744175,N,10357.5039765,E,0.04,92.59,260319,0.0,E,D*08
$GPGGA,060643.40,3046.9744175,N,10357.5039765,E,4,24,1.0,532.098,M,-40.962,M,1.4,*60
$GPGSA,A,3,07,08,09,16,23,26,27,,,,,,3.2,1.6,2.8,1*22
$GAGSA,A,3,02,03,08,24,25,36,,,,,,,2.9,1.1,2.7,3*3F
$GPGSV,2,1,07,07,23,311,44,08,58,183,48,09,45,298,47,16,47,031,45,1*69
$GPGSV,2,2,07,23,62,243,46,26,23,054,40,27,71,096,48,,,,,1*51
$GAGSV,2,1,06,02,41,301,42,03,44,232,43,08,30,298,41,24,16,070,00,7*79
$GAGSV,2,2,06,25,53,026,42,36,26,153,00,,,,,,,,,7*70
$GPRMC,060643.60,A,3046.9744181,N,10357.5039761,E,0.02,92.59,260319,0.0,E,D*03
$GPGGA,060643.60,3046.9744181,N,10357.5039761,E,4,24,1.0,532.099,M,-40.962,M,1.6,*6E
$GPGSA,A,3,07,08,09,16,23,26,27,,,,,,3.2,1.6,2.8,1*22
$GAGSA,A,3,02,03,08,24,25,36,,,,,,,2.9,1.1,2.7,3*3F
$GPGSV,2,1,07,07,23,311,44,08,58,183,48,09,45,298,47,16,47,031,45,1*69
$GPGSV,2,2,07,23,62,243,46,26,23,054,40,27,71,096,48,,,,,1*51
$GAGSV,2,1,06,02,41,301,42,03,44,232,43,08,30,298,41,24,16,070,00,7*79
$GAGSV,2,2,06,25,53,026,42,36,26,153,00,,,,,,,,,7*70
$GPRMC,060643.80,A,3046.9744178,N,10357.5039754,E,0.02,92.59,260319,0.0,E,D*0D
$GPGGA,060643.80,3046.9744178,N,10357.5039754,E,4,24,1.0,532.098,M,-40.962,M,1.8,*6F
$GPGSA,A,3,07,08,09,16,23,26,27,,,,,,3.2,1.6,2.8,1*22
$GAGSA,A,3,02,03,08,24,25,36,,,,,,,2.9,1.1,2.7,3*3F
$GPGSV,2,1,07,07,23,311,44,08,58,183,48,09,45,298,47,16,47,031,45,1*69
$GPGSV,2,2,07,23,62,243,46,26,23,054,40,27,71,096,48,,,,,1*51
$GAGSV,2,1,06,02,41,301,42,03,44,232,43,08,30,298,41,24,16,070,00,7*79
$GAGSV,2,2,06,25,53,026,42,36,26,153,00,,,,,,,,,7*70
$GPRMC,060644.00,A,3046.9744176,N,10357.5039762,E,0.03,92.59,260319,0.0,E,D*08
$GPGGA,060644.00,3046.9744176,N,10357.5039762,E,4,24,1.0,532.098,M,-40.962,M,2.0,*60
$GPGSA,A,3,07,08,09,16,23,26,27,,,,,,3.2,1.6,2.8,1*22
$GAGSA,A,3,02,03,08,24,25,36,,,,,,,2.9,1.1,2.7,3*3F
$GPGSV,2,1,07,07,23,311,44,08,58,183,48,09,45,298,47,16,47,031,45,1*69
$GPGSV,2,2,07,23,62,243,46,26,23,054,40,27,71,096,48,,,,,1*51
$GAGSV,2,1,06,02,41,301,42,03,44,232,43,08,30,298,41,24,16,070,00,7*79
$GAGSV,2,2,06,25,53,026,42,36,26,153,00,,,,,,,,,7*70
$GPRMC,060644.20,A,3046.9744172,N,10357.5039753,E,0.03,92.59,260319,0.0,E,D*0C
$GPGGA,060644.20,3046.9744172,N,10357.5039753,E,4,24,1.0,532.097,M,-40.962,M,2.2,*69
$GPGSA,A,3,07,08,09,16,23,26,27,,,,,,3.2,1.6,2.8,1*22
$GAGSA,A,3,02,03,08,24,25,36,,,,,,,2.9,1.1,2.7,3*3F
$GPGSV,2,1,07,07,23,311,44,08,58,183,48,09,45,298,47,16,47,031,45,1*69
$GPGSV,2,2,07,23,62,243,46,26,23,054,40,27,71,096,48,,,,,1*51
$GAGSV,2,1,06,02,41,301,42,03,44,232,43,08,30,298,41,24,16,070,00,7*79
$GAGSV,2,2,06,25,53,026,42,36,26,153,00,,,,,,,,,7*70
$GPRMC,060644.40,A,3046.9744172,N,10357.5039751,E,0.07,92.59,260319,0.0,E,D*0C
$GPGGA,060644.40,3046.9744172,N,10357.5039751,E,4,24,1.0,532.096,M,-40.962,M,2.4,*6A
$GPGSA,A,3,07,08,09,16,23,26,27,,,,,,3.2,1.6,2.8,1*22
$GAGSA,A,3,02,03,08,24,25,36,,,,,,,2.9,1.1,2.7,3*3F
$GPGSV,2,1,07,07,23,311,44,08,58,183,48,09,45,298,47,16,47,031,45,1*69
$GPGSV,2,2,07,23,62,243,46,26,23,054,41,27,71,096,48,,,,,1*50
$GAGSV,2,1,06,02,41,301,42,03,44,232,43,08,30,298,41,24,16,070,00,7*79
$GAGSV,2,2,06,25,53,026,42,36,26,153,00,,,,,,,,,7*70
$GPRMC,060644.60,A,3046.9744172,N,10357.5039749,E,0.13,92.59,260319,0.0,E,D*02
$GPGGA,060644.60,3046.9744172,N,10357.5039749,E,4,24,1.0,532.097,M,-40.962,M,2.6,*62
$GPGSA,A,3,07,08,09,16,23,26,27,,,,,,3.2,1.6,2.8,1*22
$GAGSA,A,3,02,03,08,24,25,36,,,,,,,2.9,1.1,2.7,3*3F
$GPGSV,2,1,07,07,23,311,44,08,58,183,48,09,45,298,47,16,47,031,45,1*69
$GPGSV,2,2,07,23,62,243,46,26,23,054,41,27,71,096,48,,,,,1*50
$GAGSV,2,1,06,02,41,301,42,03,44,232,43,08,30,298,41,24,16,070,00,7*79
$GAGSV,2,2,06,25,53,026,42,36,26,153,00,,,,,,,,,7*70
$GPRMC,060644.80,A,3046.9744180,N,10357.5039768,E,0.08,92.59,260319,0.0,E,D*08
$GPGGA,060644.80,3046.9744180,N,10357.5039768,E,4,24,1.0,532.096,M,-40.962,M,2.8,*6D
$GPGSA,A,3,07,08,09,16,23,26,27,,,,,,3.2,1.6,2.8,1*22
$GAGSA,A,3,02,03,08,24,25,36,,,,,,,2.9,1.1,2.7,3*3F
$GPGSV,2,1,07,07,23,311,44,08,58,183,48,09,45,298,47,16,47,031,45,1*69
$GPGSV,2,2,07,23,62,243,46,26,23,054,41,27,71,096,48,,,,,1*50
$GAGSV,2,1,06,02,41,301,42,03,44,232,43,08,30,298,41,24,16,070,00,7*79
$GAGSV,2,2,06,25,53,026,42,36,26,153,00,,,,,,,,,7*70
$GPRMC,060645.00,A,3046.9744170,N,10357.5039832,E,0.14,92.59,260319,0.0,E,D*03
$GPGGA,060645.00,3046.9744170,N,10357.5039832,E,4,23,1.0,532.104,M,-40.962,M,1.0,*6D
$GPGSA,A,3,07,08,09,16,23,26,27,,,,,,3.2,1.6,2.8,1*22
$GAGSA,A,3,02,03,08,24,25,36,,,,,,,2.9,1.1,2.7,3*3F
$GPGSV,2,1,07,07,23,311,44,08,58,183,48,09,45,298,47,16,47,031,45,1*69
$GPGSV,2,2,07,23,62,243,46,26,23,054,41,27,71,096,48,,,,,1*50
$GAGSV,2,1,06,02,41,301,42,03,44,232,43,08,30,298,41,24,16,070,00,7*79
$GAGSV,2,2,06,25,53,026,42,36,26,153,00,,,,,,,,,7*70
$GPRMC,060645.20,A,3046.9744157,N,10357.5039920,E,0.18,92.59,260319,0.0,E,D*0A
$GPGGA,060645.20,3046.9744157,N,10357.5039920,E,4,23,1.0,532.107,M,-40.962,M,1.2,*69
$GPGSA,A,3,07,08,09,16,23,26,27,,,,,,3.2,1.6,2.8,1*22
$GAGSA,A,3,02,03,08,24,25,36,,,,,,,2.9,1.1,2.7,3*3F
$GPGSV,2,1,07,07,23,311,44,08,58,183,48,09,45,298,47,16,47,031,45,1*69
$GPGSV,2,2,07,23,62,243,46,26,23,054,41,27,71,096,48,,,,,1*50
$GAGSV,2,1,06,02,41,301,42,03,44,232,43,08,30,298,41,24,16,070,00,7*79
$GAGSV,2,2,06,25,53,026,42,36,26,153,00,,,,,,,,,7*70
$GPRMC,060645.40,A,3046.9744137,N,10357.5040097,E,0.40,92.59,260319,0.0,E,D*0C
$GPGGA,060645.40,3046.9744137,N,10357.5040097,E,4,23,1.0,532.106,M,-40.962,M,1.4,*65
$GPGSA,A,3,07,08,09,16,23,26,27,,,,,,3.2,1.6,2.8,1*22
$GAGSA,A,3,02,03,08,24,25,36,,,,,,,2.9,1.1,2.7,3*3F
$GPGSV,2,1,07,07,23,311,44,08,58,183,48,09,45,298,47,16,47,031,45,1*69
$GPGSV,2,2,07,23,62,243,46,26,23,054,41,27,71,096,48,,,,,1*50
$GAGSV,2,1,06,02,41,301,42,03,44,232,43,08,30,298,41,24,16,070,00,7*79
$GAGSV,2,2,06,25,53,026,42,36,26,153,00,,,,,,,,,7*70
$GPRMC,060645.60,A,3046.9744104,N,10357.5040380,E,0.53,92.59,260319,0.0,E,D*09
$GPGGA,060645.60,3046.9744104,N,10357.5040380,E,4,23,1.0,532.105,M,-40.962,M,1.6,*63
$GPGSA,A,3,07,08,09,16,23,26,27,,,,,,3.2,1.6,2.8,1*22
$GAGSA,A,3,02,03,08,24,25,36,,,,,,,2.9,1.1,2.7,3*3F
$GPGSV,2,1,07,07,23,311,44,08,58,183,48,09,45,298,47,16,47,031,45,1*69
$GPGSV,2,2,07,23,62,243,46,26,23,054,41,27,71,096,48,,,,,1*50
$GAGSV,2,1,06,02,41,301,42,03,44,232,43,08,30,298,41,24,16,070,00,7*79
$GAGSV,2,2,06,25,53,026,42,36,26,153,00,,,,,,,,,7*70
$GPRMC,060645.80,A,3046.9744044,N,10357.5040816,E,0.83,92.59,260319,0.0,E,D*0B
$GPGGA,060645.80,3046.9744044,N,10357.5040816,E,4,23,1.0,532.104,M,-40.962,M,1.8,*63
$GPGSA,A,3,07,08,09,16,23,26,27,,,,,,3.2,1.6,2.8,1*22
$GAGSA,A,3,02,03,08,24,25,36,,,,,,,2.9,1.1,2.7,3*3F
$GPGSV,2,1,07,07,23,311,44,08,58,183,47,09,45,298,47,16,47,031,44,1*67
$GPGSV,2,2,07,23,62,243,46,26,23,054,41,27,71,096,48,,,,,1*50
$GAGSV,2,1,06,02,41,301,42,03,44,232,43,08,30,298,41,24,16,070,00,7*79
$GAGSV,2,2,06,25,53,026,43,36,26,153,00,,,,,,,,,7*71
$GPRMC,060646.00,A,3046.9743974,N,10357.5041404,E,1.06,92.59,260319,0.0,E,D*0F
$GPGGA,060646.00,3046.9743974,N,10357.5041404,E,4,23,1.0,532.098,M,-40.962,M,2.0,*64
$GPGSA,A,3,07,08,09,16,23,26,27,,,,,,3.2,1.6,2.8,1*22
$GAGSA,A,3,02,03,08,24,25,36,,,,,,,2.9,1.1,2.7,3*3F
$GPGSV,2,1,07,07,23,311,44,08,58,183,47,09,45,298,47,16,47,031,44,1*67
$GPGSV,2,2,07,23,62,243,45,26,23,054,41,27,71,096,48,,,,,1*53
$GAGSV,2,1,06,02,41,301,42,03,44,232,43,08,30,298,41,24,16,070,00,7*79
$GAGSV,2,2,06,25,53,026,43,36,26,153,00,,,,,,,,,7*71
$GPRMC,060646.20,A,3046.9743878,N,10357.5042168,E,1.31,92.59,260319,0.0,E,D*08
$GPGGA,060646.20,3046.9743878,N,10357.5042168,E,4,23,1.0,532.099,M,-40.962,M,2.2,*64
$GPGSA,A,3,07,08,09,16,23,26,27,,,,,,3.2,1.6,2.8,1*22
$GAGSA,A,3,02,03,08,24,25,36,,,,,,,2.9,1.1,2.7,3*3F
$GPGSV,2,1,07,07,23,311,44,08,58,183,47,09,45,298,48,16,47,031,44,1*68
$GPGSV,2,2,07,23,62,243,46,26,23,054,41,27,71,096,48,,,,,1*50
$GAGSV,2,1,06,02,41,301,42,03,44,232,43,08,30,298,41,24,16,070,00,7*79
$GAGSV,2,2,06,25,53,026,43,36,26,153,00,,,,,,,,,7*71
$GPRMC,060646.40,A,3046.9743781,N,10357.5043094,E,1.60,92.59,260319,0.0,E,D*00
$GPGGA,060646.40,3046.9743781,N,10357.5043094,E,4,23,1.0,532.100,M,-40.962,M,2.4,*6F
$GPGSA,A,3,07,08,09,16,23,26,27,,,,,,3.2,1.6,2.8,1*22
$GAGSA,A,3,02,03,08,24,25,36,,,,,,,2.9,1.1,2.7,3*3F
$GPGSV,2,1,07,07,23,311,44,08,58,183,47,09,45,298,48,16,47,031,44,1*68
$GPGSV,2,2,07,23,62,243,45,26,23,054,41,27,71,096,48,,,,,1*53
$GAGSV,2,1,06,02,41,301,42,03,44,232,43,08,30,298,41,24,16,070,00,7*79
$GAGSV,2,2,06,25,53,026,43,36,26,153,00,,,,,,,,,7*71
$GPRMC,060646.60,A,3046.9743641,N,10357.5044144,E,1.79,92.59,260319,0.0,E,D*0C
$GPGGA,060646.60,3046.9743641,N,10357.5044144,E,4,23,1.0,532.099,M,-40.962,M,2.6,*68
$GPGSA,A,3,07,08,09,16,23,26,27,,,,,,3.2,1.6,2.8,1*22
$GAGSA,A,3,02,03,08,24,25,36,,,,,,,2.9,1.1,2.7,3*3F
$GPGSV,2,1,07,07,23,311,44,08,58,183,47,09,45,298,48,16,47,031,44,1*68
$GPGSV,2,2,07,23,62,243,45,26,23,054,41,27,71,096,48,,,,,1*53
$GAGSV,2,1,06,02,41,301,42,03,44,232,43,08,30,298,41,24,16,070,00,7*79
$GAGSV,2,2,06,25,53,026,43,36,26,153,00,,,,,,,,,7*71
$GPRMC,060646.80,A,3046.9743478,N,10357.5045312,E,1.92,92.59,260319,0.0,E,D*0F
$GPGGA,060646.80,3046.9743478,N,10357.5045312,E,4,23,1.0,532.094,M,-40.962,M,2.8,*6D
$GPGSA,A,3,07,08,09,16,23,26,27,,,,,,3.2,1.6,2.8,1*22
$GAGSA,A,3,02,03,08,24,25,36,,,,,,,2.9,1.1,2.7,3*3F
$GPGSV,2,1,07,07,23,311,44,08,58,183,47,09,45,298,47,16,47,031,45,1*66
$GPGSV,2,2,07,23,62,243,46,26,23,054,41,27,71,096,48,,,,,1*50
$GAGSV,2,1,06,02,41,301,42,03,44,232,43,08,30,298,41,24,16,070,00,7*79
$GAGSV,2,2,06,25,53,026,43,36,26,153,00,,,,,,,,,7*71
$GPRMC,060647.00,A,3046.9743316,N,10357.5046646,E,2.18,94.81,260319,0.0,E,D*0C
$GPGGA,060647.00,3046.9743316,N,10357.5046646,E,4,24,1.0,532.095,M,-40.962,M,1.0,*61
$GPGSA,A,3,07,08,09,16,23,26,27,,,,,,3.2,1.6,2.8,1*22
$GAGSA,A,3,02,03,08,24,25,36,,,,,,,2.9,1.1,2.7,3*3F
$GPGSV,2,1,07,07,23,311,43,08,58,183,47,09,45,298,48,16,47,031,45,1*6E
$GPGSV,2,2,07,23,62,243,46,26,23,054,40,27,71,096,48,,,,,1*51
$GAGSV,2,1,06,02,41,301,42,03,44,232,43,08,30,298,41,24,16,070,00,7*79
$GAGSV,2,2,06,25,53,026,43,36,26,153,00,,,,,,,,,7*71
$GPRMC,060647.20,A,3046.9743116,N,10357.5048081,E,2.29,100.77,260319,0.0,E,D*38
$GPGGA,060647.20,3046.9743116,N,10357.5048081,E,4,24,1.0,532.094,M,-40.962,M,1.2,*61
$GPGSA,A,3,07,08,09,16,23,26,27,,,,,,3.2,1.6,2.8,1*22
$GAGSA,A,3,02,03,08,24,25,36,,,,,,,2.9,1.1,2.7,3*3F
$GPGSV,2,1,07,07,23,311,43,08,58,183,47,09,45,298,48,16,47,031,44,1*6F
$GPGSV,2,2,07,23,62,243,46,26,23,054,40,27,71,096,48,,,,,1*51
$GAGSV,2,1,06,02,41,301,43,03,44,232,43,08,30,298,41,24,16,070,00,7*78
$GAGSV,2,2,06,25,53,026,43,36,26,153,00,,,,,,,,,7*71
$GPRMC,060647.40,A,3046.9742936,N,10357.5049623,E,2.56,95.92,260319,0.0,E,D*04
$GPGGA,060647.40,3046.9742936,N,10357.5049623,E,4,25,1.0,532.096,M,-40.962,M,1.4,*66
$GPGSA,A,3,07,08,09,16,23,26,27,,,,,,3.2,1.6,2.8,1*22
$GAGSA,A,3,02,03,05,08,24,25,36,,,,,,2.7,1.0,2.5,3*37
$GPGSV,2,1,07,07,23,311,43,08,58,183,47,09,45,298,48,16,47,031,45,1*6E
$GPGSV,2,2,07,23,62,243,46,26,23,054,40,27,71,096,48,,,,,1*51
$GAGSV,2,1,07,02,41,301,42,03,44,232,43,05,17,180,35,08,30,298,41,7*72
$GAGSV,2,2,07,24,16,070,00,25,53,026,43,36,26,153,00,,,,,7*46
$GPRMC,060647.60,A,3046.9742734,N,10357.5051262,E,2.70,98.74,260319,0.0,E,D*03
$GPGGA,060647.60,3046.9742734,N,10357.5051262,E,4,25,1.0,532.098,M,-40.962,M,1.6,*6C
$GPGSA,A,3,07,08,09,16,23,26,27,,,,,,3.2,1.6,2.8,1*22
$GAGSA,A,3,02,03,05,08,24,25,36,,,,,,2.7,1.0,2.5,3*37
$GPGSV,2,1,07,07,23,311,43,08,58,183,47,09,45,298,48,16,47,031,45,1*6E
$GPGSV,2,2,07,23,62,243,46,26,23,054,40,27,71,096,48,,,,,1*51
$GAGSV,2,1,07,02,41,301,42,03,44,232,43,05,17,180,35,08,30,298,41,7*72
$GAGSV,2,2,07,24,16,070,00,25,53,026,43,36,26,153,00,,,,,7*46
$GPRMC,060647.80,A,3046.9742497,N,10357.5052983,E,2.82,99.07,260319,0.0,E,D*08
$GPGGA,060647.80,3046.9742497,N,10357.5052983,E,4,25,1.0,532.101,M,-40.962,M,1.8,*60
$GPGSA,A,3,07,08,09,16,23,26,27,,,,,,3.2,1.6,2.8,1*22
$GAGSA,A,3,02,03,05,08,24,25,36,,,,,,2.7,1.0,2.5,3*37
$GPGSV,2,1,07,07,23,311,43,08,58,183,48,09,45,298,49,16,47,031,45,1*60
$GPGSV,2,2,07,23,62,243,46,26,23,054,40,27,71,096,48,,,,,1*51
$GAGSV,2,1,07,02,41,301,42,03,44,232,43,05,17,180,38,08,30,298,41,7*7F
$GAGSV,2,2,07,24,16,070,00,25,53,026,43,36,26,153,00,,,,,7*46
$GPRMC,060648.00,A,3046.9742296,N,10357.5054809,E,2.85,97.11,260319,0.0,E,D*03
$GPGGA,060648.00,3046.9742296,N,10357.5054809,E,4,25,1.0,532.103,M,-40.962,M,2.0,*6C
$GPGSA,A,3,07,08,09,16,23,26,27,,,,,,3.2,1.6,2.8,1*22
$GAGSA,A,3,02,03,05,08,24,25,36,,,,,,2.7,1.0,2.5,3*37
$GPGSV,2,1,07,07,23,311,43,08,58,183,47,09,45,298,48,16,47,031,45,1*6E
$GPGSV,2,2,07,23,62,243,46,26,23,054,41,27,71,096,48,,,,,1*50
$GAGSV,2,1,07,02,41,301,42,03,44,232,43,05,17,180,37,08,30,298,41,7*70
$GAGSV,2,2,07,24,16,070,00,25,53,026,43,36,26,153,00,,,,,7*46
$GPRMC,060648.20,A,3046.9742066,N,10357.5056712,E,3.11,97.90,260319,0.0,E,D*0E
$GPGGA,060648.20,3046.9742066,N,10357.5056712,E,4,25,1.0,532.102,M,-40.962,M,2.2,*67
$GPGSA,A,3,07,08,09,16,23,26,27,,,,,,3.2,1.6,2.8,1*22
$GAGSA,A,3,02,03,05,08,24,25,36,,,,,,2.7,1.0,2.5,3*37
$GPGSV,2,1,07,07,23,311,43,08,58,183,47,09,45,298,48,16,47,031,45,1*6E
$GPGSV,2,2,07,23,62,243,46,26,23,054,41,27,71,096,48,,,,,1*50
$GAGSV,2,1,07,02,41,301,42,03,44,232,43,05,17,180,38,08,30,298,41,7*7F
$GAGSV,2,2,07,24,16,070,00,25,53,026,43,36,26,153,00,,,,,7*46
$GPRMC,060648.40,A,3046.9741791,N,10357.5058735,E,3.21,98.27,260319,0.0,E,D*0F
$GPGGA,060648.40,3046.9741791,N,10357.5058735,E,4,25,1.0,532.097,M,-40.962,M,2.4,*6D
$GPGSA,A,3,07,08,09,16,23,26,27,,,,,,3.2,1.6,2.8,1*22
$GAGSA,A,3,02,03,05,08,24,25,36,,,,,,2.7,1.0,2.5,3*37
$GPGSV,2,1,07,07,23,311,43,08,58,183,47,09,45,298,48,16,47,031,45,1*6E
$GPGSV,2,2,07,23,62,243,46,26,23,054,41,27,71,096,48,,,,,1*50
$GAGSV,2,1,07,02,41,301,42,03,44,232,43,05,17,180,38,08,30,298,41,7*7F
$GAGSV,2,2,07,24,16,070,00,25,53,026,43,36,26,153,00,,,,,7*46
$GPRMC,060648.60,A,3046.9741539,N,10357.5060888,E,3.42,98.56,260319,0.0,E,D*0C
$GPGGA,060648.60,3046.9741539,N,10357.5060888,E,4,25,1.0,532.092,M,-40.962,M,2.6,*6A
$GPGSA,A,3,07,08,09,16,23,26,27,,,,,,3.2,1.6,2.8,1*22
$GAGSA,A,3,02,03,05,08,24,25,36,,,,,,2.7,1.0,2.5,3*37
$GPGSV,2,1,07,07,23,311,43,08,58,183,47,09,45,298,48,16,47,031,45,1*6E
$GPGSV,2,2,07,23,62,243,46,26,23,054,41,27,71,096,48,,,,,1*50
$GAGSV,2,1,07,02,41,301,42,03,44,232,43,05,17,180,39,08,30,298,41,7*7E
$GAGSV,2,2,07,24,16,070,00,25,53,026,43,36,26,153,00,,,,,7*46
$GPRMC,060648.80,A,3046.9741247,N,10357.5063068,E,3.58,98.16,260319,0.0,E,D*06
$GPGGA,060648.80,3046.9741247,N,10357.5063068,E,4,25,1.0,532.104,M,-40.962,M,2.8,*6F
$GPGSA,A,3,07,08,09,16,23,26,27,,,,,,3.2,1.6,2.8,1*22
$GAGSA,A,3,02,03,05,08,24,25,36,,,,,,2.7,1.0,2.5,3*37
$GPGSV,2,1,07,07,23,311,42,08,58,183,47,09,45,298,48,16,47,031,44,1*6E
$GPGSV,2,2,07,23,62,243,46,26,23,054,41,27,71,096,48,,,,,1*50
$GAGSV,2,1,07,02,41,301,42,03,44,232,43,05,17,180,39,08,30,298,41,7*7E
$GAGSV,2,2,07,24,16,070,00,25,53,026,43,36,26,153,00,,,,,7*46
$GPRMC,060649.00,A,3046.9740971,N,10357.5065357,E,3.62,97.59,260319,0.0,E,D*04
$GPGGA,060649.00,3046.9740971,N,10357.5065357,E,4,25,1.0,532.104,M,-40.962,M,1.0,*6B
$GPGSA,A,3,07,08,09,16,23,26,27,,,,,,3.2,1.6,2.8,1*22
$GAGSA,A,3,02,03,05,08,24,25,36,,,,,,2.7,1.0,2.5,3*37
$GPGSV,2,1,07,07,23,311,43,08,58,183,47,09,45,298,48,16,47,031,45,1*6E
$GPGSV,2,2,07,23,62,243,46,26,23,054,41,27,71,096,48,,,,,1*50
$GAGSV,2,1,07,02,41,301,42,03,44,232,43,05,17,180,39,08,30,298,41,7*7E
$GAGSV,2,2,07,24,16,070,00,25,53,026,43,36,26,153,00,,,,,7*46
$GPRMC,060649.20,A,3046.9740666,N,10357.5067784,E,3.92,99.76,260319,0.0,E,D*0B
$GPGGA,060649.20,3046.9740666,N,10357.5067784,E,4,25,1.0,532.112,M,-40.962,M,1.2,*6D
$GPGSA,A,3,07,08,09,16,23,26,27,,,,,,3.2,1.6,2.8,1*22
$GAGSA,A,3,02,03,05,08,24,25,36,,,,,,2.7,1.0,2.5,3*37
$GPGSV,2,1,07,07,23,311,43,08,58,183,47,09,45,298,48,16,47,031,45,1*6E
$GPGSV,2,2,07,23,62,243,46,26,23,054,41,27,71,096,48,,,,,1*50
$GAGSV,2,1,07,02,41,301,42,03,44,232,43,05,17,180,39,08,30,298,41,7*7E
$GAGSV,2,2,07,24,16,070,00,25,53,026,43,36,26,153,00,,,,,7*46
$GPRMC,060649.40,A,3046.9740325,N,10357.5070277,E,4.02,98.78,260319,0.0,E,D*01
$GPGGA,060649.40,3046.9740325,N,10357.5070277,E,4,25,1.0,532.117,M,-40.962,M,1.4,*65
$GPGSA,A,3,07,08,09,16,23,26,27,,,,,,3.2,1.6,2.8,1*22
$GAGSA,A,3,02,03,05,08,24,25,36,,,,,,2.7,1.0,2.5,3*37
$GPGSV,2,1,07,07,23,311,43,08,58,183,47,09,45,298,48,16,47,031,45,1*6E
$GPGSV,2,2,07,23,62,243,46,26,23,054,41,27,71,096,48,,,,,1*50
$GAGSV,2,1,07,02,41,301,42,03,44,232,43,05,17,180,39,08,30,298,41,7*7E
$GAGSV,2,2,07,24,16,070,00,25,53,026,43,36,26,153,00,,,,,7*46
$GPRMC,060649.60,A,3046.9739966,N,10357.5072908,E,4.24,99.12,260319,0.0,E,D*08
$GPGGA,060649.60,3046.9739966,N,10357.5072908,E,4,25,1.0,532.119,M,-40.963,M,1.6,*68
$GPGSA,A,3,07,08,09,16,23,26,27,,,,,,3.2,1.6,2.8,1*22
$GAGSA,A,3,02,03,05,08,24,25,36,,,,,,2.7,1.0,2.5,3*37
$GPGSV,2,1,07,07,23,311,43,08,58,183,48,09,45,298,48,16,47,031,45,1*61
$GPGSV,2,2,07,23,62,243,46,26,23,054,41,27,71,096,48,,,,,1*50
$GAGSV,2,1,07,02,41,301,43,03,44,232,43,05,17,180,39,08,30,298,41,7*7F
$GAGSV,2,2,07,24,16,070,00,25,53,026,43,36,26,153,00,,,,,7*46
$GPRMC,060649.80,A,3046.9739603,N,10357.5075605,E,4.34,98.02,260319,0.0,E,D*0E
$GPGGA,060649.80,3046.9739603,N,10357.5075605,E,4,25,1.0,532.122,M,-40.963,M,1.8,*69
$GPGSA,A,3,07,08,09,16,23,26,27,,,,,,3.2,1.6,2.8,1*22
$GAGSA,A,3,02,03,05,08,24,25,36,,,,,,2.7,1.0,2.5,3*37
$GPGSV,2,1,07,07,23,311,43,08,58,183,47,09,45,298,48,16,47,031,45,1*6E
$GPGSV,2,2,07,23,62,243,46,26,23,054,41,27,71,096,48,,,,,1*50
$GAGSV,2,1,07,02,41,301,43,03,44,232,43,05,17,180,39,08,30,298,41,7*7F
$GAGSV,2,2,07,24,16,070,00,25,53,026,43,36,26,153,00,,,,,7*46
$GPRMC,060650.00,A,3046.9739232,N,10357.5078421,E,4.52,98.60,260319,0.0,E,D*05
$GPGGA,060650.00,3046.9739232,N,10357.5078421,E,4,25,1.0,532.132,M,-40.963,M,2.0,*6C
$GPGSA,A,3,07,08,09,16,23,26,27,,,,,,3.2,1.6,2.8,1*22
$GAGSA,A,3,02,03,05,08,24,25,36,,,,,,2.7,1.0,2.5,3*37
$GPGSV,2,1,07,07,23,311,43,08,58,183,47,09,45,298,48,16,47,031,45,1*6E
$GPGSV,2,2,07,23,62,243,46,26,23,054,41,27,71,096,48,,,,,1*50
$GAGSV,2,1,07,02,41,301,43,03,44,232,43,05,17,180,38,08,30,298,41,7*7E
$GAGSV,2,2,07,24,16,070,00,25,53,026,43,36,26,153,00,,,,,7*46
$GPRMC,060650.20,A,3046.9738838,N,10357.5081299,E,4.51,99.42,260319,0.0,E,D*07
$GPGGA,060650.20,3046.9738838,N,10357.5081299,E,4,25,1.0,532.138,M,-40.963,M,2.2,*64
$GPGSA,A,3,07,08,09,16,23,26,27,,,,,,3.2,1.6,2.8,1*22
$GAGSA,A,3,02,03,05,08,24,25,36,,,,,,2.7,1.0,2.5,3*37
$GPGSV,2,1,07,07,23,311,44,08,58,183,47,09,45,298,48,16,47,031,45,1*69
$GPGSV,2,2,07,23,62,243,46,26,23,054,41,27,71,096,48,,,,,1*50
$GAGSV,2,1,07,02,41,301,43,03,44,232,43,05,17,180,38,08,30,298,41,7*7E
$GAGSV,2,2,07,24,16,070,00,25,53,026,43,36,26,153,00,,,,,7*46
$GPRMC,060650.40,A,3046.9738407,N,10357.5084253,E,4.76,99.25,260319,0.0,E,D*06
$GPGGA,060650.40,3046.9738407,N,10357.5084253,E,4,25,1.0,532.143,M,-40.963,M,2.4,*6B
$GPGSA,A,3,07,08,09,16,23,26,27,,,,,,3.2,1.6,2.8,1*22
$GAGSA,A,3,02,03,05,08,24,25,36,,,,,,2.7,1.0,2.5,3*37
$GPGSV,2,1,07,07,23,311,43,08,58,183,47,09,45,298,48,16,47,031,45,1*6E
$GPGSV,2,2,07,23,62,243,46,26,23,054,41,27,71,096,48,,,,,1*50
$GAGSV,2,1,07,02,41,301,43,03,44,232,43,05,17,180,39,08,30,298,41,7*7F
$GAGSV,2,2,07,24,16,070,00,25,53,026,43,36,26,153,00,,,,,7*46
$GPRMC,060650.60,A,3046.9737984,N,10357.5087224,E,4.72,99.91,260319,0.0,E,D*05
$GPGGA,060650.60,3046.9737984,N,10357.5087224,E,4,25,1.0,532.138,M,-40.963,M,2.6,*6D
$GPGSA,A,3,07,08,09,16,23,26,27,,,,,,3.2,1.6,2.8,1*22
$GAGSA,A,3,02,03,05,08,24,25,36,,,,,,2.7,1.0,2.5,3*37
$GPGSV,2,1,07,07,23,311,43,08,58,183,47,09,45,298,48,16,47,031,45,1*6E
$GPGSV,2,2,07,23,62,243,46,26,23,054,41,27,71,096,48,,,,,1*50
$GAGSV,2,1,07,02,41,301,43,03,44,232,43,05,17,180,39,08,30,298,41,7*7F
$GAGSV,2,2,07,24,16,070,00,25,53,026,43,36,26,153,00,,,,,7*46
$GPRMC,060650.80,A,3046.9737583,N,10357.5090253,E,4.80,98.79,260319,0.0,E,D*0C
$GPGGA,060650.80,3046.9737583,N,10357.5090253,E,4,25,1.0,532.148,M,-40.963,M,2.8,*67
$GPGSA,A,3,07,08,09,16,23,26,27,,,,,,3.2,1.6,2.8,1*22
$GAGSA,A,3,02,03,05,08,24,25,36,,,,,,2.7,1.0,2.5,3*37
$GPGSV,2,1,07,07,23,311,43,08,58,183,47,09,45,298,48,16,47,031,45,1*6E
$GPGSV,2,2,07,23,62,243,46,26,23,054,41,27,71,096,48,,,,,1*50
$GAGSV,2,1,07,02,41,301,43,03,44,232,43,05,17,180,39,08,30,298,41,7*7F
$GAGSV,2,2,07,24,16,070,00,25,53,026,43,36,26,153,00,,,,,7*46
$GPRMC,060651.00,A,3046.9737124,N,10357.5093331,E,4.87,99.96,260319,0.0,E,D*0D
$GPGGA,060651.00,3046.9737124,N,10357.5093331,E,4,25,1.0,532.158,M,-40.963,M,1.0,*6B
$GPGSA,A,3,07,08,09,16,23,26,27,,,,,,3.2,1.6,2.8,1*22
$GAGSA,A,3,02,03,05,08,24,25,36,,,,,,2.7,1.0,2.5,3*37
$GPGSV,2,1,07,07,23,311,43,08,58,183,47,09,45,298,48,16,47,031,45,1*6E
$GPGSV,2,2,07,23,62,243,46,26,23,054,41,27,71,096,48,,,,,1*50
$GAGSV,2,1,07,02,41,301,43,03,44,232,43,05,17,180,39,08,30,298,42,7*7C
$GAGSV,2,2,07,24,16,070,00,25,53,026,43,36,26,153,00,,,,,7*46
$GPRMC,060651.20,A,3046.9736696,N,10357.5096454,E,4.94,98.91,260319,0.0,E,D*05
$GPGGA,060651.20,3046.9736696,N,10357.5096454,E,4,25,1.0,532.167,M,-40.963,M,1.2,*69
$GPGSA,A,3,07,08,09,16,23,26,27,,,,,,3.2,1.6,2.8,1*22
$GAGSA,A,3,02,03,05,08,24,25,36,,,,,,2.7,1.0,2.5,3*37
$GPGSV,2,1,07,07,23,311,43,08,58,183,47,09,45,298,48,16,47,031,45,1*6E
$GPGSV,2,2,07,23,62,243,46,26,23,054,41,27,71,096,48,,,,,1*50
$GAGSV,2,1,07,02,41,301,43,03,44,232,43,05,17,180,39,08,30,298,42,7*7C
$GAGSV,2,2,07,24,16,070,00,25,53,026,43,36,26,153,00,,,,,7*46
$GPRMC,060651.40,A,3046.9736296,N,10357.5099589,E,4.90,98.18,260319,0.0,E,D*0C
$GPGGA,060651.40,3046.9736296,N,10357.5099589,E,4,25,1.0,532.174,M,-40.963,M,1.4,*61
$GPGSA,A,3,07,08,09,16,23,26,27,,,,,,3.2,1.6,2.8,1*22
$GAGSA,A,3,02,03,05,08,24,25,36,,,,,,2.7,1.0,2.5,3*37
$GPGSV,2,1,07,07,23,311,43,08,58,183,47,09,45,298,48,16,47,031,45,1*6E
$GPGSV,2,2,07,23,62,243,47,26,23,054,41,27,71,096,48,,,,,1*51
$GAGSV,2,1,07,02,41,301,43,03,44,232,43,05,17,180,39,08,30,298,42,7*7C
$GAGSV,2,2,07,24,16,070,00,25,53,026,43,36,26,153,00,,,,,7*46
$GPRMC,060651.60,A,3046.9735821,N,10357.5102861,E,5.18,100.31,260319,0.0,E,D*39
$GPGGA,060651.60,3046.9735821,N,10357.5102861,E,4,25,1.0,532.170,M,-40.963,M,1.6,*68
$GPGSA,A,3,07,08,09,16,23,26,27,,,,,,3.2,1.6,2.8,1*22
$GAGSA,A,3,02,03,05,08,24,25,36,,,,,,2.7,1.0,2.5,3*37
$GPGSV,2,1,07,07,23,311,44,08,58,183,47,09,45,298,48,16,47,031,45,1*69
$GPGSV,2,2,07,23,62,243,47,26,23,054,41,27,71,096,48,,,,,1*51
$GAGSV,2,1,07,02,41,301,43,03,44,232,43,05,17,180,39,08,30,298,42,7*7C
$GAGSV,2,2,07,24,16,070,00,25,53,026,43,36,26,153,00,,,,,7*46
$GPRMC,060651.80,A,3046.9735336,N,10357.5106110,E,5.16,99.62,260319,0.0,E,D*08
$GPGGA,060651.80,3046.9735336,N,10357.5106110,E,4,25,1.0,532.169,M,-40.963,M,1.8,*66
$GPGSA,A,3,07,08,09,16,23,26,27,,,,,,3.2,1.6,2.8,1*22
$GAGSA,A,3,02,03,05,08,24,25,36,,,,,,2.7,1.0,2.5,3*37
$GPGSV,2,1,07,07,23,311,44,08,58,183,47,09,45,298,48,16,47,031,45,1*69
$GPGSV,2,2,07,23,62,243,47,26,23,054,41,27,71,096,48,,,,,1*51
$GAGSV,2,1,07,02,41,301,43,03,44,232,43,05,17,180,39,08,30,298,42,7*7C
$GAGSV,2,2,07,24,16,070,00,25,53,026,43,36,26,153,00,,,,,7*46
$GPRMC,060652.00,A,3046.9734894,N,10357.5109437,E,5.17,98.21,260319,0.0,E,D*09
$GPGGA,060652.00,3046.9734894,N,10357.5109437,E,4,25,1.0,532.166,M,-40.963,M,2.0,*64
$GPGSA,A,3,07,08,09,16,23,26,27,,,,,,3.2,1.6,2.8,1*22
$GAGSA,A,3,02,03,05,08,24,25,36,,,,,,2.7,1.0,2.5,3*37
$GPGSV,2,1,07,07,23,311,44,08,58,183,47,09,45,298,48,16,47,031,45,1*69
$GPGSV,2,2,07,23,62,243,46,26,23,054,41,27,71,096,48,,,,,1*50
$GAGSV,2,1,07,02,41,301,43,03,44,232,43,05,17,180,39,08,30,298,42,7*7C
$GAGSV,2,2,07,24,16,070,00,25,53,026,43,36,26,153,00,,,,,7*46
$GPRMC,060652.20,A,3046.9734443,N,10357.5112761,E,5.26,100.25,260319,0.0,E,D*31
$GPGGA,060652.20,3046.9734443,N,10357.5112761,E,4,25,1.0,532.164,M,-40.963,M,2.2,*6A
$GPGSA,A,3,07,08,09,16,23,26,27,,,,,,3.2,1.6,2.8,1*22
$GAGSA,A,3,02,03,05,08,24,25,36,,,,,,2.7,1.0,2.5,3*37
$GPGSV,2,1,07,07,23,311,44,08,58,183,47,09,45,298,48,16,47,031,45,1*69
$GPGSV,2,2,07,23,62,243,46,26,23,054,41,27,71,096,48,,,,,1*50
$GAGSV,2,1,07,02,41,301,43,03,44,232,43,05,17,180,39,08,30,298,41,7*7F
$GAGSV,2,2,07,24,16,070,00,25,53,026,43,36,26,153,00,,,,,7*46
$GPRMC,060652.40,A,3046.9733968,N,10357.5116082,E,5.21,99.04,260319,0.0,E,D*0F
$GPGGA,060652.40,3046.9733968,N,10357.5116082,E,4,25,1.0,532.162,M,-40.963,M,2.4,*61
$GPGSA,A,3,07,08,09,16,23,26,27,,,,,,3.2,1.6,2.8,1*22
$GAGSA,A,3,02,03,05,08,24,25,36,,,,,,2.7,1.0,2.5,3*37
$GPGSV,2,1,07,07,23,311,44,08,58,183,47,09,45,298,48,16,47,031,45,1*69
$GPGSV,2,2,07,23,62,243,46,26,23,054,41,27,71,096,48,,,,,1*50
$GAGSV,2,1,07,02,41,301,43,03,44,232,43,05,17,180,39,08,30,298,41,7*7F
$GAGSV,2,2,07,24,16,070,00,25,53,026,43,36,26,153,00,,,,,7*46
$GPRMC,060652.60,A,3046.9733520,N,10357.5119346,E,5.07,98.26,260319,0.0,E,D*0C
$GPGGA,060652.60,3046.9733520,N,10357.5119346,E,4,24,1.0,532.156,M,-40.963,M,2.6,*63
$GPGSA,A,3,07,08,09,16,23,26,27,,,,,,3.2,1.6,2.8,1*22
$GAGSA,A,3,02,03,05,08,24,25,36,,,,,,2.7,1.0,2.5,3*37
$GPGSV,2,1,07,07,23,311,44,08,58,183,47,09,45,298,48,16,47,031,45,1*69
$GPGSV,2,2,07,23,62,243,46,26,23,054,41,27,71,096,48,,,,,1*50
$GAGSV,2,1,07,02,41,301,42,03,44,232,43,05,17,180,37,08,30,298,41,7*70
$GAGSV,2,2,07,24,16,070,00,25,53,026,43,36,26,153,00,,,,,7*46
$GPRMC,060652.80,A,3046.9733081,N,10357.5122615,E,5.13,99.38,260319,0.0,E,D*0C
$GPGGA,060652.80,3046.9733081,N,10357.5122615,E,4,25,1.0,532.153,M,-40.963,M,2.8,*62
$GPGSA,A,3,07,08,09,16,23,26,27,,,,,,3.2,1.6,2.8,1*22
$GAGSA,A,3,02,03,05,08,24,25,36,,,,,,2.7,1.0,2.5,3*37
$GPGSV,2,1,07,07,23,311,44,08,58,183,47,09,45,298,48,16,47,031,44,1*68
$GPGSV,2,2,07,23,62,243,46,26,23,054,41,27,71,096,48,,,,,1*50
$GAGSV,2,1,07,02,41,301,42,03,44,232,43,05,17,180,37,08,30,298,41,7*70
$GAGSV,2,2,07,24,16,070,00,25,53,026,43,36,26,153,00,,,,,7*46
$GPRMC,060653.00,A,3046.9732623,N,10357.5125842,E,5.07,99.33,260319,0.0,E,D*0F
$GPGGA,060653.00,3046.9732623,N,10357.5125842,E,4,24,1.0,532.148,M,-40.963,M,1.0,*6F
$GPGSA,A,3,07,08,09,16,23,26,27,,,,,,3.2,1.6,2.8,1*22
$GAGSA,A,3,02,03,08,24,25,36,,,,,,,2.9,1.1,2.7,3*3F
$GPGSV,2,1,07,07,23,311,44,08,58,183,47,09,45,298,48,16,47,031,45,1*69
$GPGSV,2,2,07,23,62,243,46,26,23,054,41,27,71,096,49,,,,,1*51
$GAGSV,2,1,06,02,41,301,42,03,44,232,43,08,30,298,41,24,16,070,00,7*79
$GAGSV,2,2,06,25,53,026,43,36,26,153,00,,,,,,,,,7*71
$GPRMC,060653.20,A,3046.9732166,N,10357.5129047,E,5.02,98.77,260319,0.0,E,D*0E
$GPGGA,060653.20,3046.9732166,N,10357.5129047,E,4,24,1.0,532.143,M,-40.963,M,1.2,*63
$GPGSA,A,3,07,08,09,16,23,26,27,,,,,,3.2,1.6,2.8,1*22
$GAGSA,A,3,02,03,08,24,25,36,,,,,,,2.9,1.1,2.7,3*3F
$GPGSV,2,1,07,07,23,311,44,08,58,183,47,09,45,298,48,16,47,031,45,1*69
$GPGSV,2,2,07,23,62,243,46,26,23,054,41,27,71,096,49,,,,,1*51
$GAGSV,2,1,06,02,41,301,42,03,44,232,43,08,30,298,41,24,16,070,00,7*79
$GAGSV,2,2,06,25,53,026,43,36,26,153,00,,,,,,,,,7*71
$GPRMC,060653.40,A,3046.9731756,N,10357.5132224,E,4.99,98.54,260319,0.0,E,D*01
