$GPRMC,045257.80,A,3046.9749319,N,10357.5055057,E,0.04,81.47,260319,0.0,E,D*06
$GPGGA,045257.80,3046.9749319,N,10357.5055057,E,4,23,1.0,530.170,M,-40.962,M,1.8,*6D
$GPGSA,A,3,03,09,14,16,22,23,26,27,31,,,,1.8,0.9,1.5,1*21
$GAGSA,A,3,02,03,05,24,25,,,,,,,,3.1,1.4,2.8,3*34
$GPGSV,3,1,09,03,23,235,44,09,19,318,44,14,15,143,40,16,75,341,45,1*63
$GPGSV,3,2,09,22,15,214,41,23,51,308,47,26,50,034,47,27,45,158,46,1*68
$GPGSV,3,3,09,31,27,082,46,,,,,,,,,,,,,1*52
$GAGSV,2,1,05,02,29,269,44,03,57,276,44,05,44,183,42,24,31,048,00,7*72
$GAGSV,2,2,05,25,62,338,43,,,,,,,,,,,,,7*4A
$GPRMC,045258.00,A,3046.9749342,N,10357.5055051,E,0.05,81.47,260319,0.0,E,D*08
$GPGGA,045258.00,3046.9749342,N,10357.5055051,E,4,23,1.0,530.162,M,-40.962,M,2.0,*6A
$GPGSA,A,3,03,09,14,16,22,23,26,27,31,,,,1.8,0.9,1.5,1*21
$GAGSA,A,3,02,03,05,24,25,,,,,,,,3.1,1.4,2.8,3*34
$GPGSV,3,1,09,03,23,235,44,09,19,318,44,14,15,143,40,16,75,341,45,1*63
$GPGSV,3,2,09,22,15,214,41,23,51,308,47,26,50,034,47,27,45,158,46,1*68
$GPGSV,3,3,09,31,27,082,46,,,,,,,,,,,,,1*52
$GAGSV,2,1,05,02,29,269,44,03,57,276,44,05,44,183,42,24,31,048,00,7*72
$GAGSV,2,2,05,25,62,338,43,,,,,,,,,,,,,7*4A
$GPRMC,045258.20,A,3046.9749371,N,10357.5055038,E,0.02,81.47,260319,0.0,E,D*02
$GPGGA,045258.20,3046.9749371,N,10357.5055038,E,4,23,1.0,530.153,M,-40.962,M,2.2,*67
$GPGSA,A,3,03,09,14,16,22,23,26,27,31,,,,1.8,0.9,1.5,1*21
$GAGSA,A,3,02,03,05,24,25,,,,,,,,3.1,1.4,2.8,3*34
$GPGSV,3,1,09,03,23,235,44,09,19,318,44,14,15,143,40,16,75,341,45,1*63
$GPGSV,3,2,09,22,15,214,41,23,51,308,47,26,50,034,47,27,45,158,46,1*68
$GPGSV,3,3,09,31,27,082,46,,,,,,,,,,,,,1*52
$GAGSV,2,1,05,02,29,269,44,03,57,276,44,05,44,183,42,24,31,048,00,7*72
$GAGSV,2,2,05,25,62,338,43,,,,,,,,,,,,,7*4A
$GPRMC,045258.40,A,3046.9749396,N,10357.5055033,E,0.02,81.47,260319,0.0,E,D*06
$GPGGA,045258.40,3046.9749396,N,10357.5055033,E,4,23,1.0,530.146,M,-40.962,M,2.4,*61
$GPGSA,A,3,03,09,14,16,22,23,26,27,31,,,,1.8,0.9,1.5,1*21
$GAGSA,A,3,02,03,05,24,25,,,,,,,,3.1,1.4,2.8,3*34
$GPGSV,3,1,09,03,23,235,44,09,19,318,44,14,15,143,40,16,75,341,45,1*63
$GPGSV,3,2,09,22,15,214,41,23,51,308,47,26,50,034,47,27,45,158,46,1*68
$GPGSV,3,3,09,31,27,082,46,,,,,,,,,,,,,1*52
$GAGSV,2,1,05,02,29,269,44,03,57,276,44,05,44,183,42,24,31,048,00,7*72
$GAGSV,2,2,05,25,62,338,43,,,,,,,,,,,,,7*4A
$GPRMC,045258.60,A,3046.9749238,N,10357.5055080,E,0.04,81.47,260319,0.0,E,D*0F
$GPGGA,045258.60,3046.9749238,N,10357.5055080,E,4,23,1.0,530.180,M,-40.962,M,0.6,*64
$GPGSA,A,3,03,09,14,16,22,23,26,27,31,,,,1.8,0.9,1.5,1*21
$GAGSA,A,3,02,03,05,24,25,,,,,,,,3.1,1.4,2.8,3*34
$GPGSV,3,1,09,03,23,235,44,09,19,318,44,14,15,143,40,16,75,341,45,1*63
$GPGSV,3,2,09,22,15,214,41,23,51,308,47,26,50,034,47,27,45,158,46,1*68
$GPGSV,3,3,09,31,27,082,46,,,,,,,,,,,,,1*52
$GAGSV,2,1,05,02,29,269,44,03,57,276,44,05,44,183,42,24,31,048,00,7*72
$GAGSV,2,2,05,25,62,338,43,,,,,,,,,,,,,7*4A
$GPRMC,045258.80,A,3046.9749220,N,10357.5055083,E,0.02,81.47,260319,0.0,E,D*0D
$GPGGA,045258.80,3046.9749220,N,10357.5055083,E,4,23,1.0,530.192,M,-40.962,M,0.8,*6D
$GPGSA,A,3,03,09,14,16,22,23,26,27,31,,,,1.8,0.9,1.5,1*21
$GAGSA,A,3,02,03,05,24,25,,,,,,,,3.1,1.4,2.8,3*34
$GPGSV,3,1,09,03,23,235,44,09,19,318,44,14,15,143,40,16,75,341,45,1*63
$GPGSV,3,2,09,22,15,214,41,23,51,308,47,26,50,034,47,27,45,158,46,1*68
$GPGSV,3,3,09,31,27,082,46,,,,,,,,,,,,,1*52
$GAGSV,2,1,05,02,29,269,44,03,57,276,44,05,44,183,42,24,31,048,00,7*72
$GAGSV,2,2,05,25,62,338,43,,,,,,,,,,,,,7*4A
$GPRMC,045259.00,A,3046.9749235,N,10357.5055077,E,0.12,81.47,260319,0.0,E,D*0A
$GPGGA,045259.00,3046.9749235,N,10357.5055077,E,4,23,1.0,530.188,M,-40.962,M,1.0,*69
$GPGSA,A,3,03,09,14,16,22,23,26,27,31,,,,1.8,0.9,1.5,1*21
$GAGSA,A,3,02,03,05,24,25,,,,,,,,3.1,1.4,2.8,3*34
$GPGSV,3,1,09,03,23,235,44,09,19,318,44,14,15,143,40,16,75,341,45,1*63
$GPGSV,3,2,09,22,15,214,41,23,51,308,47,26,50,034,47,27,45,158,46,1*68
$GPGSV,3,3,09,31,27,083,46,,,,,,,,,,,,,1*53
$GAGSV,2,1,05,02,29,269,44,03,57,276,44,05,44,183,42,24,31,048,00,7*72
$GAGSV,2,2,05,25,62,338,43,,,,,,,,,,,,,7*4A
$GPRMC,045259.20,A,3046.9749251,N,10357.5055065,E,0.01,81.47,260319,0.0,E,D*0B
$GPGGA,045259.20,3046.9749251,N,10357.5055065,E,4,23,1.0,530.182,M,-40.962,M,1.2,*62
$GPGSA,A,3,03,09,14,16,22,23,26,27,31,,,,1.8,0.9,1.5,1*21
$GAGSA,A,3,02,03,05,24,25,,,,,,,,3.1,1.4,2.8,3*34
$GPGSV,3,1,09,03,23,235,44,09,19,318,44,14,15,143,40,16,75,341,45,1*63
$GPGSV,3,2,09,22,15,214,41,23,51,308,47,26,50,034,47,27,45,158,46,1*68
$GPGSV,3,3,09,31,27,083,46,,,,,,,,,,,,,1*53
$GAGSV,2,1,05,02,29,269,44,03,57,276,44,05,44,183,42,24,31,048,00,7*72
$GAGSV,2,2,05,25,62,338,43,,,,,,,,,,,,,7*4A
$GPRMC,045259.40,A,3046.9749279,N,10357.5055060,E,0.04,81.47,260319,0.0,E,D*07
$GPGGA,045259.40,3046.9749279,N,10357.5055060,E,4,23,1.0,530.169,M,-40.962,M,1.4,*68
$GPGSA,A,3,03,09,14,16,22,23,26,27,31,,,,1.8,0.9,1.5,1*21
$GAGSA,A,3,02,03,05,24,25,,,,,,,,3.1,1.4,2.8,3*34
$GPGSV,3,1,09,03,23,235,44,09,19,318,44,14,15,143,40,16,75,341,45,1*63
$GPGSV,3,2,09,22,15,214,41,23,51,308,47,26,50,034,47,27,45,158,46,1*68
$GPGSV,3,3,09,31,27,083,46,,,,,,,,,,,,,1*53
$GAGSV,2,1,05,02,29,269,44,03,57,276,44,05,44,183,42,24,31,048,00,7*72
$GAGSV,2,2,05,25,62,338,43,,,,,,,,,,,,,7*4A
$GPRMC,045259.60,A,3046.9749295,N,10357.5055055,E,0.03,81.47,260319,0.0,E,D*06
$GPGGA,045259.60,3046.9749295,N,10357.5055055,E,4,23,1.0,530.162,M,-40.962,M,1.6,*67
$GPGSA,A,3,03,09,14,16,22,23,26,27,31,,,,1.8,0.9,1.5,1*21
$GAGSA,A,3,02,03,05,24,25,,,,,,,,3.1,1.4,2.8,3*34
$GPGSV,3,1,09,03,23,235,44,09,19,318,44,14,15,143,40,16,75,341,45,1*63
$GPGSV,3,2,09,22,15,214,41,23,51,308,47,26,50,034,47,27,45,158,46,1*68
$GPGSV,3,3,09,31,27,083,46,,,,,,,,,,,,,1*53
$GAGSV,2,1,05,02,29,269,44,03,57,276,44,05,44,183,42,24,31,048,00,7*72
$GAGSV,2,2,05,25,62,338,43,,,,,,,,,,,,,7*4A
$GPRMC,045259.80,A,3046.9749323,N,10357.5055048,E,0.07,81.47,260319,0.0,E,D*0C
$GPGGA,045259.80,3046.9749323,N,10357.5055048,E,4,23,1.0,530.155,M,-40.962,M,1.8,*63
$GPGSA,A,3,03,09,14,16,22,23,26,27,31,,,,1.8,0.9,1.5,1*21
$GAGSA,A,3,02,03,05,24,25,,,,,,,,3.1,1.4,2.8,3*34
$GPGSV,3,1,09,03,23,235,44,09,19,318,44,14,15,143,40,16,75,341,45,1*63
$GPGSV,3,2,09,22,15,214,41,23,51,308,47,26,50,034,47,27,45,158,46,1*68
$GPGSV,3,3,09,31,27,083,46,,,,,,,,,,,,,1*53
$GAGSV,2,1,05,02,29,269,44,03,57,276,44,05,44,183,42,24,31,048,00,7*72
$GAGSV,2,2,05,25,62,338,43,,,,,,,,,,,,,7*4A
$GPRMC,045300.00,A,3046.9749343,N,10357.5055032,E,0.05,81.47,260319,0.0,E,D*00
$GPGGA,045300.00,3046.9749343,N,10357.5055032,E,4,23,1.0,530.146,M,-40.962,M,2.0,*64
$GPGSA,A,3,03,09,14,16,22,23,26,27,31,,,,1.8,0.9,1.5,1*21
$GAGSA,A,3,02,03,05,24,25,,,,,,,,3.1,1.4,2.8,3*34
$GPGSV,3,1,09,03,23,235,44,09,19,318,44,14,15,143,40,16,75,341,45,1*63
$GPGSV,3,2,09,22,15,214,41,23,51,308,47,26,50,034,47,27,45,158,46,1*68
$GPGSV,3,3,09,31,27,083,46,,,,,,,,,,,,,1*53
$GAGSV,2,1,05,02,29,269,44,03,57,276,44,05,44,183,42,24,31,048,00,7*72
$GAGSV,2,2,05,25,62,338,43,,,,,,,,,,,,,7*4A
$GPRMC,045300.20,A,3046.9749365,N,10357.5055033,E,0.01,81.47,260319,0.0,E,D*03
$GPGGA,045300.20,3046.9749365,N,10357.5055033,E,4,23,1.0,530.139,M,-40.962,M,2.2,*69
$GPGSA,A,3,03,09,14,16,22,23,26,27,31,,,,1.8,0.9,1.5,1*21
$GAGSA,A,3,02,03,05,24,25,,,,,,,,3.1,1.4,2.8,3*34
$GPGSV,3,1,09,03,23,235,44,09,19,318,44,14,15,143,40,16,75,341,45,1*63
$GPGSV,3,2,09,22,15,214,41,23,51,308,47,26,50,034,47,27,45,158,46,1*68
$GPGSV,3,3,09,31,27,083,46,,,,,,,,,,,,,1*53
$GAGSV,2,1,05,02,29,269,44,03,57,276,44,05,44,183,42,24,31,048,00,7*72
$GAGSV,2,2,05,25,62,338,43,,,,,,,,,,,,,7*4A
$GPRMC,045300.40,A,3046.9749391,N,10357.5055021,E,0.01,81.47,260319,0.0,E,D*0D
$GPGGA,045300.40,3046.9749391,N,10357.5055021,E,4,23,1.0,530.133,M,-40.962,M,2.4,*6B
$GPGSA,A,3,03,09,14,16,22,23,26,27,31,,,,1.8,0.9,1.5,1*21
$GAGSA,A,3,02,03,05,24,25,,,,,,,,3.1,1.4,2.8,3*34
$GPGSV,3,1,09,03,23,235,44,09,19,318,44,14,15,143,40,16,75,341,45,1*63
$GPGSV,3,2,09,22,15,214,41,23,51,308,47,26,50,034,47,27,45,158,46,1*68
$GPGSV,3,3,09,31,27,083,46,,,,,,,,,,,,,1*53
$GAGSV,2,1,05,02,29,269,44,03,57,276,44,05,44,183,42,24,31,048,00,7*72
$GAGSV,2,2,05,25,62,338,43,,,,,,,,,,,,,7*4A
$GPRMC,045300.60,A,3046.9749417,N,10357.5055014,E,0.06,81.47,260319,0.0,E,D*07
$GPGGA,045300.60,3046.9749417,N,10357.5055014,E,4,23,1.0,530.125,M,-40.962,M,2.6,*63
$GPGSA,A,3,03,09,14,16,22,23,26,27,31,,,,1.8,0.9,1.5,1*21
$GAGSA,A,3,02,03,05,24,25,,,,,,,,3.1,1.4,2.8,3*34
$GPGSV,3,1,09,03,23,235,44,09,19,318,44,14,15,143,40,16,75,341,45,1*63
$GPGSV,3,2,09,22,15,214,41,23,51,308,47,26,50,034,47,27,45,158,46,1*68
$GPGSV,3,3,09,31,27,083,46,,,,,,,,,,,,,1*53
$GAGSV,2,1,05,02,29,269,44,03,57,276,44,05,44,183,42,24,31,048,00,7*72
$GAGSV,2,2,05,25,62,338,43,,,,,,,,,,,,,7*4A
$GPRMC,045300.80,A,3046.9749444,N,10357.5055004,E,0.02,81.47,260319,0.0,E,D*0A
$GPGGA,045300.80,3046.9749444,N,10357.5055004,E,4,23,1.0,530.118,M,-40.962,M,2.8,*6A
$GPGSA,A,3,03,09,14,16,22,23,26,27,31,,,,1.8,0.9,1.5,1*21
$GAGSA,A,3,02,03,05,24,25,,,,,,,,3.1,1.4,2.8,3*34
$GPGSV,3,1,09,03,23,235,44,09,19,318,44,14,15,143,40,16,75,341,45,1*63
$GPGSV,3,2,09,22,15,214,41,23,51,308,47,26,50,034,47,27,45,158,46,1*68
$GPGSV,3,3,09,31,27,083,46,,,,,,,,,,,,,1*53
$GAGSV,2,1,05,02,29,269,44,03,57,276,44,05,44,183,42,24,31,048,00,7*72
$GAGSV,2,2,05,25,62,338,43,,,,,,,,,,,,,7*4A
$GPRMC,045301.00,A,3046.9749248,N,10357.5055062,E,0.03,81.47,260319,0.0,E,D*08
$GPGGA,045301.00,3046.9749248,N,10357.5055062,E,4,23,1.0,530.157,M,-40.962,M,1.0,*69
$GPGSA,A,3,03,09,14,16,22,23,26,27,31,,,,1.8,0.9,1.5,1*21
$GAGSA,A,3,02,03,05,24,25,,,,,,,,3.1,1.4,2.8,3*34
$GPGSV,3,1,09,03,23,235,44,09,19,318,44,14,15,143,40,16,75,341,45,1*63
$GPGSV,3,2,09,22,15,214,41,23,51,308,47,26,50,034,47,27,45,158,46,1*68
$GPGSV,3,3,09,31,27,083,45,,,,,,,,,,,,,1*50
$GAGSV,2,1,05,02,29,269,44,03,57,276,44,05,44,183,42,24,31,048,00,7*72
$GAGSV,2,2,05,25,62,338,43,,,,,,,,,,,,,7*4A
$GPRMC,045301.20,A,3046.9749246,N,10357.5055106,E,0.13,81.47,260319,0.0,E,D*06
$GPGGA,045301.20,3046.9749246,N,10357.5055106,E,4,23,1.0,530.168,M,-40.962,M,1.2,*68
$GPGSA,A,3,03,09,14,16,22,23,26,27,31,,,,1.8,0.9,1.5,1*21
$GAGSA,A,3,02,03,05,24,25,,,,,,,,3.1,1.4,2.8,3*34
$GPGSV,3,1,09,03,23,235,44,09,19,318,44,14,15,143,40,16,75,341,45,1*63
$GPGSV,3,2,09,22,15,214,41,23,51,308,47,26,50,034,47,27,45,158,46,1*68
$GPGSV,3,3,09,31,27,083,45,,,,,,,,,,,,,1*50
$GAGSV,2,1,05,02,29,269,44,03,57,276,44,05,44,183,42,24,31,048,00,7*72
$GAGSV,2,2,05,25,62,338,43,,,,,,,,,,,,,7*4A
$GPRMC,045301.40,A,3046.9749269,N,10357.5055214,E,0.23,81.47,260319,0.0,E,D*0E
$GPGGA,045301.40,3046.9749269,N,10357.5055214,E,4,23,1.0,530.166,M,-40.962,M,1.4,*6B
$GPGSA,A,3,03,09,14,16,22,23,26,27,31,,,,1.8,0.9,1.5,1*21
$GAGSA,A,3,02,03,05,24,25,,,,,,,,3.1,1.4,2.8,3*34
$GPGSV,3,1,09,03,23,235,44,09,19,318,44,14,15,143,40,16,75,341,45,1*63
$GPGSV,3,2,09,22,15,214,41,23,51,308,47,26,50,034,47,27,45,158,46,1*68
$GPGSV,3,3,09,31,27,083,45,,,,,,,,,,,,,1*50
$GAGSV,2,1,05,02,29,269,44,03,57,276,44,05,44,183,42,24,31,048,00,7*72
$GAGSV,2,2,05,25,62,338,43,,,,,,,,,,,,,7*4A
$GPRMC,045301.60,A,3046.9749433,N,10357.5055621,E,0.41,81.47,260319,0.0,E,D*03
$GPGGA,045301.60,3046.9749433,N,10357.5055621,E,4,24,1.0,530.375,M,-40.962,M,1.6,*67
$GPGSA,A,3,03,09,14,16,22,23,26,27,31,,,,1.8,0.9,1.5,1*21
$GAGSA,A,3,02,03,05,24,25,,,,,,,,3.1,1.4,2.8,3*34
$GPGSV,3,1,09,03,23,235,43,09,19,318,43,14,15,143,40,16,75,341,45,1*63
$GPGSV,3,2,09,22,15,214,41,23,51,308,47,26,50,034,47,27,45,158,46,1*68
$GPGSV,3,3,09,31,27,083,45,,,,,,,,,,,,,1*50
$GAGSV,2,1,05,02,29,269,44,03,57,276,44,05,44,183,42,24,31,048,00,7*72
$GAGSV,2,2,05,25,62,338,43,,,,,,,,,,,,,7*4A
$GPRMC,045301.80,A,3046.9749407,N,10357.5055957,E,0.59,81.47,260319,0.0,E,D*0D
$GPGGA,045301.80,3046.9749407,N,10357.5055957,E,4,24,1.0,530.452,M,-40.962,M,1.8,*6C
$GPGSA,A,3,03,09,14,16,22,23,26,27,31,,,,1.8,0.9,1.5,1*21
$GAGSA,A,3,02,03,05,24,25,,,,,,,,3.1,1.4,2.8,3*34
$GPGSV,3,1,09,03,23,235,43,09,19,318,43,14,15,143,40,16,75,341,45,1*63
$GPGSV,3,2,09,22,15,214,42,23,51,308,47,26,50,034,47,27,45,158,46,1*6B
$GPGSV,3,3,09,31,27,083,45,,,,,,,,,,,,,1*50
$GAGSV,2,1,05,02,29,269,44,03,57,276,44,05,44,183,42,24,31,048,00,7*72
$GAGSV,2,2,05,25,62,338,43,,,,,,,,,,,,,7*4A
$GPRMC,045302.00,A,3046.9749447,N,10357.5056393,E,0.80,81.47,260319,0.0,E,D*07
$GPGGA,045302.00,3046.9749447,N,10357.5056393,E,4,24,1.0,530.459,M,-40.962,M,2.0,*62
$GPGSA,A,3,03,09,14,16,22,23,26,27,31,,,,1.8,0.9,1.5,1*21
$GAGSA,A,3,02,03,05,24,25,,,,,,,,3.1,1.4,2.8,3*34
$GPGSV,3,1,09,03,23,235,43,09,19,318,43,14,15,143,40,16,75,341,46,1*60
$GPGSV,3,2,09,22,15,214,42,23,51,308,47,26,50,034,47,27,45,158,46,1*6B
$GPGSV,3,3,09,31,27,083,45,,,,,,,,,,,,,1*50
$GAGSV,2,1,05,02,29,269,44,03,57,276,44,05,44,183,42,24,31,048,00,7*72
$GAGSV,2,2,05,25,62,338,43,,,,,,,,,,,,,7*4A
$GPRMC,045302.20,A,3046.9749527,N,10357.5056971,E,1.04,81.47,260319,0.0,E,D*09
$GPGGA,045302.20,3046.9749527,N,10357.5056971,E,4,24,1.0,530.432,M,-40.962,M,2.2,*6E
$GPGSA,A,3,03,09,14,16,22,23,26,27,31,,,,1.8,0.9,1.5,1*21
$GAGSA,A,3,02,03,05,24,25,,,,,,,,3.1,1.4,2.8,3*34
$GPGSV,3,1,09,03,23,235,43,09,19,318,42,14,15,143,39,16,75,341,46,1*6F
$GPGSV,3,2,09,22,15,214,42,23,51,308,47,26,50,034,47,27,45,158,46,1*6B
$GPGSV,3,3,09,31,27,083,44,,,,,,,,,,,,,1*51
$GAGSV,2,1,05,02,29,269,44,03,57,276,44,05,44,183,42,24,31,048,00,7*72
$GAGSV,2,2,05,25,62,338,43,,,,,,,,,,,,,7*4A
$GPRMC,045302.40,A,3046.9749664,N,10357.5057660,E,1.19,81.47,260319,0.0,E,D*09
$GPGGA,045302.40,3046.9749664,N,10357.5057660,E,4,24,1.0,530.408,M,-40.962,M,2.4,*6D
$GPGSA,A,3,03,09,14,16,22,23,26,27,31,,,,1.8,0.9,1.5,1*21
$GAGSA,A,3,02,03,05,24,25,,,,,,,,3.1,1.4,2.8,3*34
$GPGSV,3,1,09,03,23,235,43,09,19,318,43,14,15,143,39,16,75,341,46,1*6E
$GPGSV,3,2,09,22,15,214,41,23,51,308,47,26,50,034,47,27,45,158,45,1*6B
$GPGSV,3,3,09,31,27,083,44,,,,,,,,,,,,,1*51
$GAGSV,2,1,05,02,29,269,43,03,57,276,44,05,44,183,42,24,31,048,00,7*75
$GAGSV,2,2,05,25,62,338,43,,,,,,,,,,,,,7*4A
$GPRMC,045302.60,A,3046.9749766,N,10357.5058424,E,1.21,81.47,260319,0.0,E,D*0E
$GPGGA,045302.60,3046.9749766,N,10357.5058424,E,4,24,1.0,530.388,M,-40.962,M,2.6,*6C
$GPGSA,A,3,03,09,14,16,22,23,26,27,31,,,,1.8,0.9,1.5,1*21
$GAGSA,A,3,02,03,05,24,25,,,,,,,,3.1,1.4,2.8,3*34
$GPGSV,3,1,09,03,23,235,43,09,19,318,43,14,15,143,39,16,75,341,46,1*6E
$GPGSV,3,2,09,22,15,214,41,23,51,308,47,26,50,034,47,27,45,158,46,1*68
$GPGSV,3,3,09,31,27,083,45,,,,,,,,,,,,,1*50
$GAGSV,2,1,05,02,29,269,43,03,57,276,44,05,44,183,42,24,31,048,00,7*75
$GAGSV,2,2,05,25,62,338,43,,,,,,,,,,,,,7*4A
$GPRMC,045302.80,A,3046.9749582,N,10357.5059366,E,1.52,81.47,260319,0.0,E,D*0C
$GPGGA,045302.80,3046.9749582,N,10357.5059366,E,4,24,1.0,530.409,M,-40.962,M,0.8,*68
$GPGSA,A,3,03,09,14,16,22,23,26,27,31,,,,1.8,0.9,1.5,1*21
$GAGSA,A,3,02,03,05,24,25,,,,,,,,3.1,1.4,2.8,3*34
$GPGSV,3,1,09,03,23,235,43,09,19,318,42,14,15,143,38,16,75,341,44,1*6C
$GPGSV,3,2,09,22,15,214,37,23,51,308,46,26,50,034,45,27,45,158,45,1*69
$GPGSV,3,3,09,31,27,083,44,,,,,,,,,,,,,1*51
$GAGSV,2,1,05,02,29,269,42,03,57,276,43,05,44,183,41,24,31,048,00,7*70
$GAGSV,2,2,05,25,62,338,43,,,,,,,,,,,,,7*4A
$GPRMC,045303.00,A,3046.9749643,N,10357.5060412,E,1.80,81.47,260319,0.0,E,D*0A
$GPGGA,045303.00,3046.9749643,N,10357.5060412,E,4,24,1.0,530.414,M,-40.962,M,1.0,*64
$GPGSA,A,3,03,09,14,16,22,23,26,27,31,,,,1.8,0.9,1.5,1*21
$GAGSA,A,3,02,03,05,24,25,,,,,,,,3.1,1.4,2.8,3*34
$GPGSV,3,1,09,03,23,235,43,09,19,318,43,14,15,143,38,16,75,341,44,1*6D
$GPGSV,3,2,09,22,15,214,37,23,51,308,46,26,50,034,46,27,45,158,45,1*6A
$GPGSV,3,3,09,31,27,083,44,,,,,,,,,,,,,1*51
$GAGSV,2,1,05,02,29,269,42,03,57,276,43,05,44,183,41,24,31,048,00,7*70
$GAGSV,2,2,05,25,62,338,43,,,,,,,,,,,,,7*4A
$GPRMC,045303.20,A,3046.9749698,N,10357.5061542,E,1.86,81.47,260319,0.0,E,D*0D
$GPGGA,045303.20,3046.9749698,N,10357.5061542,E,4,24,1.0,530.415,M,-40.962,M,1.2,*66
$GPGSA,A,3,03,09,14,16,22,23,26,27,31,,,,1.8,0.9,1.5,1*21
$GAGSA,A,3,02,03,05,24,25,,,,,,,,3.1,1.4,2.8,3*34
$GPGSV,3,1,09,03,23,235,43,09,19,318,44,14,15,143,39,16,75,341,45,1*6A
$GPGSV,3,2,09,22,15,214,40,23,51,308,46,26,50,034,46,27,45,158,45,1*6A
$GPGSV,3,3,09,31,27,083,45,,,,,,,,,,,,,1*50
$GAGSV,2,1,05,02,29,269,42,03,57,276,44,05,44,183,42,24,31,048,00,7*74
$GAGSV,2,2,05,25,62,338,43,,,,,,,,,,,,,7*4A
$GPRMC,045303.40,A,3046.9749701,N,10357.5062793,E,2.01,91.15,260319,0.0,E,D*0D
$GPGGA,045303.40,3046.9749701,N,10357.5062793,E,4,24,1.0,530.414,M,-40.962,M,1.4,*6B
$GPGSA,A,3,03,09,14,16,22,23,26,27,31,,,,1.8,0.9,1.5,1*21
$GAGSA,A,3,02,03,05,24,25,,,,,,,,3.1,1.4,2.8,3*34
$GPGSV,3,1,09,03,23,235,43,09,19,318,44,14,15,143,39,16,75,341,45,1*6A
$GPGSV,3,2,09,22,15,214,40,23,51,308,46,26,50,034,46,27,45,158,45,1*6A
$GPGSV,3,3,09,31,27,083,45,,,,,,,,,,,,,1*50
$GAGSV,2,1,05,02,29,269,42,03,57,276,44,05,44,183,42,24,31,048,00,7*74
$GAGSV,2,2,05,25,62,338,43,,,,,,,,,,,,,7*4A
$GPRMC,045303.60,A,3046.9749713,N,10357.5064115,E,2.15,90.22,260319,0.0,E,D*02
$GPGGA,045303.60,3046.9749713,N,10357.5064115,E,4,24,1.0,530.406,M,-40.962,M,1.6,*65
$GPGSA,A,3,03,09,14,16,22,23,26,27,31,,,,1.8,0.9,1.5,1*21
$GAGSA,A,3,02,03,05,24,25,,,,,,,,3.1,1.4,2.8,3*34
$GPGSV,3,1,09,03,23,235,44,09,19,318,43,14,15,143,37,16,75,341,45,1*64
$GPGSV,3,2,09,22,15,214,38,23,51,308,46,26,50,034,46,27,45,158,45,1*65
$GPGSV,3,3,09,31,27,083,45,,,,,,,,,,,,,1*50
$GAGSV,2,1,05,02,29,269,42,03,57,276,44,05,44,183,42,24,31,048,00,7*74
$GAGSV,2,2,05,25,62,339,43,,,,,,,,,,,,,7*4B
$GPRMC,045303.80,A,3046.9749678,N,10357.5065541,E,2.16,92.54,260319,0.0,E,D*04
$GPGGA,045303.80,3046.9749678,N,10357.5065541,E,4,24,1.0,530.400,M,-40.962,M,1.8,*6B
$GPGSA,A,3,03,09,14,16,22,23,26,27,31,,,,1.8,0.9,1.5,1*21
$GAGSA,A,3,02,03,05,24,25,,,,,,,,3.1,1.4,2.8,3*34
$GPGSV,3,1,09,03,23,235,44,09,19,318,43,14,15,143,39,16,75,341,45,1*6A
$GPGSV,3,2,09,22,15,214,40,23,51,308,46,26,50,034,47,27,45,158,46,1*68
$GPGSV,3,3,09,31,27,083,46,,,,,,,,,,,,,1*53
$GAGSV,2,1,05,02,29,269,42,03,57,276,44,05,44,183,42,24,31,048,00,7*74
$GAGSV,2,2,05,25,62,339,43,,,,,,,,,,,,,7*4B
$GPRMC,045304.00,A,3046.9749638,N,10357.5067054,E,2.55,93.33,260319,0.0,E,D*0B
$GPGGA,045304.00,3046.9749638,N,10357.5067054,E,4,24,1.0,530.399,M,-40.962,M,2.0,*6F
$GPGSA,A,3,03,09,14,16,22,23,26,27,31,,,,1.8,0.9,1.5,1*21
$GAGSA,A,3,02,03,05,24,25,,,,,,,,3.1,1.4,2.8,3*34
$GPGSV,3,1,09,03,23,235,44,09,19,318,43,14,15,143,39,16,75,341,45,1*6A
$GPGSV,3,2,09,22,15,214,38,23,51,308,46,26,50,034,46,27,45,158,46,1*66
$GPGSV,3,3,09,31,27,083,46,,,,,,,,,,,,,1*53
$GAGSV,2,1,05,02,29,269,42,03,57,276,44,05,44,183,42,24,31,048,00,7*74
$GAGSV,2,2,05,25,62,339,43,,,,,,,,,,,,,7*4B
$GPRMC,045304.20,A,3046.9749628,N,10357.5068651,E,2.52,90.86,260319,0.0,E,D*0E
$GPGGA,045304.20,3046.9749628,N,10357.5068651,E,4,24,1.0,530.395,M,-40.962,M,2.2,*6E
$GPGSA,A,3,03,09,14,16,22,23,26,27,31,,,,1.8,0.9,1.5,1*21
$GAGSA,A,3,02,03,05,24,25,,,,,,,,3.1,1.4,2.8,3*34
$GPGSV,3,1,09,03,23,235,44,09,19,318,43,14,15,143,37,16,75,341,45,1*64
$GPGSV,3,2,09,22,15,214,38,23,51,308,46,26,50,034,46,27,45,158,45,1*65
$GPGSV,3,3,09,31,27,083,46,,,,,,,,,,,,,1*53
$GAGSV,2,1,05,02,29,269,41,03,57,276,44,05,44,183,42,24,31,048,00,7*77
$GAGSV,2,2,05,25,62,339,43,,,,,,,,,,,,,7*4B
$GPRMC,045304.40,A,3046.9749548,N,10357.5070346,E,2.76,93.13,260319,0.0,E,D*0E
$GPGGA,045304.40,3046.9749548,N,10357.5070346,E,4,24,1.0,530.390,M,-40.962,M,2.4,*64
$GPGSA,A,3,03,09,14,16,22,23,26,27,31,,,,1.8,0.9,1.5,1*21
$GAGSA,A,3,02,03,05,24,25,,,,,,,,3.1,1.4,2.8,3*34
$GPGSV,3,1,09,03,23,235,44,09,19,318,44,14,15,143,37,16,75,341,45,1*63
$GPGSV,3,2,09,22,15,214,40,23,51,308,46,26,50,034,46,27,45,158,45,1*6A
$GPGSV,3,3,09,31,27,083,45,,,,,,,,,,,,,1*50
$GAGSV,2,1,05,02,29,269,41,03,57,276,44,05,44,183,42,24,31,048,00,7*77
$GAGSV,2,2,05,25,62,339,43,,,,,,,,,,,,,7*4B
$GPRMC,045304.60,A,3046.9749497,N,10357.5072122,E,2.87,93.11,260319,0.0,E,D*01
$GPGGA,045304.60,3046.9749497,N,10357.5072122,E,4,24,1.0,530.388,M,-40.962,M,2.6,*6C
$GPGSA,A,3,03,09,14,16,22,23,26,27,31,,,,1.8,0.9,1.5,1*21
$GAGSA,A,3,02,03,05,24,25,,,,,,,,3.1,1.4,2.8,3*34
$GPGSV,3,1,09,03,23,235,43,09,19,318,44,14,15,143,37,16,75,341,45,1*64
$GPGSV,3,2,09,22,15,214,41,23,51,308,46,26,50,034,46,27,45,158,45,1*6B
$GPGSV,3,3,09,31,27,083,45,,,,,,,,,,,,,1*50
$GAGSV,2,1,05,02,29,269,41,03,57,276,44,05,44,183,42,24,31,048,00,7*77
$GAGSV,2,2,05,25,62,339,43,,,,,,,,,,,,,7*4B
$GPRMC,045304.80,A,3046.9749399,N,10357.5074079,E,3.03,94.24,260319,0.0,E,D*03
$GPGGA,045304.80,3046.9749399,N,10357.5074079,E,4,23,1.0,530.361,M,-40.962,M,2.8,*6C
$GPGSA,A,3,03,09,16,22,23,26,27,31,,,,,1.9,1.0,1.6,1*2E
$GAGSA,A,3,02,03,05,24,25,,,,,,,,3.1,1.4,2.8,3*34
$GPGSV,2,1,08,03,23,235,44,09,19,318,44,16,75,341,45,22,15,214,41,1*66
$GPGSV,2,2,08,23,51,308,47,26,50,034,46,27,45,158,45,31,27,083,45,1*61
$GAGSV,2,1,05,02,29,269,41,03,57,276,44,05,44,183,42,24,31,048,00,7*77
$GAGSV,2,2,05,25,62,339,43,,,,,,,,,,,,,7*4B
$GPRMC,045305.00,A,3046.9749056,N,10357.5076164,E,3.27,92.95,260319,0.0,E,D*0F
$GPGGA,045305.00,3046.9749056,N,10357.5076164,E,4,23,1.0,530.375,M,-40.963,M,1.0,*65
$GPGSA,A,3,03,09,16,22,23,26,27,31,,,,,1.9,1.0,1.6,1*2E
$GAGSA,A,3,02,03,05,24,25,,,,,,,,3.1,1.4,2.8,3*34
$GPGSV,2,1,08,03,23,235,44,09,19,318,44,16,75,341,45,22,15,214,41,1*66
$GPGSV,2,2,08,23,51,308,47,26,50,034,46,27,45,158,45,31,27,083,45,1*61
$GAGSV,2,1,05,02,29,269,42,03,57,276,44,05,44,183,42,24,31,048,00,7*74
$GAGSV,2,2,05,25,62,339,43,,,,,,,,,,,,,7*4B
$GPRMC,045305.20,A,3046.9748913,N,10357.5078235,E,3.33,94.32,260319,0.0,E,D*03
$GPGGA,045305.20,3046.9748913,N,10357.5078235,E,4,23,1.0,530.381,M,-40.963,M,1.2,*6E
$GPGSA,A,3,03,09,16,22,23,26,27,31,,,,,1.9,1.0,1.6,1*2E
$GAGSA,A,3,02,03,05,24,25,,,,,,,,3.1,1.4,2.8,3*34
$GPGSV,2,1,08,03,23,235,43,09,19,318,44,16,75,341,45,22,15,214,40,1*60
$GPGSV,2,2,08,23,51,308,47,26,50,034,46,27,45,158,45,31,27,083,45,1*61
$GAGSV,2,1,05,02,29,269,42,03,57,276,44,05,44,183,42,24,31,048,00,7*74
$GAGSV,2,2,05,25,62,339,43,,,,,,,,,,,,,7*4B
$GPRMC,045305.40,A,3046.9748813,N,10357.5080438,E,3.53,94.44,260319,0.0,E,D*0F
$GPGGA,045305.40,3046.9748813,N,10357.5080438,E,4,24,1.0,530.410,M,-40.963,M,1.4,*6B
$GPGSA,A,3,03,09,14,16,22,23,26,27,31,,,,1.8,0.9,1.5,1*21
$GAGSA,A,3,02,03,05,24,25,,,,,,,,3.1,1.4,2.8,3*34
$GPGSV,3,1,09,03,23,235,42,09,19,318,43,14,15,143,35,16,75,341,45,1*60
$GPGSV,3,2,09,22,15,214,39,23,51,308,47,26,50,034,46,27,45,158,46,1*66
$GPGSV,3,3,09,31,27,083,45,,,,,,,,,,,,,1*50
$GAGSV,2,1,05,02,29,269,42,03,57,276,44,05,44,183,42,24,31,048,00,7*74
$GAGSV,2,2,05,25,62,339,43,,,,,,,,,,,,,7*4B
$GPRMC,045305.60,A,3046.9748599,N,10357.5082750,E,3.90,95.11,260319,0.0,E,D*03
$GPGGA,045305.60,3046.9748599,N,10357.5082750,E,4,24,1.0,530.423,M,-40.963,M,1.6,*6B
$GPGSA,A,3,03,09,14,16,22,23,26,27,31,,,,1.8,0.9,1.5,1*21
$GAGSA,A,3,02,03,05,24,25,,,,,,,,3.1,1.4,2.8,3*34
$GPGSV,3,1,09,03,23,235,42,09,19,318,44,14,15,143,35,16,75,341,45,1*67
$GPGSV,3,2,09,22,15,214,39,23,51,308,47,26,50,034,46,27,45,158,45,1*65
$GPGSV,3,3,09,31,27,083,45,,,,,,,,,,,,,1*50
$GAGSV,2,1,05,02,29,269,42,03,57,276,44,05,44,183,42,24,31,048,00,7*74
$GAGSV,2,2,05,25,62,339,43,,,,,,,,,,,,,7*4B
$GPRMC,045305.80,A,3046.9748438,N,10357.5085162,E,3.80,94.44,260319,0.0,E,D*07
$GPGGA,045305.80,3046.9748438,N,10357.5085162,E,4,24,1.0,530.423,M,-40.963,M,1.8,*61
$GPGSA,A,3,03,09,14,16,22,23,26,27,31,,,,1.8,0.9,1.5,1*21
$GAGSA,A,3,02,03,05,24,25,,,,,,,,3.1,1.4,2.8,3*34
$GPGSV,3,1,09,03,23,235,43,09,19,318,43,14,15,143,35,16,75,341,45,1*61
$GPGSV,3,2,09,22,15,214,40,23,51,308,47,26,50,034,46,27,45,158,45,1*6B
$GPGSV,3,3,09,31,27,083,45,,,,,,,,,,,,,1*50
$GAGSV,2,1,05,02,29,269,43,03,57,276,44,05,44,183,42,24,31,048,00,7*75
$GAGSV,2,2,05,25,62,339,43,,,,,,,,,,,,,7*4B
$GPRMC,045306.00,A,3046.9748228,N,10357.5087746,E,4.14,97.16,260319,0.0,E,D*07
$GPGGA,045306.00,3046.9748228,N,10357.5087746,E,4,24,1.0,530.419,M,-40.963,M,2.0,*6D
$GPGSA,A,3,03,09,14,16,22,23,26,27,31,,,,1.8,0.9,1.5,1*21
$GAGSA,A,3,02,03,05,24,25,,,,,,,,3.1,1.4,2.8,3*34
$GPGSV,3,1,09,03,23,235,42,09,19,318,43,14,15,143,38,16,75,341,45,1*6D
$GPGSV,3,2,09,22,15,214,40,23,51,308,47,26,50,034,46,27,45,158,45,1*6B
$GPGSV,3,3,09,31,27,083,45,,,,,,,,,,,,,1*50
$GAGSV,2,1,05,02,29,269,43,03,57,276,44,05,44,183,42,24,31,048,00,7*75
$GAGSV,2,2,05,25,62,339,43,,,,,,,,,,,,,7*4B
$GPRMC,045306.20,A,3046.9747991,N,10357.5090397,E,4.29,96.38,260319,0.0,E,D*0E
$GPGGA,045306.20,3046.9747991,N,10357.5090397,E,4,24,1.0,530.415,M,-40.963,M,2.2,*69
$GPGSA,A,3,03,09,14,16,22,23,26,27,31,,,,1.8,0.9,1.5,1*21
$GAGSA,A,3,02,03,05,24,25,,,,,,,,3.1,1.4,2.8,3*34
$GPGSV,3,1,09,03,23,235,42,09,19,318,44,14,15,143,38,16,75,341,45,1*6A
$GPGSV,3,2,09,22,15,214,39,23,51,308,47,26,50,034,46,27,45,158,45,1*65
$GPGSV,3,3,09,31,27,083,45,,,,,,,,,,,,,1*50
$GAGSV,2,1,05,02,29,269,43,03,57,276,44,05,44,183,42,24,31,048,00,7*75
$GAGSV,2,2,05,25,62,339,43,,,,,,,,,,,,,7*4B
$GPRMC,045306.40,A,3046.9747721,N,10357.5093172,E,4.36,97.38,260319,0.0,E,D*08
$GPGGA,045306.40,3046.9747721,N,10357.5093172,E,4,24,1.0,530.417,M,-40.963,M,2.4,*64
$GPGSA,A,3,03,09,14,16,22,23,26,27,31,,,,1.8,0.9,1.5,1*21
$GAGSA,A,3,02,03,05,24,25,,,,,,,,3.1,1.4,2.8,3*34
$GPGSV,3,1,09,03,23,235,43,09,19,318,44,14,15,143,38,16,75,341,45,1*6B
$GPGSV,3,2,09,22,15,214,39,23,51,308,47,26,50,034,46,27,45,158,45,1*65
$GPGSV,3,3,09,31,27,083,45,,,,,,,,,,,,,1*50
$GAGSV,2,1,05,02,29,269,43,03,57,276,44,05,44,183,42,24,31,048,00,7*75
$GAGSV,2,2,05,25,62,339,43,,,,,,,,,,,,,7*4B
$GPRMC,045306.60,A,3046.9747458,N,10357.5096069,E,4.56,97.06,260319,0.0,E,D*02
$GPGGA,045306.60,3046.9747458,N,10357.5096069,E,4,24,1.0,530.409,M,-40.963,M,2.6,*68
$GPGSA,A,3,03,09,14,16,22,23,26,27,31,,,,1.8,0.9,1.5,1*21
$GAGSA,A,3,02,03,05,24,25,,,,,,,,3.1,1.4,2.8,3*34
$GPGSV,3,1,09,03,23,235,42,09,19,318,44,14,15,143,38,16,75,341,45,1*6A
$GPGSV,3,2,09,22,15,214,39,23,51,308,47,26,50,034,46,27,45,158,45,1*65
$GPGSV,3,3,09,31,27,083,45,,,,,,,,,,,,,1*50
$GAGSV,2,1,05,02,29,269,43,03,57,276,44,05,44,183,42,24,31,048,00,7*75
$GAGSV,2,2,05,25,62,339,43,,,,,,,,,,,,,7*4B
$GPRMC,045306.80,A,3046.9747131,N,10357.5099042,E,4.85,97.50,260319,0.0,E,D*0D
$GPGGA,045306.80,3046.9747131,N,10357.5099042,E,4,24,1.0,530.399,M,-40.963,M,2.8,*6A
$GPGSA,A,3,03,09,14,16,22,23,26,27,31,,,,1.8,0.9,1.5,1*21
$GAGSA,A,3,02,03,05,24,25,,,,,,,,3.1,1.4,2.8,3*34
$GPGSV,3,1,09,03,23,235,42,09,19,318,44,14,15,143,38,16,75,341,45,1*6A
$GPGSV,3,2,09,22,15,214,41,23,51,308,47,26,50,034,46,27,45,158,45,1*6A
$GPGSV,3,3,09,31,27,083,45,,,,,,,,,,,,,1*50
$GAGSV,2,1,05,02,29,269,43,03,57,276,44,05,44,183,42,24,31,048,00,7*75
$GAGSV,2,2,05,25,62,339,43,,,,,,,,,,,,,7*4B
$GPRMC,045307.00,A,3046.9746557,N,10357.5102129,E,4.79,97.88,260319,0.0,E,D*08
$GPGGA,045307.00,3046.9746557,N,10357.5102129,E,4,24,1.0,530.432,M,-40.963,M,1.0,*64
$GPGSA,A,3,03,09,14,16,22,23,26,27,31,,,,1.8,0.9,1.5,1*21
$GAGSA,A,3,02,03,05,24,25,,,,,,,,3.1,1.4,2.8,3*34
$GPGSV,3,1,09,03,23,235,42,09,19,318,44,14,15,143,36,16,75,341,45,1*64
$GPGSV,3,2,09,22,15,214,42,23,51,308,47,26,50,034,46,27,45,158,45,1*69
$GPGSV,3,3,09,31,27,083,45,,,,,,,,,,,,,1*50
$GAGSV,2,1,05,02,29,269,43,03,57,276,44,05,44,183,42,24,31,048,00,7*75
$GAGSV,2,2,05,25,62,339,43,,,,,,,,,,,,,7*4B
$GPRMC,045307.20,A,3046.9746179,N,10357.5105269,E,4.94,97.09,260319,0.0,E,D*08
$GPGGA,045307.20,3046.9746179,N,10357.5105269,E,4,24,1.0,530.434,M,-40.963,M,1.2,*6A
$GPGSA,A,3,03,09,14,16,22,23,26,27,31,,,,1.8,0.9,1.5,1*21
$GAGSA,A,3,02,03,05,24,25,,,,,,,,3.1,1.4,2.8,3*34
$GPGSV,3,1,09,03,23,235,43,09,19,318,44,14,15,143,38,16,75,341,45,1*6B
$GPGSV,3,2,09,22,15,214,39,23,51,308,47,26,50,034,46,27,45,158,45,1*65
$GPGSV,3,3,09,31,27,083,45,,,,,,,,,,,,,1*50
$GAGSV,2,1,05,02,29,269,43,03,57,276,44,05,44,183,42,24,31,048,00,7*75
$GAGSV,2,2,05,25,62,339,43,,,,,,,,,,,,,7*4B
$GPRMC,045307.40,A,3046.9745789,N,10357.5108451,E,5.07,99.29,260319,0.0,E,D*03
$GPGGA,045307.40,3046.9745789,N,10357.5108451,E,4,24,1.0,530.429,M,-40.963,M,1.4,*6C
$GPGSA,A,3,03,09,14,16,22,23,26,27,31,,,,1.8,0.9,1.5,1*21
$GAGSA,A,3,02,03,05,24,25,,,,,,,,3.1,1.4,2.8,3*34
$GPGSV,3,1,09,03,23,235,43,09,19,318,44,14,15,143,38,16,75,341,45,1*6B
$GPGSV,3,2,09,22,15,214,39,23,51,308,46,26,50,034,46,27,45,158,45,1*64
$GPGSV,3,3,09,31,27,083,46,,,,,,,,,,,,,1*53
$GAGSV,2,1,05,02,29,269,43,03,57,276,44,05,44,183,42,24,31,048,00,7*75
$GAGSV,2,2,05,25,62,339,43,,,,,,,,,,,,,7*4B
$GPRMC,045307.60,A,3046.9745343,N,10357.5111536,E,5.07,99.79,260319,0.0,E,D*0E
$GPGGA,045307.60,3046.9745343,N,10357.5111536,E,5,23,1.0,530.307,M,-40.963,M,1.6,*6B
$GPGSA,A,3,03,09,16,22,23,26,27,31,,,,,1.9,1.0,1.6,1*2E
$GAGSA,A,3,02,03,05,24,25,,,,,,,,3.1,1.4,2.8,3*34
$GPGSV,2,1,08,03,23,235,43,09,19,318,44,16,75,341,45,22,15,214,39,1*6E
$GPGSV,2,2,08,23,51,308,45,26,50,034,46,27,45,158,45,31,27,083,45,1*63
$GAGSV,2,1,05,02,29,269,43,03,57,276,44,05,44,183,42,24,31,048,00,7*75
$GAGSV,2,2,05,25,62,339,43,,,,,,,,,,,,,7*4B
$GPRMC,045307.80,A,3046.9744967,N,10357.5114725,E,5.08,98.89,260319,0.0,E,D*09
$GPGGA,045307.80,3046.9744967,N,10357.5114725,E,5,24,1.0,530.312,M,-40.963,M,1.8,*60
$GPGSA,A,3,03,09,14,16,22,23,26,27,31,,,,1.8,0.9,1.5,1*21
$GAGSA,A,3,02,03,05,24,25,,,,,,,,3.1,1.4,2.8,3*34
$GPGSV,3,1,09,03,23,235,43,09,19,318,44,14,15,143,36,16,75,341,45,1*65
$GPGSV,3,2,09,22,15,214,39,23,51,308,46,26,50,034,45,27,45,158,44,1*66
$GPGSV,3,3,09,31,27,083,45,,,,,,,,,,,,,1*50
$GAGSV,2,1,05,02,29,269,43,03,57,276,44,05,44,183,42,24,31,048,00,7*75
$GAGSV,2,2,05,25,62,339,43,,,,,,,,,,,,,7*4B
$GPRMC,045308.00,A,3046.9744497,N,10357.5117961,E,5.11,100.04,260319,0.0,E,D*3C
$GPGGA,045308.00,3046.9744497,N,10357.5117961,E,5,23,1.0,530.286,M,-40.963,M,2.0,*68
$GPGSA,A,3,03,09,16,22,23,26,27,31,,,,,1.9,1.0,1.6,1*2E
$GAGSA,A,3,02,03,05,24,25,,,,,,,,3.1,1.4,2.8,3*34
$GPGSV,2,1,08,03,23,235,43,09,19,318,44,16,75,341,45,22,15,214,37,1*60
$GPGSV,2,2,08,23,51,308,46,26,50,034,46,27,45,158,45,31,27,083,45,1*60
$GAGSV,2,1,05,02,29,269,43,03,57,276,44,05,44,183,42,24,31,048,00,7*75
$GAGSV,2,2,05,25,62,339,43,,,,,,,,,,,,,7*4B
$GPRMC,045308.20,A,3046.9744061,N,10357.5121136,E,4.99,101.27,260319,0.0,E,D*3D
$GPGGA,045308.20,3046.9744061,N,10357.5121136,E,5,24,1.0,530.291,M,-40.963,M,2.2,*6B
$GPGSA,A,3,03,09,14,16,22,23,26,27,31,,,,1.8,0.9,1.5,1*21
$GAGSA,A,3,02,03,05,24,25,,,,,,,,3.1,1.4,2.8,3*34
$GPGSV,3,1,09,03,23,235,43,09,19,318,43,14,15,143,36,16,75,341,45,1*62
$GPGSV,3,2,09,22,15,214,37,23,51,308,46,26,50,034,46,27,45,158,45,1*6A
$GPGSV,3,3,09,31,27,083,45,,,,,,,,,,,,,1*50
$GAGSV,2,1,05,02,29,269,43,03,57,276,44,05,44,183,42,24,31,048,00,7*75
$GAGSV,2,2,05,25,62,339,43,,,,,,,,,,,,,7*4B
$GPRMC,045308.40,A,3046.9743553,N,10357.5124334,E,5.03,99.79,260319,0.0,E,D*04
$GPGGA,045308.40,3046.9743553,N,10357.5124334,E,5,23,1.0,530.268,M,-40.963,M,2.4,*6C
$GPGSA,A,3,03,09,16,22,23,26,27,31,,,,,1.9,1.0,1.6,1*2E
$GAGSA,A,3,02,03,05,24,25,,,,,,,,3.1,1.4,2.8,3*34
$GPGSV,2,1,08,03,23,235,43,09,19,318,43,16,75,341,45,22,15,214,36,1*66
$GPGSV,2,2,08,23,51,308,46,26,50,034,46,27,45,158,45,31,27,083,45,1*60
$GAGSV,2,1,05,02,29,269,42,03,57,276,44,05,44,183,42,24,31,048,00,7*74
$GAGSV,2,2,05,25,62,339,43,,,,,,,,,,,,,7*4B
$GPRMC,045308.60,A,3046.9743143,N,10357.5127385,E,4.79,99.72,260319,0.0,E,D*0D
$GPGGA,045308.60,3046.9743143,N,10357.5127385,E,5,24,1.0,530.274,M,-40.963,M,2.6,*6A
$GPGSA,A,3,03,09,14,16,22,23,26,27,31,,,,1.8,0.9,1.5,1*21
$GAGSA,A,3,02,03,05,24,25,,,,,,,,3.1,1.4,2.8,3*34
$GPGSV,3,1,09,03,23,235,43,09,19,318,43,14,15,143,36,16,75,341,45,1*62
$GPGSV,3,2,09,22,15,214,36,23,51,308,46,26,50,034,46,27,45,158,45,1*6B
$GPGSV,3,3,09,31,27,083,45,,,,,,,,,,,,,1*50
$GAGSV,2,1,05,02,29,269,42,03,57,276,44,05,44,183,42,24,31,048,00,7*74
$GAGSV,2,2,05,25,62,339,43,,,,,,,,,,,,,7*4B
$GPRMC,045308.80,A,3046.9742479,N,10357.5130513,E,4.86,100.73,260319,0.0,E,D*31
$GPGGA,045308.80,3046.9742479,N,10357.5130513,E,5,24,1.0,530.295,M,-40.963,M,0.8,*65
$GPGSA,A,3,03,09,14,16,22,23,26,27,31,,,,1.8,0.9,1.5,1*21
$GAGSA,A,3,02,03,05,24,25,,,,,,,,3.1,1.4,2.8,3*34
$GPGSV,3,1,09,03,23,235,44,09,19,318,43,14,15,143,36,16,75,341,45,1*65
$GPGSV,3,2,09,22,15,214,36,23,51,308,46,26,50,034,46,27,45,158,45,1*6B
$GPGSV,3,3,09,31,27,083,45,,,,,,,,,,,,,1*50
$GAGSV,2,1,05,02,29,269,42,03,57,276,44,05,44,183,42,24,31,048,00,7*74
$GAGSV,2,2,05,25,62,339,43,,,,,,,,,,,,,7*4B
$GPRMC,045309.00,A,3046.9742031,N,10357.5133521,E,4.68,100.05,260319,0.0,E,D*33
$GPGGA,045309.00,3046.9742031,N,10357.5133521,E,5,24,1.0,530.302,M,-40.963,M,1.0,*60
$GPGSA,A,3,03,09,14,16,22,23,26,27,31,,,,1.8,0.9,1.5,1*21
$GAGSA,A,3,02,03,05,24,25,,,,,,,,3.1,1.4,2.8,3*34
$GPGSV,3,1,09,03,23,235,43,09,19,318,43,14,15,143,38,16,75,341,45,1*6C
$GPGSV,3,2,09,22,15,214,38,23,51,308,46,26,50,034,47,27,45,158,45,1*64
$GPGSV,3,3,09,31,27,083,45,,,,,,,,,,,,,1*50
$GAGSV,2,1,05,02,29,269,42,03,57,276,44,05,44,183,42,24,31,048,00,7*74
$GAGSV,2,2,05,25,62,339,43,,,,,,,,,,,,,7*4B
$GPRMC,045309.20,A,3046.9741560,N,10357.5136509,E,4.68,100.07,260319,0.0,E,D*3E
$GPGGA,045309.20,3046.9741560,N,10357.5136509,E,5,24,1.0,530.297,M,-40.963,M,1.2,*60
$GPGSA,A,3,03,09,14,16,22,23,26,27,31,,,,1.8,0.9,1.5,1*21
$GAGSA,A,3,02,03,05,24,25,,,,,,,,3.1,1.4,2.8,3*34
$GPGSV,3,1,09,03,23,235,43,09,19,318,43,14,15,143,36,16,75,341,45,1*62
$GPGSV,3,2,09,22,15,214,36,23,51,308,46,26,50,034,46,27,45,158,44,1*6A
$GPGSV,3,3,09,31,27,083,45,,,,,,,,,,,,,1*50
$GAGSV,2,1,05,02,29,269,42,03,57,276,44,05,44,183,42,24,31,048,00,7*74
$GAGSV,2,2,05,25,62,339,43,,,,,,,,,,,,,7*4B
$GPRMC,045309.40,A,3046.9741073,N,10357.5139485,E,4.63,101.18,260319,0.0,E,D*31
$GPGGA,045309.40,3046.9741073,N,10357.5139485,E,5,23,1.0,530.266,M,-40.963,M,1.4,*64
$GPGSA,A,3,03,09,16,22,23,26,27,31,,,,,1.9,1.0,1.6,1*2E
$GAGSA,A,3,02,03,05,24,25,,,,,,,,3.1,1.4,2.8,3*34
$GPGSV,2,1,08,03,23,235,43,09,19,318,42,16,75,341,45,22,15,214,36,1*67
$GPGSV,2,2,08,23,51,308,46,26,50,034,46,27,45,158,43,31,27,083,46,1*65
$GAGSV,2,1,05,02,29,269,42,03,57,276,44,05,44,183,42,24,31,048,00,7*74
$GAGSV,2,2,05,25,62,339,43,,,,,,,,,,,,,7*4B
$GPRMC,045309.60,A,3046.9740667,N,10357.5142404,E,4.63,99.68,260319,0.0,E,D*03
$GPGGA,045309.60,3046.9740667,N,10357.5142404,E,5,24,1.0,530.261,M,-40.963,M,1.6,*63
$GPGSA,A,3,03,09,14,16,22,23,26,27,31,,,,1.8,0.9,1.5,1*21
$GAGSA,A,3,02,03,05,24,25,,,,,,,,3.1,1.4,2.8,3*34
$GPGSV,3,1,09,03,23,235,43,09,19,318,42,14,15,143,37,16,75,341,45,1*62
$GPGSV,3,2,09,22,15,214,38,23,51,308,46,26,50,034,46,27,45,158,44,1*64
$GPGSV,3,3,09,31,27,083,46,,,,,,,,,,,,,1*53
$GAGSV,2,1,05,02,29,269,42,03,57,276,44,05,44,183,42,24,31,048,00,7*74
$GAGSV,2,2,05,25,62,339,43,,,,,,,,,,,,,7*4B
$GPRMC,045309.80,A,3046.9740184,N,10357.5145339,E,4.69,100.86,260319,0.0,E,D*32
$GPGGA,045309.80,3046.9740184,N,10357.5145339,E,5,24,1.0,530.258,M,-40.963,M,1.8,*6D
$GPGSA,A,3,03,09,14,16,22,23,26,27,31,,,,1.8,0.9,1.5,1*21
$GAGSA,A,3,02,03,05,24,25,,,,,,,,3.1,1.4,2.8,3*34
$GPGSV,3,1,09,03,23,235,42,09,19,318,42,14,15,143,37,16,75,341,45,1*63
$GPGSV,3,2,09,22,15,214,38,23,51,308,46,26,50,034,47,27,45,158,45,1*64
$GPGSV,3,3,09,31,27,083,46,,,,,,,,,,,,,1*53
$GAGSV,2,1,05,02,29,269,42,03,57,276,44,05,44,183,42,24,31,048,00,7*74
$GAGSV,2,2,05,25,62,339,43,,,,,,,,,,,,,7*4B
$GPRMC,045310.00,A,3046.9739691,N,10357.5148355,E,4.65,100.93,260319,0.0,E,D*30
$GPGGA,045310.00,3046.9739691,N,10357.5148355,E,5,23,1.0,530.228,M,-40.963,M,2.0,*6C
$GPGSA,A,3,03,09,16,22,23,26,27,31,,,,,1.9,1.0,1.6,1*2E
$GAGSA,A,3,02,03,05,24,25,,,,,,,,3.1,1.4,2.8,3*34
$GPGSV,2,1,08,03,23,235,43,09,19,318,42,16,75,341,45,22,15,214,38,1*69
$GPGSV,2,2,08,23,51,308,46,26,50,034,46,27,45,158,45,31,27,083,45,1*60
$GAGSV,2,1,05,02,29,269,42,03,57,276,44,05,44,183,42,24,31,048,00,7*74
$GAGSV,2,2,05,25,62,339,43,,,,,,,,,,,,,7*4B
$GPRMC,045310.20,A,3046.9739299,N,10357.5151314,E,4.72,100.58,260319,0.0,E,D*32
$GPGGA,045310.20,3046.9739299,N,10357.5151314,E,5,24,1.0,530.237,M,-40.963,M,2.2,*64
$GPGSA,A,3,03,09,14,16,22,23,26,27,31,,,,1.8,0.9,1.5,1*21
$GAGSA,A,3,02,03,05,24,25,,,,,,,,3.1,1.4,2.8,3*34
$GPGSV,3,1,09,03,23,235,42,09,19,318,43,14,15,143,37,16,75,341,45,1*62
$GPGSV,3,2,09,22,15,214,37,23,51,308,46,26,50,034,47,27,45,158,45,1*6B
$GPGSV,3,3,09,31,27,083,46,,,,,,,,,,,,,1*53
$GAGSV,2,1,05,02,29,269,42,03,57,276,44,05,44,183,42,24,31,048,00,7*74
$GAGSV,2,2,05,25,62,339,43,,,,,,,,,,,,,7*4B
$GPRMC,045310.40,A,3046.9738828,N,10357.5154281,E,4.80,101.12,260319,0.0,E,D*3F
$GPGGA,045310.40,3046.9738828,N,10357.5154281,E,5,24,1.0,530.236,M,-40.963,M,2.4,*6C
$GPGSA,A,3,03,09,14,16,22,23,26,27,31,,,,1.8,0.9,1.5,1*21
$GAGSA,A,3,02,03,05,24,25,,,,,,,,3.1,1.4,2.8,3*34
$GPGSV,3,1,09,03,23,235,43,09,19,318,43,14,15,143,39,16,75,341,45,1*6D
$GPGSV,3,2,09,22,15,214,37,23,51,308,46,26,50,034,47,27,45,158,45,1*6B
$GPGSV,3,3,09,31,27,083,46,,,,,,,,,,,,,1*53
$GAGSV,2,1,05,02,29,269,42,03,57,276,44,05,44,183,42,24,31,048,00,7*74
$GAGSV,2,2,05,25,62,339,43,,,,,,,,,,,,,7*4B
$GPRMC,045310.60,A,3046.9738367,N,10357.5157218,E,4.52,99.72,260319,0.0,E,D*07
$GPGGA,045310.60,3046.9738367,N,10357.5157218,E,5,24,1.0,530.230,M,-40.963,M,2.6,*69
$GPGSA,A,3,03,09,14,16,22,23,26,27,31,,,,1.8,0.9,1.5,1*21
$GAGSA,A,3,02,03,05,24,25,,,,,,,,3.1,1.4,2.8,3*34
$GPGSV,3,1,09,03,23,235,43,09,19,318,41,14,15,143,39,16,75,341,45,1*6F
$GPGSV,3,2,09,22,15,214,37,23,51,308,46,26,50,034,46,27,45,158,44,1*6B
$GPGSV,3,3,09,31,27,083,46,,,,,,,,,,,,,1*53
$GAGSV,2,1,05,02,29,269,42,03,57,276,44,05,44,183,42,24,31,048,00,7*74
$GAGSV,2,2,05,25,62,339,43,,,,,,,,,,,,,7*4B
$GPRMC,045310.80,A,3046.9737899,N,10357.5160237,E,4.84,100.74,260319,0.0,E,D*39
$GPGGA,045310.80,3046.9737899,N,10357.5160237,E,5,24,1.0,530.222,M,-40.964,M,2.8,*61
$GPGSA,A,3,03,09,14,16,22,23,26,27,31,,,,1.8,0.9,1.5,1*21
$GAGSA,A,3,02,03,05,24,25,,,,,,,,3.1,1.4,2.8,3*34
$GPGSV,3,1,09,03,23,235,44,09,19,318,43,14,15,143,39,16,75,341,45,1*6A
$GPGSV,3,2,09,22,15,214,39,23,51,308,46,26,50,034,46,27,45,158,44,1*65
$GPGSV,3,3,09,31,27,083,46,,,,,,,,,,,,,1*53
$GAGSV,2,1,05,02,29,269,42,03,57,276,44,05,44,183,42,24,31,048,00,7*74
$GAGSV,2,2,05,25,62,339,43,,,,,,,,,,,,,7*4B
$GPRMC,045311.00,A,3046.9737192,N,10357.5163279,E,4.80,100.98,260319,0.0,E,D*3D
$GPGGA,045311.00,3046.9737192,N,10357.5163279,E,5,24,1.0,530.226,M,-40.964,M,1.0,*6C
$GPGSA,A,3,03,09,14,16,22,23,26,27,31,,,,1.8,0.9,1.5,1*21
$GAGSA,A,3,02,03,05,24,25,,,,,,,,3.1,1.4,2.8,3*34
$GPGSV,3,1,09,03,23,235,43,09,19,318,43,14,15,143,39,16,75,341,45,1*6D
$GPGSV,3,2,09,22,15,214,37,23,51,308,46,26,50,034,46,27,45,158,44,1*6B
$GPGSV,3,3,09,31,27,083,46,,,,,,,,,,,,,1*53
$GAGSV,2,1,05,02,29,269,42,03,57,276,44,05,44,183,42,24,31,048,00,7*74
$GAGSV,2,2,05,25,62,339,43,,,,,,,,,,,,,7*4B
$GPRMC,045311.20,A,3046.9736716,N,10357.5166257,E,4.73,99.74,260319,0.0,E,D*02
$GPGGA,045311.20,3046.9736716,N,10357.5166257,E,5,24,1.0,530.227,M,-40.964,M,1.2,*6F
$GPGSA,A,3,03,09,14,16,22,23,26,27,31,,,,1.8,0.9,1.5,1*21
$GAGSA,A,3,02,03,05,24,25,,,,,,,,3.1,1.4,2.8,3*34
$GPGSV,3,1,09,03,23,234,42,09,19,318,42,14,15,143,38,16,75,341,45,1*6D
$GPGSV,3,2,09,22,15,214,37,23,52,308,46,26,50,034,46,27,45,158,45,1*69
$GPGSV,3,3,09,31,27,083,46,,,,,,,,,,,,,1*53
$GAGSV,2,1,05,02,29,269,42,03,57,276,44,05,44,183,41,24,31,048,00,7*77
$GAGSV,2,2,05,25,62,339,43,,,,,,,,,,,,,7*4B
$GPRMC,045311.40,A,3046.9736275,N,10357.5169285,E,4.69,100.22,260319,0.0,E,D*3D
$GPGGA,045311.40,3046.9736275,N,10357.5169285,E,5,24,1.0,530.208,M,-40.964,M,1.4,*62
$GPGSA,A,3,03,09,14,16,22,23,26,27,31,,,,1.8,0.9,1.5,1*21
$GAGSA,A,3,02,03,05,24,25,,,,,,,,3.1,1.4,2.8,3*34
$GPGSV,3,1,09,03,23,234,41,09,19,318,42,14,15,143,39,16,75,341,45,1*6F
$GPGSV,3,2,09,22,15,214,37,23,52,308,46,26,50,034,46,27,45,158,43,1*6F
$GPGSV,3,3,09,31,27,083,45,,,,,,,,,,,,,1*50
$GAGSV,2,1,05,02,29,269,42,03,57,276,44,05,44,183,42,24,31,048,00,7*74
$GAGSV,2,2,05,25,62,339,43,,,,,,,,,,,,,7*4B
$GPRMC,045311.60,A,3046.9735828,N,10357.5172255,E,4.77,100.69,260319,0.0,E,D*39
$GPGGA,045311.60,3046.9735828,N,10357.5172255,E,5,24,1.0,530.198,M,-40.964,M,1.6,*6E
$GPGSA,A,3,03,09,14,16,22,23,26,27,31,,,,1.8,0.9,1.5,1*21
$GAGSA,A,3,02,03,05,24,25,,,,,,,,3.1,1.4,2.8,3*34
$GPGSV,3,1,09,03,23,234,43,09,19,318,41,14,15,143,36,16,75,341,45,1*61
$GPGSV,3,2,09,22,15,214,35,23,52,308,46,26,50,034,47,27,45,158,45,1*6A
$GPGSV,3,3,09,31,27,083,46,,,,,,,,,,,,,1*53
$GAGSV,2,1,05,02,29,269,42,03,57,276,44,05,44,183,42,24,31,048,00,7*74
$GAGSV,2,2,05,25,62,339,43,,,,,,,,,,,,,7*4B
$GPRMC,045311.80,A,3046.9735383,N,10357.5175304,E,4.62,98.43,260319,0.0,E,D*03
$GPGGA,045311.80,3046.9735383,N,10357.5175304,E,5,23,1.0,530.156,M,-40.964,M,1.8,*63
$GPGSA,A,3,03,09,16,22,23,26,27,31,,,,,1.9,1.0,1.6,1*2E
$GAGSA,A,3,02,03,05,24,25,,,,,,,,3.1,1.4,2.8,3*34
$GPGSV,2,1,08,03,23,234,43,09,19,318,41,16,75,341,45,22,15,214,37,1*64
$GPGSV,2,2,08,23,52,308,46,26,50,034,46,27,45,158,45,31,27,083,46,1*60
$GAGSV,2,1,05,02,29,269,42,03,57,276,44,05,44,183,42,24,31,048,00,7*74
$GAGSV,2,2,05,25,62,339,43,,,,,,,,,,,,,7*4B
$GPRMC,045312.00,A,3046.9735082,N,10357.5178252,E,4.80,98.34,260319,0.0,E,D*09
$GPGGA,045312.00,3046.9735082,N,10357.5178252,E,5,24,1.0,530.156,M,-40.964,M,2.0,*69
$GPGSA,A,3,03,09,14,16,22,23,26,27,31,,,,1.8,0.9,1.5,1*21
$GAGSA,A,3,02,03,05,24,25,,,,,,,,3.1,1.4,2.8,3*34
$GPGSV,3,1,09,03,23,234,43,09,19,318,43,14,15,143,35,16,75,341,45,1*60
$GPGSV,3,2,09,22,15,214,39,23,52,308,46,26,50,034,47,27,45,158,45,1*66
$GPGSV,3,3,09,31,27,083,46,,,,,,,,,,,,,1*53
$GAGSV,2,1,05,02,29,269,42,03,57,276,44,05,44,183,42,24,31,048,00,7*74
$GAGSV,2,2,05,25,62,339,43,,,,,,,,,,,,,7*4B
$GPRMC,045312.20,A,3046.9734630,N,10357.5181098,E,4.72,96.74,260319,0.0,E,D*00
$GPGGA,045312.20,3046.9734630,N,10357.5181098,E,5,23,1.0,530.006,M,-40.964,M,2.2,*66
$GPGSA,A,3,03,09,14,16,22,23,26,27,31,,,,1.8,0.9,1.5,1*21
$GAGSA,A,3,02,03,05,24,25,,,,,,,,3.1,1.4,2.8,3*34
$GPGSV,3,1,09,03,23,234,43,09,19,318,41,14,15,143,37,16,75,341,45,1*60
$GPGSV,3,2,09,22,15,214,40,23,52,308,46,26,50,034,46,27,45,158,45,1*69
$GPGSV,3,3,09,31,27,083,45,,,,,,,,,,,,,1*50
$GAGSV,2,1,05,02,29,269,42,03,57,276,44,05,44,183,42,24,31,048,00,7*74
$GAGSV,2,2,05,25,62,339,43,,,,,,,,,,,,,7*4B
$GPRMC,045312.40,A,3046.9734269,N,10357.5184255,E,4.60,97.24,260319,0.0,E,D*0F
$GPGGA,045312.40,3046.9734269,N,10357.5184255,E,5,24,1.0,530.119,M,-40.964,M,0.4,*62
$GPGSA,A,3,03,09,14,16,22,23,26,27,31,,,,1.8,0.9,1.5,1*21
$GAGSA,A,3,02,03,05,24,25,,,,,,,,3.1,1.4,2.8,3*34
$GPGSV,3,1,09,03,23,234,42,09,19,318,41,14,15,143,39,16,75,341,45,1*6F
$GPGSV,3,2,09,22,15,214,40,23,52,308,46,26,50,034,46,27,45,158,44,1*68
$GPGSV,3,3,09,31,27,083,45,,,,,,,,,,,,,1*50
$GAGSV,2,1,05,02,29,269,42,03,57,276,43,05,44,183,42,24,31,048,00,7*73
$GAGSV,2,2,05,25,62,339,43,,,,,,,,,,,,,7*4B
$GPRMC,045312.60,A,3046.9733879,N,10357.5187127,E,4.68,94.60,260319,0.0,E,D*0F
$GPGGA,045312.60,3046.9733879,N,10357.5187127,E,5,23,1.0,530.021,M,-40.964,M,0.6,*66
$GPGSA,A,3,03,09,14,16,22,23,26,27,31,,,,1.8,0.9,1.5,1*21
$GAGSA,A,3,02,03,05,24,25,,,,,,,,3.1,1.4,2.8,3*34
$GPGSV,3,1,09,03,23,234,42,09,19,318,41,14,15,143,37,16,75,341,45,1*61
$GPGSV,3,2,09,22,15,214,40,23,52,308,46,26,50,034,46,27,45,158,44,1*68
$GPGSV,3,3,09,31,27,083,45,,,,,,,,,,,,,1*50
$GAGSV,2,1,05,02,29,269,42,03,57,276,43,05,44,183,42,24,31,048,00,7*73
$GAGSV,2,2,05,25,62,339,43,,,,,,,,,,,,,7*4B
$GPRMC,045312.80,A,3046.9733752,N,10357.5190063,E,4.44,91.79,260319,0.0,E,D*03
$GPGGA,045312.80,3046.9733752,N,10357.5190063,E,5,23,1.0,529.971,M,-40.964,M,0.8,*63
$GPGSA,A,3,03,09,14,16,22,23,26,27,31,,,,1.8,0.9,1.5,1*21
$GAGSA,A,3,02,03,05,24,25,,,,,,,,3.1,1.4,2.8,3*34
$GPGSV,3,1,09,03,23,234,42,09,19,318,42,14,15,143,35,16,75,341,45,1*60
$GPGSV,3,2,09,22,15,214,38,23,52,308,45,26,50,034,46,27,45,158,45,1*65
$GPGSV,3,3,09,31,27,083,45,,,,,,,,,,,,,1*50
$GAGSV,2,1,05,02,29,269,42,03,57,276,43,05,44,183,42,24,31,048,00,7*73
$GAGSV,2,2,05,25,62,339,43,,,,,,,,,,,,,7*4B
$GPRMC,045313.00,A,3046.9733676,N,10357.5193142,E,4.71,90.29,260319,0.0,E,D*0E
$GPGGA,045313.00,3046.9733676,N,10357.5193142,E,5,22,1.0,529.921,M,-40.964,M,1.0,*61
$GPGSA,A,3,03,09,16,22,23,26,27,31,,,,,1.9,1.0,1.6,1*2E
$GAGSA,A,3,02,03,05,24,25,,,,,,,,3.1,1.4,2.8,3*34
$GPGSV,2,1,08,03,23,234,42,09,19,318,41,16,75,341,44,22,15,214,37,1*64
$GPGSV,2,2,08,23,52,308,46,26,50,034,46,27,45,158,44,31,27,083,45,1*62
$GAGSV,2,1,05,02,29,269,43,03,57,276,43,05,44,183,43,24,31,048,00,7*73
$GAGSV,2,2,05,25,62,339,43,,,,,,,,,,,,,7*4B
$GPRMC,045313.20,A,3046.9733815,N,10357.5196082,E,4.58,85.32,260319,0.0,E,D*0A
$GPGGA,045313.20,3046.9733815,N,10357.5196082,E,5,22,1.0,529.899,M,-40.964,M,1.2,*60
$GPGSA,A,3,03,09,16,22,23,26,27,31,,,,,1.9,1.0,1.6,1*2E
$GAGSA,A,3,02,03,05,24,25,,,,,,,,3.1,1.4,2.8,3*34
$GPGSV,2,1,08,03,23,234,42,09,19,318,42,16,75,341,45,22,15,214,39,1*68
$GPGSV,2,2,08,23,52,308,46,26,50,034,46,27,45,158,44,31,27,083,45,1*62
$GAGSV,2,1,05,02,29,269,43,03,57,276,43,05,44,183,44,24,31,048,00,7*74
$GAGSV,2,2,05,25,62,339,43,,,,,,,,,,,,,7*4B
$GPRMC,045313.40,A,3046.9733883,N,10357.5198814,E,4.65,81.81,260319,0.0,E,D*08
$GPGGA,045313.40,3046.9733883,N,10357.5198814,E,5,21,1.0,529.797,M,-40.964,M,1.4,*64
$GPGSA,A,3,03,09,14,16,23,26,27,31,,,,,1.8,1.0,1.6,1*2A
$GAGSA,A,3,02,03,05,24,25,,,,,,,,3.1,1.4,2.8,3*34
$GPGSV,2,1,08,03,23,234,43,09,19,318,41,14,15,143,39,16,75,341,45,1*6E
$GPGSV,2,2,08,23,52,308,46,26,50,034,47,27,45,158,45,31,27,083,46,1*61
$GAGSV,2,1,05,02,29,269,43,03,57,276,43,05,44,183,43,24,31,048,00,7*73
$GAGSV,2,2,05,25,62,339,43,,,,,,,,,,,,,7*4B
$GPRMC,045313.60,A,3046.9734222,N,10357.5201712,E,4.66,81.82,260319,0.0,E,D*06
$GPGGA,045313.60,3046.9734222,N,10357.5201712,E,5,21,1.0,529.754,M,-40.964,M,1.6,*67
$GPGSA,A,3,03,09,16,23,26,27,31,,,,,,2.1,1.1,1.8,1*2A
$GAGSA,A,3,02,03,05,24,25,,,,,,,,3.1,1.4,2.8,3*34
$GPGSV,2,1,07,03,23,234,43,09,19,318,44,16,75,341,45,23,52,308,46,1*66
$GPGSV,2,2,07,26,50,034,46,27,45,158,45,31,27,083,46,,,,,1*50
$GAGSV,2,1,05,02,29,269,42,03,57,276,44,05,44,183,41,24,31,048,00,7*77
$GAGSV,2,2,05,25,62,339,43,,,,,,,,,,,,,7*4B
$GPRMC,045313.80,A,3046.9735012,N,10357.5204877,E,4.57,74.67,260319,0.0,E,D*02
$GPGGA,045313.80,3046.9735012,N,10357.5204877,E,5,22,1.0,529.842,M,-40.964,M,1.8,*65
$GPGSA,A,3,03,09,16,22,23,26,27,31,,,,,1.9,1.0,1.6,1*2E
$GAGSA,A,3,02,03,05,24,25,,,,,,,,3.1,1.4,2.8,3*34
$GPGSV,2,1,08,03,23,234,43,09,19,318,44,16,75,341,45,22,15,214,37,1*61
$GPGSV,2,2,08,23,52,308,45,26,50,034,46,27,45,158,46,31,27,083,47,1*61
$GAGSV,2,1,05,02,29,269,42,03,57,276,44,05,44,183,43,24,31,048,00,7*75
$GAGSV,2,2,05,25,62,339,43,,,,,,,,,,,,,7*4B
$GPRMC,045314.00,A,3046.9735549,N,10357.5207463,E,4.64,70.01,260319,0.0,E,D*08
$GPGGA,045314.00,3046.9735549,N,10357.5207463,E,5,22,1.0,529.781,M,-40.964,M,2.0,*60
$GPGSA,A,3,03,09,16,23,26,27,31,,,,,,2.1,1.1,1.8,1*2A
$GAGSA,A,3,02,03,05,24,25,,,,,,,,3.1,1.4,2.8,3*34
$GPGSV,2,1,07,03,23,234,43,09,19,318,45,16,75,341,45,23,52,308,46,1*67
$GPGSV,2,2,07,26,50,034,46,27,45,158,46,31,27,083,47,,,,,1*52
$GAGSV,2,1,05,02,29,269,42,03,57,276,44,05,44,183,41,24,31,048,00,7*77
$GAGSV,2,2,05,25,62,339,43,,,,,,,,,,,,,7*4B
$GPRMC,045314.20,A,3046.9736514,N,10357.5210183,E,4.65,67.50,260319,0.0,E,D*0F
$GPGGA,045314.20,3046.9736514,N,10357.5210183,E,5,23,1.0,529.749,M,-40.964,M,2.2,*63
$GPGSA,A,3,03,09,14,16,23,26,27,31,,,,,1.8,1.0,1.6,1*2A
$GAGSA,A,3,02,03,05,24,25,,,,,,,,3.1,1.4,2.8,3*34
$GPGSV,2,1,08,03,23,234,43,09,19,318,44,14,15,143,39,16,75,341,45,1*6B
$GPGSV,2,2,08,23,52,308,46,26,50,034,46,27,45,158,45,31,27,083,47,1*61
$GAGSV,2,1,05,02,29,269,42,03,57,276,44,05,44,183,41,24,31,048,00,7*77
$GAGSV,2,2,05,25,62,339,44,,,,,,,,,,,,,7*4C
$GPRMC,045314.40,A,3046.9737530,N,10357.5212921,E,4.53,60.89,260319,0.0,E,D*0A
$GPGGA,045314.40,3046.9737530,N,10357.5212921,E,5,23,1.0,529.771,M,-40.964,M,0.4,*6F
$GPGSA,A,3,03,09,14,16,23,26,27,31,,,,,1.8,1.0,1.6,1*2A
$GAGSA,A,3,02,03,05,24,25,,,,,,,,3.1,1.4,2.8,3*34
$GPGSV,2,1,08,03,23,234,43,09,19,318,44,14,15,143,39,16,75,341,45,1*6B
$GPGSV,2,2,08,23,52,308,46,26,50,034,47,27,45,158,46,31,27,083,47,1*63
$GAGSV,2,1,05,02,29,269,42,03,57,276,44,05,44,183,42,24,31,048,00,7*74
$GAGSV,2,2,05,25,62,339,44,,,,,,,,,,,,,7*4C
$GPRMC,045314.60,A,3046.9738792,N,10357.5215462,E,4.66,56.87,260319,0.0,E,D*0D
$GPGGA,045314.60,3046.9738792,N,10357.5215462,E,5,23,1.0,529.786,M,-40.964,M,0.6,*6F
$GPGSA,A,3,03,09,14,16,23,26,27,31,,,,,1.8,1.0,1.6,1*2A
$GAGSA,A,3,02,03,05,24,25,,,,,,,,3.1,1.4,2.8,3*34
$GPGSV,2,1,08,03,23,234,44,09,19,318,43,14,15,143,37,16,75,341,44,1*64
$GPGSV,2,2,08,23,52,308,45,26,50,034,47,27,45,158,45,31,27,083,47,1*63
$GAGSV,2,1,05,02,29,269,41,03,57,276,44,05,44,183,43,24,31,048,00,7*76
$GAGSV,2,2,05,25,62,339,44,,,,,,,,,,,,,7*4C
$GPRMC,045314.80,A,3046.9740281,N,10357.5217873,E,4.53,51.57,260319,0.0,E,D*09
$GPGGA,045314.80,3046.9740281,N,10357.5217873,E,5,22,1.0,529.788,M,-40.964,M,0.8,*66
$GPGSA,A,3,03,09,16,23,26,27,31,,,,,,2.1,1.1,1.8,1*2A
$GAGSA,A,3,02,03,05,24,25,,,,,,,,3.1,1.4,2.8,3*34
$GPGSV,2,1,07,03,23,234,45,09,19,318,42,16,75,341,44,23,52,308,46,1*67
$GPGSV,2,2,07,26,50,034,46,27,45,158,45,31,27,083,47,,,,,1*51
$GAGSV,2,1,05,02,29,269,42,03,57,276,44,05,44,183,43,24,31,048,00,7*75
$GAGSV,2,2,05,25,62,339,44,,,,,,,,,,,,,7*4C
$GPRMC,045315.00,A,3046.9741949,N,10357.5220159,E,4.78,46.89,260319,0.0,E,D*07
$GPGGA,045315.00,3046.9741949,N,10357.5220159,E,5,23,1.0,529.788,M,-40.964,M,1.0,*6C
$GPGSA,A,3,03,09,14,16,23,26,27,31,,,,,1.8,1.0,1.6,1*2A
$GAGSA,A,3,02,03,05,24,25,,,,,,,,3.1,1.4,2.8,3*34
$GPGSV,2,1,08,03,23,234,46,09,19,318,43,14,15,143,35,16,75,341,45,1*65
$GPGSV,2,2,08,23,52,308,46,26,50,034,46,27,45,158,45,31,27,083,46,1*60
$GAGSV,2,1,05,02,29,269,42,03,57,276,44,05,44,183,44,24,31,048,00,7*72
$GAGSV,2,2,05,25,62,339,44,,,,,,,,,,,,,7*4C
$GPRMC,045315.20,A,3046.9743830,N,10357.5222195,E,4.62,39.38,260319,0.0,E,D*03
$GPGGA,045315.20,3046.9743830,N,10357.5222195,E,5,22,1.0,529.782,M,-40.964,M,1.2,*68
$GPGSA,A,3,03,09,16,23,26,27,31,,,,,,2.1,1.1,1.8,1*2A
$GAGSA,A,3,02,03,05,24,25,,,,,,,,3.1,1.4,2.8,3*34
$GPGSV,2,1,07,03,23,234,45,09,19,318,43,16,75,341,45,23,52,308,46,1*67
$GPGSV,2,2,07,26,50,034,47,27,45,158,46,31,27,083,48,,,,,1*5C
$GAGSV,2,1,05,02,29,269,43,03,57,276,44,05,44,183,44,24,31,048,00,7*73
$GAGSV,2,2,05,25,62,339,44,,,,,,,,,,,,,7*4C
$GPRMC,045315.40,A,3046.9745882,N,10357.5224039,E,4.72,36.22,260319,0.0,E,D*0E
$GPGGA,045315.40,3046.9745882,N,10357.5224039,E,5,22,1.0,529.777,M,-40.964,M,1.4,*6C
$GPGSA,A,3,03,09,16,23,26,27,31,,,,,,2.1,1.1,1.8,1*2A
$GAGSA,A,3,02,03,05,24,25,,,,,,,,3.1,1.4,2.8,3*34
$GPGSV,2,1,07,03,23,234,44,09,19,318,42,16,75,341,45,23,52,308,46,1*67
$GPGSV,2,2,07,26,50,034,47,27,45,158,46,31,27,083,48,,,,,1*5C
$GAGSV,2,1,05,02,29,269,42,03,57,276,44,05,44,183,44,24,31,048,00,7*72
$GAGSV,2,2,05,25,62,339,44,,,,,,,,,,,,,7*4C
$GPRMC,045315.60,A,3046.9747986,N,10357.5225760,E,4.52,33.72,260319,0.0,E,D*03
$GPGGA,045315.60,3046.9747986,N,10357.5225760,E,5,24,1.0,529.782,M,-40.964,M,1.6,*6D
$GPGSA,A,3,03,09,14,16,22,23,26,27,31,,,,1.8,0.9,1.5,1*21
$GAGSA,A,3,02,03,05,24,25,,,,,,,,3.1,1.4,2.8,3*34
$GPGSV,3,1,09,03,23,234,45,09,19,318,43,14,15,143,35,16,75,341,45,1*66
$GPGSV,3,2,09,22,15,214,37,23,52,308,46,26,50,034,47,27,45,158,46,1*6B
$GPGSV,3,3,09,31,27,083,47,,,,,,,,,,,,,1*52
$GAGSV,2,1,05,02,29,269,42,03,57,276,44,05,44,183,44,24,31,048,00,7*72
$GAGSV,2,2,05,25,62,339,44,,,,,,,,,,,,,7*4C
$GPRMC,045315.80,A,3046.9750237,N,10357.5227200,E,4.59,26.39,260319,0.0,E,D*0B
$GPGGA,045315.80,3046.9750237,N,10357.5227200,E,5,24,1.0,529.782,M,-40.964,M,1.8,*6B
$GPGSA,A,3,03,09,14,16,22,23,26,27,31,,,,1.8,0.9,1.5,1*21
$GAGSA,A,3,02,03,05,24,25,,,,,,,,3.1,1.4,2.8,3*34
$GPGSV,3,1,09,03,23,234,45,09,19,318,43,14,15,143,37,16,75,341,45,1*64
$GPGSV,3,2,09,22,15,214,37,23,52,308,46,26,50,034,47,27,45,158,45,1*68
$GPGSV,3,3,09,31,27,083,47,,,,,,,,,,,,,1*52
$GAGSV,2,1,05,02,29,269,42,03,57,276,44,05,44,183,44,24,31,048,00,7*72
$GAGSV,2,2,05,25,62,339,44,,,,,,,,,,,,,7*4C
$GPRMC,045316.00,A,3046.9752647,N,10357.5228387,E,4.79,19.67,260319,0.0,E,D*05
$GPGGA,045316.00,3046.9752647,N,10357.5228387,E,5,23,1.0,529.777,M,-40.964,M,2.0,*66
$GPGSA,A,3,03,09,14,16,23,26,27,31,,,,,1.8,1.0,1.6,1*2A
$GAGSA,A,3,02,03,05,24,25,,,,,,,,3.1,1.4,2.8,3*34
$GPGSV,2,1,08,03,23,234,45,09,19,318,43,14,15,143,37,16,75,341,45,1*64
$GPGSV,2,2,08,23,52,308,46,26,50,034,47,27,45,158,45,31,27,083,47,1*60
$GAGSV,2,1,05,02,29,269,42,03,57,276,44,05,44,183,43,24,31,048,00,7*75
$GAGSV,2,2,05,25,62,339,43,,,,,,,,,,,,,7*4B
$GPRMC,045316.20,A,3046.9755143,N,10357.5229320,E,4.56,16.71,260319,0.0,E,D*0A
$GPGGA,045316.20,3046.9755143,N,10357.5229320,E,5,22,1.0,529.775,M,-40.964,M,2.2,*6D
$GPGSA,A,3,03,09,16,23,26,27,31,,,,,,2.1,1.1,1.8,1*2A
$GAGSA,A,3,02,03,05,24,25,,,,,,,,3.1,1.4,2.8,3*34
$GPGSV,2,1,07,03,23,234,44,09,19,318,43,16,75,341,45,23,52,308,46,1*66
$GPGSV,2,2,07,26,50,034,47,27,45,158,45,31,27,083,46,,,,,1*51
$GAGSV,2,1,05,02,29,269,40,03,57,276,44,05,44,183,43,24,31,048,00,7*77
$GAGSV,2,2,05,25,62,339,43,,,,,,,,,,,,,7*4B
$GPRMC,045316.40,A,3046.9757581,N,10357.5230106,E,4.79,11.48,260319,0.0,E,D*0A
$GPGGA,045316.40,3046.9757581,N,10357.5230106,E,5,23,1.0,529.816,M,-40.964,M,0.4,*62
$GPGSA,A,3,03,09,14,16,23,26,27,31,,,,,1.8,1.0,1.6,1*2A
$GAGSA,A,3,02,03,05,24,25,,,,,,,,3.1,1.4,2.8,3*34
$GPGSV,2,1,08,03,23,234,44,09,19,318,43,14,15,143,37,16,75,341,45,1*65
$GPGSV,2,2,08,23,52,308,46,26,50,034,47,27,45,158,46,31,27,083,46,1*62
$GAGSV,2,1,05,02,29,269,40,03,57,276,44,05,44,183,42,24,31,048,00,7*76
$GAGSV,2,2,05,25,62,339,44,,,,,,,,,,,,,7*4C
$GPRMC,045316.60,A,3046.9760144,N,10357.5230562,E,4.68,5.75,260319,0.0,E,D*3C
$GPGGA,045316.60,3046.9760144,N,10357.5230562,E,5,23,1.0,529.833,M,-40.964,M,0.6,*6A
$GPGSA,A,3,03,09,14,16,23,26,27,31,,,,,1.8,1.0,1.6,1*2A
$GAGSA,A,3,02,03,05,24,25,,,,,,,,3.1,1.4,2.8,3*34
$GPGSV,2,1,08,03,23,234,43,09,19,318,44,14,15,143,37,16,75,341,45,1*65
$GPGSV,2,2,08,23,52,308,47,26,50,034,47,27,45,158,46,31,27,083,46,1*63
$GAGSV,2,1,05,02,29,269,41,03,57,276,44,05,44,183,42,24,31,048,00,7*77
$GAGSV,2,2,05,25,62,339,44,,,,,,,,,,,,,7*4C
$GPRMC,045316.80,A,3046.9762785,N,10357.5230750,E,4.69,1.90,260319,0.0,E,D*36
$GPGGA,045316.80,3046.9762785,N,10357.5230750,E,5,23,1.0,529.835,M,-40.964,M,0.8,*66
$GPGSA,A,3,03,09,14,16,23,26,27,31,,,,,1.8,1.0,1.6,1*2A
$GAGSA,A,3,02,03,05,24,25,,,,,,,,3.1,1.4,2.8,3*34
$GPGSV,2,1,08,03,23,234,43,09,19,318,44,14,15,143,39,16,75,341,45,1*6B
$GPGSV,2,2,08,23,52,308,47,26,50,034,47,27,45,158,47,31,27,083,46,1*62
$GAGSV,2,1,05,02,29,269,41,03,57,276,44,05,44,183,42,24,31,048,00,7*77
$GAGSV,2,2,05,25,62,339,44,,,,,,,,,,,,,7*4C
$GPRMC,045317.00,A,3046.9765426,N,10357.5230704,E,4.81,357.31,260319,0.0,E,D*3E
$GPGGA,045317.00,3046.9765426,N,10357.5230704,E,5,24,1.0,529.831,M,-40.964,M,1.0,*69
$GPGSA,A,3,03,09,14,16,22,23,26,27,31,,,,1.8,0.9,1.5,1*21
$GAGSA,A,3,02,03,05,24,25,,,,,,,,3.1,1.4,2.8,3*34
$GPGSV,3,1,09,03,23,234,45,09,19,318,45,14,15,143,40,16,75,341,45,1*62
$GPGSV,3,2,09,22,15,214,35,23,52,308,46,26,50,034,47,27,45,158,46,1*69
$GPGSV,3,3,09,31,27,083,46,,,,,,,,,,,,,1*53
$GAGSV,2,1,05,02,29,269,41,03,57,276,44,05,44,183,42,24,31,048,00,7*77
$GAGSV,2,2,05,25,62,339,44,,,,,,,,,,,,,7*4C
$GPRMC,045317.20,A,3046.9768021,N,10357.5230348,E,4.63,351.09,260319,0.0,E,D*3F
$GPGGA,045317.20,3046.9768021,N,10357.5230348,E,5,24,1.0,529.831,M,-40.964,M,1.2,*6B
$GPGSA,A,3,03,09,14,16,22,23,26,27,31,,,,1.8,0.9,1.5,1*21
$GAGSA,A,3,02,03,05,24,25,,,,,,,,3.1,1.4,2.8,3*34
$GPGSV,3,1,09,03,23,234,44,09,19,318,45,14,15,143,42,16,75,341,45,1*61
$GPGSV,3,2,09,22,15,214,35,23,52,308,47,26,50,034,48,27,45,158,46,1*67
$GPGSV,3,3,09,31,27,083,46,,,,,,,,,,,,,1*53
$GAGSV,2,1,05,02,29,269,41,03,57,276,44,05,44,183,43,24,31,048,00,7*76
$GAGSV,2,2,05,25,62,339,44,,,,,,,,,,,,,7*4C
$GPRMC,045317.40,A,3046.9770678,N,10357.5229761,E,4.90,347.37,260319,0.0,E,D*3B
$GPGGA,045317.40,3046.9770678,N,10357.5229761,E,5,24,1.0,529.824,M,-40.964,M,1.4,*6B
$GPGSA,A,3,03,09,14,16,22,23,26,27,31,,,,1.8,0.9,1.5,1*21
$GAGSA,A,3,02,03,05,24,25,,,,,,,,3.1,1.4,2.8,3*34
$GPGSV,3,1,09,03,23,234,45,09,19,318,43,14,15,143,40,16,75,341,45,1*64
$GPGSV,3,2,09,22,15,214,37,23,52,308,47,26,50,034,48,27,45,158,46,1*65
$GPGSV,3,3,09,31,27,083,46,,,,,,,,,,,,,1*53
$GAGSV,2,1,05,02,29,269,41,03,57,276,44,05,44,183,44,24,31,048,00,7*71
$GAGSV,2,2,05,25,62,339,44,,,,,,,,,,,,,7*4C
$GPRMC,045317.60,A,3046.9773228,N,10357.5228955,E,4.68,341.31,260319,0.0,E,D*34
$GPGGA,045317.60,3046.9773228,N,10357.5228955,E,5,24,1.0,529.823,M,-40.964,M,1.6,*66
$GPGSA,A,3,03,09,14,16,22,23,26,27,31,,,,1.8,0.9,1.5,1*21
$GAGSA,A,3,02,03,05,24,25,,,,,,,,3.1,1.4,2.8,3*34
$GPGSV,3,1,09,03,23,234,44,09,19,318,44,14,15,143,41,16,75,341,45,1*63
$GPGSV,3,2,09,22,15,214,38,23,52,308,46,26,50,034,48,27,45,158,46,1*6B
$GPGSV,3,3,09,31,27,083,45,,,,,,,,,,,,,1*50
$GAGSV,2,1,05,02,29,269,41,03,57,276,44,05,44,183,43,24,31,048,00,7*76
$GAGSV,2,2,05,25,62,339,44,,,,,,,,,,,,,7*4C
$GPRMC,045317.80,A,3046.9775824,N,10357.5227842,E,5.03,337.04,260319,0.0,E,D*39
$GPGGA,045317.80,3046.9775824,N,10357.5227842,E,5,24,1.0,529.815,M,-40.964,M,1.8,*6B
$GPGSA,A,3,03,09,14,16,22,23,26,27,31,,,,1.8,0.9,1.5,1*21
$GAGSA,A,3,02,03,05,24,25,,,,,,,,3.1,1.4,2.8,3*34
$GPGSV,3,1,09,03,23,234,44,09,19,318,44,14,15,143,40,16,75,341,45,1*62
$GPGSV,3,2,09,22,15,214,39,23,52,308,46,26,50,034,47,27,45,158,46,1*65
$GPGSV,3,3,09,31,27,083,46,,,,,,,,,,,,,1*53
$GAGSV,2,1,05,02,29,269,41,03,57,276,44,05,44,183,44,24,31,048,00,7*71
$GAGSV,2,2,05,25,62,339,44,,,,,,,,,,,,,7*4C
$GPRMC,045318.00,A,3046.9778255,N,10357.5226514,E,4.80,332.34,260319,0.0,E,D*3C
$GPGGA,045318.00,3046.9778255,N,10357.5226514,E,5,24,1.0,529.804,M,-40.964,M,2.0,*69
$GPGSA,A,3,03,09,14,16,22,23,26,27,31,,,,1.8,0.9,1.5,1*21
$GAGSA,A,3,02,03,05,24,25,,,,,,,,3.1,1.4,2.8,3*34
$GPGSV,3,1,09,03,23,234,44,09,19,318,44,14,15,143,38,16,75,341,45,1*6D
$GPGSV,3,2,09,22,15,214,41,23,52,308,46,26,50,034,47,27,45,158,46,1*6A
$GPGSV,3,3,09,31,27,083,45,,,,,,,,,,,,,1*50
$GAGSV,2,1,05,02,29,269,41,03,57,276,44,05,44,183,44,24,31,048,00,7*71
$GAGSV,2,2,05,25,62,339,44,,,,,,,,,,,,,7*4C
$GPRMC,045318.20,A,3046.9780615,N,10357.5224898,E,4.77,327.40,260319,0.0,E,D*3D
$GPGGA,045318.20,3046.9780615,N,10357.5224898,E,5,24,1.0,529.786,M,-40.964,M,2.2,*60
$GPGSA,A,3,03,09,14,16,22,23,26,27,31,,,,1.8,0.9,1.5,1*21
$GAGSA,A,3,02,03,05,24,25,,,,,,,,3.1,1.4,2.8,3*34
$GPGSV,3,1,09,03,23,234,43,09,19,318,44,14,15,143,38,16,75,341,45,1*6A
$GPGSV,3,2,09,22,15,214,42,23,52,308,46,26,50,034,47,27,45,158,46,1*69
$GPGSV,3,3,09,31,27,083,46,,,,,,,,,,,,,1*53
$GAGSV,2,1,05,02,29,269,41,03,57,276,44,05,44,183,44,24,31,048,00,7*71
$GAGSV,2,2,05,25,62,339,44,,,,,,,,,,,,,7*4C
$GPRMC,045318.40,A,3046.9782649,N,10357.5223172,E,4.61,321.90,260319,0.0,E,D*36
$GPGGA,045318.40,3046.9782649,N,10357.5223172,E,5,24,1.0,529.817,M,-40.964,M,0.4,*64
$GPGSA,A,3,03,09,14,16,22,23,26,27,31,,,,1.8,0.9,1.5,1*21
$GAGSA,A,3,02,03,05,24,25,,,,,,,,3.1,1.4,2.8,3*34
$GPGSV,3,1,09,03,23,234,45,09,19,318,43,14,15,143,38,16,75,341,45,1*6B
$GPGSV,3,2,09,22,15,214,42,23,52,308,46,26,50,034,47,27,45,158,46,1*69
$GPGSV,3,3,09,31,27,083,45,,,,,,,,,,,,,1*50
$GAGSV,2,1,05,02,29,269,41,03,57,276,44,05,44,183,43,24,31,048,00,7*76
$GAGSV,2,2,05,25,62,339,44,,,,,,,,,,,,,7*4C
$GPRMC,045318.60,A,3046.9784634,N,10357.5221287,E,4.56,319.67,260319,0.0,E,D*34
$GPGGA,045318.60,3046.9784634,N,10357.5221287,E,5,24,1.0,529.830,M,-40.964,M,0.6,*66
$GPGSA,A,3,03,09,14,16,22,23,26,27,31,,,,1.8,0.9,1.5,1*21
$GAGSA,A,3,02,03,05,24,25,,,,,,,,3.1,1.4,2.8,3*34
$GPGSV,3,1,09,03,23,234,45,09,19,318,43,14,15,143,40,16,75,341,45,1*64
$GPGSV,3,2,09,22,15,214,42,23,52,308,46,26,50,034,47,27,45,158,46,1*69
$GPGSV,3,3,09,31,27,083,45,,,,,,,,,,,,,1*50
$GAGSV,2,1,05,02,29,269,41,03,57,276,44,05,44,183,43,24,31,048,00,7*76
$GAGSV,2,2,05,25,62,339,44,,,,,,,,,,,,,7*4C
$GPRMC,045318.80,A,3046.9786428,N,10357.5219366,E,4.39,315.11,260319,0.0,E,D*36
$GPGGA,045318.80,3046.9786428,N,10357.5219366,E,5,24,1.0,529.837,M,-40.964,M,0.8,*69
$GPGSA,A,3,03,09,14,16,22,23,26,27,31,,,,1.8,0.9,1.5,1*21
$GAGSA,A,3,02,03,05,24,25,,,,,,,,3.1,1.4,2.8,3*34
$GPGSV,3,1,09,03,23,234,44,09,19,318,43,14,15,143,39,16,75,341,45,1*6B
$GPGSV,3,2,09,22,15,214,41,23,52,308,47,26,50,034,47,27,45,158,46,1*6B
$GPGSV,3,3,09,31,27,083,44,,,,,,,,,,,,,1*51
$GAGSV,2,1,05,02,29,269,41,03,57,276,44,05,44,183,43,24,31,048,00,7*76
$GAGSV,2,2,05,25,62,339,44,,,,,,,,,,,,,7*4C
$GPRMC,045319.00,A,3046.9788088,N,10357.5217395,E,4.20,311.96,260319,0.0,E,D*3E
$GPGGA,045319.00,3046.9788088,N,10357.5217395,E,5,24,1.0,529.835,M,-40.964,M,1.0,*69
$GPGSA,A,3,03,09,14,16,22,23,26,27,31,,,,1.8,0.9,1.5,1*21
$GAGSA,A,3,02,03,05,24,25,,,,,,,,3.1,1.4,2.8,3*34
$GPGSV,3,1,09,03,23,234,44,09,19,318,41,14,15,143,39,16,75,341,45,1*69
$GPGSV,3,2,09,22,15,214,39,23,52,308,47,26,50,034,47,27,45,158,46,1*64
$GPGSV,3,3,09,31,27,083,45,,,,,,,,,,,,,1*50
$GAGSV,2,1,05,02,29,269,41,03,57,276,44,05,44,183,43,24,31,048,00,7*76
