$GPRMC,060900.40,A,3046.9743590,N,10357.5039093,E,0.03,86.25,260319,0.0,E,D*0F
$GPGGA,060900.40,3046.9743590,N,10357.5039093,E,4,24,1.0,532.096,M,-40.962,M,2.4,*63
$GPGSA,A,3,07,08,09,16,23,26,27,,,,,,3.3,1.6,2.8,1*23
$GAGSA,A,3,02,03,08,24,25,36,,,,,,,2.9,1.1,2.7,3*3F
$GPGSV,2,1,07,07,24,311,45,08,59,182,47,09,45,297,48,16,46,032,44,1*63
$GPGSV,2,2,07,23,62,241,45,26,23,054,41,27,71,092,48,,,,,1*55
$GAGSV,2,1,06,02,41,302,42,03,43,231,43,08,30,297,41,24,16,071,00,7*70
$GAGSV,2,2,06,25,53,027,43,36,27,152,00,,,,,,,,,7*70
$GPRMC,060900.60,A,3046.9743593,N,10357.5039088,E,0.08,86.25,260319,0.0,E,D*0F
$GPGGA,060900.60,3046.9743593,N,10357.5039088,E,4,24,1.0,532.097,M,-40.962,M,2.6,*6B
$GPGSA,A,3,07,08,09,16,23,26,27,,,,,,3.3,1.6,2.8,1*23
$GAGSA,A,3,02,03,08,24,25,36,,,,,,,2.9,1.1,2.7,3*3F
$GPGSV,2,1,07,07,24,311,45,08,59,182,47,09,45,297,48,16,46,032,44,1*63
$GPGSV,2,2,07,23,62,241,45,26,23,054,41,27,71,092,48,,,,,1*55
$GAGSV,2,1,06,02,41,302,42,03,43,231,43,08,30,297,41,24,16,071,00,7*70
$GAGSV,2,2,06,25,53,027,43,36,27,152,00,,,,,,,,,7*70
$GPRMC,060900.80,A,3046.9743597,N,10357.5039094,E,0.02,86.25,260319,0.0,E,D*02
$GPGGA,060900.80,3046.9743597,N,10357.5039094,E,4,24,1.0,532.097,M,-40.962,M,2.8,*62
$GPGSA,A,3,07,08,09,16,23,26,27,,,,,,3.3,1.6,2.8,1*23
$GAGSA,A,3,02,03,08,24,25,36,,,,,,,2.9,1.1,2.7,3*3F
$GPGSV,2,1,07,07,24,311,45,08,59,182,48,09,45,297,48,16,46,032,44,1*6C
$GPGSV,2,2,07,23,62,241,45,26,23,054,41,27,71,092,48,,,,,1*55
$GAGSV,2,1,06,02,41,302,42,03,43,231,43,08,30,297,41,24,16,071,00,7*70
$GAGSV,2,2,06,25,53,027,43,36,27,152,00,,,,,,,,,7*70
$GPRMC,060901.00,A,3046.9743590,N,10357.5039098,E,0.03,86.25,260319,0.0,E,D*01
$GPGGA,060901.00,3046.9743590,N,10357.5039098,E,4,24,1.0,532.096,M,-40.962,M,3.0,*68
$GPGSA,A,3,07,08,09,16,23,26,27,,,,,,3.3,1.6,2.8,1*23
$GAGSA,A,3,02,03,08,24,25,36,,,,,,,2.9,1.1,2.7,3*3F
$GPGSV,2,1,07,07,24,311,45,08,59,182,48,09,45,297,48,16,46,032,44,1*6C
$GPGSV,2,2,07,23,62,241,45,26,23,054,41,27,71,092,48,,,,,1*55
$GAGSV,2,1,06,02,41,302,42,03,43,231,43,08,30,297,41,24,16,071,00,7*70
$GAGSV,2,2,06,25,53,027,43,36,27,152,00,,,,,,,,,7*70
$GPRMC,060901.20,A,3046.9743600,N,10357.5039097,E,0.11,86.25,260319,0.0,E,D*05
$GPGGA,060901.20,3046.9743600,N,10357.5039097,E,4,24,1.0,532.100,M,-40.962,M,1.2,*61
$GPGSA,A,3,07,08,09,16,23,26,27,,,,,,3.3,1.6,2.8,1*23
$GAGSA,A,3,02,03,08,24,25,36,,,,,,,2.9,1.1,2.7,3*3F
$GPGSV,2,1,07,07,24,311,45,08,59,182,48,09,45,297,48,16,46,032,44,1*6C
$GPGSV,2,2,07,23,62,241,45,26,23,054,41,27,71,092,48,,,,,1*55
$GAGSV,2,1,06,02,41,302,42,03,43,231,43,08,30,297,41,24,16,071,00,7*70
$GAGSV,2,2,06,25,53,027,43,36,27,152,00,,,,,,,,,7*70
$GPRMC,060901.40,A,3046.9743595,N,10357.5039091,E,0.08,86.25,260319,0.0,E,D*02
$GPGGA,060901.40,3046.9743595,N,10357.5039091,E,4,24,1.0,532.104,M,-40.962,M,1.4,*6C
$GPGSA,A,3,07,08,09,16,23,26,27,,,,,,3.3,1.6,2.8,1*23
$GAGSA,A,3,02,03,08,24,25,36,,,,,,,2.9,1.1,2.7,3*3F
$GPGSV,2,1,07,07,24,311,45,08,59,182,48,09,45,297,48,16,46,032,44,1*6C
$GPGSV,2,2,07,23,62,241,46,26,23,054,41,27,71,092,48,,,,,1*56
$GAGSV,2,1,06,02,41,302,42,03,43,231,43,08,30,297,41,24,16,071,00,7*70
$GAGSV,2,2,06,25,53,027,43,36,27,152,00,,,,,,,,,7*70
$GPRMC,060901.60,A,3046.9743595,N,10357.5039092,E,0.11,86.25,260319,0.0,E,D*0B
$GPGGA,060901.60,3046.9743595,N,10357.5039092,E,4,24,1.0,532.102,M,-40.962,M,1.6,*69
$GPGSA,A,3,07,08,09,16,23,26,27,,,,,,3.3,1.6,2.8,1*23
$GAGSA,A,3,02,03,08,24,25,36,,,,,,,2.9,1.1,2.7,3*3F
$GPGSV,2,1,07,07,24,311,45,08,59,182,47,09,45,297,48,16,46,032,44,1*63
$GPGSV,2,2,07,23,62,241,45,26,23,054,41,27,71,092,48,,,,,1*55
$GAGSV,2,1,06,02,41,302,42,03,43,231,43,08,30,297,41,24,16,071,00,7*70
$GAGSV,2,2,06,25,53,027,43,36,27,152,00,,,,,,,,,7*70
$GPRMC,060901.80,A,3046.9743594,N,10357.5039095,E,0.08,86.25,260319,0.0,E,D*0B
$GPGGA,060901.80,3046.9743594,N,10357.5039095,E,4,24,1.0,532.100,M,-40.962,M,1.8,*6D
$GPGSA,A,3,07,08,09,16,23,26,27,,,,,,3.3,1.6,2.8,1*23
$GAGSA,A,3,02,03,08,24,25,36,,,,,,,2.9,1.1,2.7,3*3F
$GPGSV,2,1,07,07,24,311,45,08,59,182,47,09,45,297,48,16,46,032,44,1*63
$GPGSV,2,2,07,23,62,241,46,26,23,054,41,27,71,092,48,,,,,1*56
$GAGSV,2,1,06,02,41,302,42,03,43,231,43,08,30,297,41,24,16,071,00,7*70
$GAGSV,2,2,06,25,53,027,43,36,27,152,00,,,,,,,,,7*70
$GPRMC,060902.00,A,3046.9743598,N,10357.5039095,E,0.03,86.25,260319,0.0,E,D*07
$GPGGA,060902.00,3046.9743598,N,10357.5039095,E,4,24,1.0,532.099,M,-40.962,M,2.0,*60
$GPGSA,A,3,07,08,09,16,23,26,27,,,,,,3.3,1.6,2.8,1*23
$GAGSA,A,3,02,03,08,24,25,36,,,,,,,2.9,1.1,2.7,3*3F
$GPGSV,2,1,07,07,24,311,45,08,59,182,47,09,45,297,48,16,46,032,44,1*63
$GPGSV,2,2,07,23,62,241,46,26,23,054,41,27,71,092,48,,,,,1*56
$GAGSV,2,1,06,02,41,302,42,03,43,231,43,08,30,297,41,24,16,071,00,7*70
$GAGSV,2,2,06,25,53,027,43,36,27,152,00,,,,,,,,,7*70
$GPRMC,060902.20,A,3046.9743597,N,10357.5039092,E,0.12,86.25,260319,0.0,E,D*0D
$GPGGA,060902.20,3046.9743597,N,10357.5039092,E,4,24,1.0,532.097,M,-40.962,M,2.2,*66
$GPGSA,A,3,07,08,09,16,23,26,27,,,,,,3.3,1.6,2.8,1*23
$GAGSA,A,3,02,03,08,24,25,36,,,,,,,2.9,1.1,2.7,3*3F
$GPGSV,2,1,07,07,24,311,45,08,59,182,47,09,45,297,48,16,46,032,44,1*63
$GPGSV,2,2,07,23,62,241,46,26,23,054,41,27,71,092,48,,,,,1*56
$GAGSV,2,1,06,02,41,302,42,03,43,231,43,08,30,297,41,24,16,071,00,7*70
$GAGSV,2,2,06,25,53,027,43,36,27,152,00,,,,,,,,,7*70
$GPRMC,060902.40,A,3046.9743593,N,10357.5039087,E,0.09,86.25,260319,0.0,E,D*01
$GPGGA,060902.40,3046.9743593,N,10357.5039087,E,4,24,1.0,532.097,M,-40.962,M,2.4,*66
$GPGSA,A,3,07,08,09,16,23,26,27,,,,,,3.3,1.6,2.8,1*23
$GAGSA,A,3,02,03,08,24,25,36,,,,,,,2.9,1.1,2.7,3*3F
$GPGSV,2,1,07,07,24,311,45,08,59,182,47,09,45,297,48,16,46,032,44,1*63
$GPGSV,2,2,07,23,62,241,45,26,23,054,41,27,71,092,48,,,,,1*55
$GAGSV,2,1,06,02,41,302,42,03,43,231,43,08,30,297,41,24,16,071,00,7*70
$GAGSV,2,2,06,25,53,027,43,36,27,152,00,,,,,,,,,7*70
$GPRMC,060902.60,A,3046.9743594,N,10357.5039094,E,0.03,86.25,260319,0.0,E,D*0C
$GPGGA,060902.60,3046.9743594,N,10357.5039094,E,4,24,1.0,532.097,M,-40.962,M,2.6,*63
$GPGSA,A,3,07,08,09,16,23,26,27,,,,,,3.3,1.6,2.8,1*23
$GAGSA,A,3,02,03,08,24,25,36,,,,,,,2.9,1.1,2.7,3*3F
$GPGSV,2,1,07,07,24,311,44,08,59,182,47,09,45,296,48,16,46,032,44,1*63
$GPGSV,2,2,07,23,62,241,45,26,23,054,41,27,71,092,48,,,,,1*55
$GAGSV,2,1,06,02,41,302,42,03,43,231,43,08,30,297,41,24,16,071,00,7*70
$GAGSV,2,2,06,25,53,027,43,36,27,152,00,,,,,,,,,7*70
$GPRMC,060902.80,A,3046.9743601,N,10357.5039092,E,0.04,86.25,260319,0.0,E,D*0C
$GPGGA,060902.80,3046.9743601,N,10357.5039092,E,4,24,1.0,532.097,M,-40.962,M,2.8,*6A
$GPGSA,A,3,07,08,09,16,23,26,27,,,,,,3.3,1.6,2.8,1*23
$GAGSA,A,3,02,03,08,24,25,36,,,,,,,2.9,1.1,2.7,3*3F
$GPGSV,2,1,07,07,24,311,45,08,59,182,47,09,45,296,47,16,46,032,44,1*6D
$GPGSV,2,2,07,23,62,241,45,26,23,054,41,27,71,092,48,,,,,1*55
$GAGSV,2,1,06,02,41,302,42,03,43,231,43,08,30,297,41,24,16,071,00,7*70
$GAGSV,2,2,06,25,53,027,43,36,27,152,00,,,,,,,,,7*70
$GPRMC,060903.00,A,3046.9743603,N,10357.5039085,E,0.08,86.25,260319,0.0,E,D*0D
$GPGGA,060903.00,3046.9743603,N,10357.5039085,E,4,24,1.0,532.099,M,-40.962,M,3.0,*60
$GPGSA,A,3,07,08,09,16,23,26,27,,,,,,3.3,1.6,2.8,1*23
$GAGSA,A,3,02,03,08,24,25,36,,,,,,,2.9,1.1,2.7,3*3F
$GPGSV,2,1,07,07,24,311,44,08,59,182,47,09,45,296,47,16,46,032,44,1*6C
$GPGSV,2,2,07,23,62,241,45,26,23,054,41,27,71,092,48,,,,,1*55
$GAGSV,2,1,06,02,41,302,42,03,43,231,43,08,30,297,41,24,16,071,00,7*70
$GAGSV,2,2,06,25,53,027,43,36,27,152,00,,,,,,,,,7*70
$GPRMC,060903.20,A,3046.9743612,N,10357.5039103,E,0.10,86.25,260319,0.0,E,D*09
$GPGGA,060903.20,3046.9743612,N,10357.5039103,E,4,24,1.0,532.104,M,-40.962,M,1.2,*68
$GPGSA,A,3,07,08,09,16,23,26,27,,,,,,3.3,1.6,2.8,1*23
$GAGSA,A,3,02,03,08,24,25,36,,,,,,,2.9,1.1,2.7,3*3F
$GPGSV,2,1,07,07,24,311,44,08,59,182,47,09,45,296,47,16,46,032,44,1*6C
$GPGSV,2,2,07,23,62,241,45,26,23,054,41,27,71,092,48,,,,,1*55
$GAGSV,2,1,06,02,41,302,42,03,43,231,43,08,30,297,41,24,16,071,00,7*70
$GAGSV,2,2,06,25,53,027,43,36,27,152,00,,,,,,,,,7*70
$GPRMC,060903.40,A,3046.9743604,N,10357.5039101,E,0.03,86.25,260319,0.0,E,D*08
$GPGGA,060903.40,3046.9743604,N,10357.5039101,E,4,24,1.0,532.105,M,-40.962,M,1.4,*6C
$GPGSA,A,3,07,08,09,16,23,26,27,,,,,,3.3,1.6,2.8,1*23
$GAGSA,A,3,02,03,08,24,25,36,,,,,,,2.9,1.1,2.7,3*3F
$GPGSV,2,1,07,07,24,311,44,08,59,182,47,09,45,296,47,16,46,032,44,1*6C
$GPGSV,2,2,07,23,62,241,45,26,23,054,41,27,71,092,48,,,,,1*55
$GAGSV,2,1,06,02,41,302,42,03,43,231,43,08,30,297,41,24,16,071,00,7*70
$GAGSV,2,2,06,25,53,027,43,36,27,152,00,,,,,,,,,7*70
$GPRMC,060903.60,A,3046.9743606,N,10357.5039099,E,0.03,86.25,260319,0.0,E,D*08
$GPGGA,060903.60,3046.9743606,N,10357.5039099,E,4,24,1.0,532.104,M,-40.962,M,1.6,*6F
$GPGSA,A,3,07,08,09,16,23,26,27,,,,,,3.3,1.6,2.8,1*23
$GAGSA,A,3,02,03,08,24,25,36,,,,,,,2.9,1.1,2.7,3*3F
$GPGSV,2,1,07,07,24,311,44,08,59,182,47,09,45,296,47,16,46,032,44,1*6C
$GPGSV,2,2,07,23,62,241,45,26,23,054,41,27,71,092,48,,,,,1*55
$GAGSV,2,1,06,02,41,302,42,03,43,231,43,08,30,297,41,24,16,071,00,7*70
$GAGSV,2,2,06,25,53,027,43,36,27,152,00,,,,,,,,,7*70
$GPRMC,060903.80,A,3046.9743607,N,10357.5039098,E,0.06,86.25,260319,0.0,E,D*03
$GPGGA,060903.80,3046.9743607,N,10357.5039098,E,4,24,1.0,532.104,M,-40.962,M,1.8,*6F
$GPGSA,A,3,07,08,09,16,23,26,27,,,,,,3.3,1.6,2.8,1*23
$GAGSA,A,3,02,03,08,24,25,36,,,,,,,2.9,1.1,2.7,3*3F
$GPGSV,2,1,07,07,24,311,44,08,59,182,47,09,45,296,47,16,46,032,44,1*6C
$GPGSV,2,2,07,23,62,241,46,26,23,054,41,27,71,092,48,,,,,1*56
$GAGSV,2,1,06,02,41,302,42,03,43,231,43,08,30,297,41,24,16,071,00,7*70
$GAGSV,2,2,06,25,53,027,43,36,27,152,00,,,,,,,,,7*70
$GPRMC,060904.00,A,3046.9743597,N,10357.5039109,E,0.11,86.25,260319,0.0,E,D*09
$GPGGA,060904.00,3046.9743597,N,10357.5039109,E,4,24,1.0,532.102,M,-40.962,M,2.0,*6E
$GPGSA,A,3,07,08,09,16,23,26,27,,,,,,3.3,1.6,2.8,1*23
$GAGSA,A,3,02,03,08,24,25,36,,,,,,,2.9,1.1,2.7,3*3F
$GPGSV,2,1,07,07,24,311,44,08,59,182,47,09,45,296,47,16,46,032,44,1*6C
$GPGSV,2,2,07,23,62,241,46,26,23,054,41,27,71,092,48,,,,,1*56
$GAGSV,2,1,06,02,41,302,42,03,43,231,43,08,30,297,41,24,16,071,00,7*70
$GAGSV,2,2,06,25,53,027,43,36,27,152,00,,,,,,,,,7*70
$GPRMC,060904.20,A,3046.9743599,N,10357.5039096,E,0.06,86.25,260319,0.0,E,D*04
$GPGGA,060904.20,3046.9743599,N,10357.5039096,E,4,24,1.0,532.098,M,-40.962,M,2.2,*65
$GPGSA,A,3,07,08,09,16,23,26,27,,,,,,3.3,1.6,2.8,1*23
$GAGSA,A,3,02,03,08,24,25,36,,,,,,,2.9,1.1,2.7,3*3F
$GPGSV,2,1,07,07,24,311,44,08,59,182,47,09,45,296,47,16,46,032,44,1*6C
$GPGSV,2,2,07,23,62,241,46,26,23,054,41,27,71,092,48,,,,,1*56
$GAGSV,2,1,06,02,41,302,42,03,43,231,43,08,30,297,41,24,16,071,00,7*70
$GAGSV,2,2,06,25,53,027,43,36,27,152,00,,,,,,,,,7*70
$GPRMC,060904.40,A,3046.9743600,N,10357.5039105,E,0.03,86.25,260319,0.0,E,D*0F
$GPGGA,060904.40,3046.9743600,N,10357.5039105,E,4,24,1.0,532.097,M,-40.962,M,2.4,*62
$GPGSA,A,3,07,08,09,16,23,26,27,,,,,,3.3,1.6,2.8,1*23
$GAGSA,A,3,02,03,08,24,25,36,,,,,,,2.9,1.1,2.7,3*3F
$GPGSV,2,1,07,07,24,311,44,08,59,182,47,09,45,296,47,16,46,032,44,1*6C
$GPGSV,2,2,07,23,62,241,46,26,23,054,41,27,71,092,48,,,,,1*56
$GAGSV,2,1,06,02,41,302,42,03,43,231,43,08,30,297,41,24,16,071,00,7*70
$GAGSV,2,2,06,25,53,027,43,36,27,152,00,,,,,,,,,7*70
$GPRMC,060904.60,A,3046.9743588,N,10357.5039101,E,0.06,86.25,260319,0.0,E,D*0F
$GPGGA,060904.60,3046.9743588,N,10357.5039101,E,4,24,1.0,532.097,M,-40.962,M,2.6,*65
$GPGSA,A,3,07,08,09,16,23,26,27,,,,,,3.3,1.6,2.8,1*23
$GAGSA,A,3,02,03,08,24,25,36,,,,,,,2.9,1.1,2.7,3*3F
$GPGSV,2,1,07,07,24,311,44,08,59,182,47,09,45,296,47,16,46,032,44,1*6C
$GPGSV,2,2,07,23,62,241,46,26,23,054,41,27,71,092,48,,,,,1*56
$GAGSV,2,1,06,02,41,302,42,03,43,231,43,08,30,297,41,24,16,071,00,7*70
$GAGSV,2,2,06,25,53,027,43,36,27,152,00,,,,,,,,,7*70
$GPRMC,060904.80,A,3046.9743596,N,10357.5039107,E,0.11,86.25,260319,0.0,E,D*0E
$GPGGA,060904.80,3046.9743596,N,10357.5039107,E,4,24,1.0,532.095,M,-40.962,M,2.8,*6E
$GPGSA,A,3,07,08,09,16,23,26,27,,,,,,3.3,1.6,2.8,1*23
$GAGSA,A,3,02,03,08,24,25,36,,,,,,,2.9,1.1,2.7,3*3F
$GPGSV,2,1,07,07,24,311,44,08,59,182,47,09,45,296,47,16,46,032,44,1*6C
$GPGSV,2,2,07,23,62,241,46,26,23,054,41,27,71,092,48,,,,,1*56
$GAGSV,2,1,06,02,41,302,42,03,43,231,43,08,30,297,41,24,16,071,00,7*70
$GAGSV,2,2,06,25,53,027,43,36,27,152,00,,,,,,,,,7*70
$GPRMC,060905.00,A,3046.9743598,N,10357.5039100,E,0.04,86.25,260319,0.0,E,D*0A
$GPGGA,060905.00,3046.9743598,N,10357.5039100,E,4,24,1.0,532.096,M,-40.962,M,3.0,*64
$GPGSA,A,3,07,08,09,16,23,26,27,,,,,,3.3,1.6,2.8,1*23
$GAGSA,A,3,02,03,08,24,25,36,,,,,,,2.9,1.1,2.7,3*3F
$GPGSV,2,1,07,07,24,311,45,08,59,182,47,09,45,296,47,16,46,032,44,1*6D
$GPGSV,2,2,07,23,62,241,46,26,23,054,41,27,71,092,48,,,,,1*56
$GAGSV,2,1,06,02,41,302,42,03,43,231,43,08,30,297,41,24,16,071,00,7*70
$GAGSV,2,2,06,25,53,027,43,36,27,152,00,,,,,,,,,7*70
$GPRMC,060905.20,A,3046.9743576,N,10357.5039105,E,0.05,86.25,260319,0.0,E,D*0C
$GPGGA,060905.20,3046.9743576,N,10357.5039105,E,4,24,1.0,532.100,M,-40.962,M,1.2,*6D
$GPGSA,A,3,07,08,09,16,23,26,27,,,,,,3.3,1.6,2.8,1*23
$GAGSA,A,3,02,03,08,24,25,36,,,,,,,2.9,1.1,2.7,3*3F
$GPGSV,2,1,07,07,24,311,45,08,59,182,47,09,45,296,47,16,46,032,44,1*6D
$GPGSV,2,2,07,23,62,241,46,26,23,054,41,27,71,092,48,,,,,1*56
$GAGSV,2,1,06,02,41,302,42,03,43,231,43,08,30,297,41,24,16,071,00,7*70
$GAGSV,2,2,06,25,53,027,43,36,27,152,00,,,,,,,,,7*70
$GPRMC,060905.40,A,3046.9743581,N,10357.5039106,E,0.10,86.25,260319,0.0,E,D*05
$GPGGA,060905.40,3046.9743581,N,10357.5039106,E,4,24,1.0,532.101,M,-40.962,M,1.4,*67
$GPGSA,A,3,07,08,09,16,23,26,27,,,,,,3.3,1.6,2.8,1*23
$GAGSA,A,3,02,03,08,24,25,36,,,,,,,2.9,1.1,2.7,3*3F
$GPGSV,2,1,07,07,24,311,45,08,59,182,47,09,45,296,47,16,46,032,44,1*6D
$GPGSV,2,2,07,23,62,241,46,26,23,054,41,27,71,092,48,,,,,1*56
$GAGSV,2,1,06,02,41,302,42,03,43,231,43,08,30,297,41,24,16,071,00,7*70
$GAGSV,2,2,06,25,53,027,43,36,27,152,00,,,,,,,,,7*70
$GPRMC,060905.60,A,3046.9743579,N,10357.5039111,E,0.03,86.25,260319,0.0,E,D*04
$GPGGA,060905.60,3046.9743579,N,10357.5039111,E,4,24,1.0,532.101,M,-40.962,M,1.6,*66
$GPGSA,A,3,07,08,09,16,23,26,27,,,,,,3.3,1.6,2.8,1*23
$GAGSA,A,3,02,03,08,24,25,36,,,,,,,2.9,1.1,2.7,3*3F
$GPGSV,2,1,07,07,24,311,44,08,59,182,48,09,45,296,47,16,46,032,44,1*63
$GPGSV,2,2,07,23,62,241,46,26,23,054,41,27,71,092,48,,,,,1*56
$GAGSV,2,1,06,02,41,302,42,03,43,231,43,08,30,297,41,24,16,071,00,7*70
$GAGSV,2,2,06,25,53,027,43,36,27,152,00,,,,,,,,,7*70
$GPRMC,060905.80,A,3046.9743579,N,10357.5039107,E,0.02,86.25,260319,0.0,E,D*0C
$GPGGA,060905.80,3046.9743579,N,10357.5039107,E,4,24,1.0,532.100,M,-40.962,M,1.8,*60
$GPGSA,A,3,07,08,09,16,23,26,27,,,,,,3.3,1.6,2.8,1*23
$GAGSA,A,3,02,03,08,24,25,36,,,,,,,2.9,1.1,2.7,3*3F
$GPGSV,2,1,07,07,24,311,44,08,59,182,48,09,45,296,47,16,46,032,44,1*63
$GPGSV,2,2,07,23,62,241,46,26,23,054,41,27,71,092,48,,,,,1*56
$GAGSV,2,1,06,02,41,302,42,03,43,231,43,08,30,297,41,24,16,071,00,7*70
$GAGSV,2,2,06,25,53,027,43,36,27,152,00,,,,,,,,,7*70
$GPRMC,060906.00,A,3046.9743576,N,10357.5039107,E,0.04,86.25,260319,0.0,E,D*0E
$GPGGA,060906.00,3046.9743576,N,10357.5039107,E,4,24,1.0,532.101,M,-40.962,M,2.0,*6E
$GPGSA,A,3,07,08,09,16,23,26,27,,,,,,3.3,1.6,2.8,1*23
$GAGSA,A,3,02,03,08,24,25,36,,,,,,,2.9,1.1,2.7,3*3F
$GPGSV,2,1,07,07,24,311,44,08,59,182,48,09,45,296,47,16,46,032,44,1*63
$GPGSV,2,2,07,23,62,241,46,26,23,054,41,27,71,092,48,,,,,1*56
$GAGSV,2,1,06,02,41,302,42,03,43,231,43,08,30,297,41,24,16,071,00,7*70
$GAGSV,2,2,06,25,53,027,43,36,27,152,00,,,,,,,,,7*70
$GPRMC,060906.20,A,3046.9743583,N,10357.5039104,E,0.04,86.25,260319,0.0,E,D*05
$GPGGA,060906.20,3046.9743583,N,10357.5039104,E,4,24,1.0,532.100,M,-40.962,M,2.2,*66
$GPGSA,A,3,07,08,09,16,23,26,27,,,,,,3.3,1.6,2.8,1*23
$GAGSA,A,3,02,03,08,24,25,36,,,,,,,2.9,1.1,2.7,3*3F
$GPGSV,2,1,07,07,24,311,44,08,59,182,48,09,45,296,47,16,46,032,44,1*63
$GPGSV,2,2,07,23,62,241,46,26,23,054,41,27,71,092,48,,,,,1*56
$GAGSV,2,1,06,02,41,302,42,03,43,231,43,08,30,297,41,24,16,071,00,7*70
$GAGSV,2,2,06,25,53,027,43,36,27,152,00,,,,,,,,,7*70
$GPRMC,060906.40,A,3046.9743581,N,10357.5039109,E,0.08,86.25,260319,0.0,E,D*00
$GPGGA,060906.40,3046.9743581,N,10357.5039109,E,4,24,1.0,532.100,M,-40.962,M,2.4,*69
$GPGSA,A,3,07,08,09,16,23,26,27,,,,,,3.3,1.6,2.8,1*23
$GAGSA,A,3,02,03,08,24,25,36,,,,,,,2.9,1.1,2.7,3*3F
$GPGSV,2,1,07,07,24,311,44,08,59,182,48,09,45,296,47,16,46,032,44,1*63
$GPGSV,2,2,07,23,62,241,46,26,23,054,41,27,71,092,48,,,,,1*56
$GAGSV,2,1,06,02,41,302,42,03,43,231,43,08,30,297,41,24,16,071,00,7*70
$GAGSV,2,2,06,25,53,027,43,36,27,152,00,,,,,,,,,7*70
$GPRMC,060906.60,A,3046.9743589,N,10357.5039107,E,0.05,86.25,260319,0.0,E,D*09
$GPGGA,060906.60,3046.9743589,N,10357.5039107,E,4,24,1.0,532.101,M,-40.962,M,2.6,*6E
$GPGSA,A,3,07,08,09,16,23,26,27,,,,,,3.3,1.6,2.8,1*23
$GAGSA,A,3,02,03,08,24,25,36,,,,,,,2.9,1.1,2.7,3*3F
$GPGSV,2,1,07,07,24,311,44,08,59,182,48,09,45,296,47,16,46,032,44,1*63
$GPGSV,2,2,07,23,62,241,46,26,23,054,41,27,71,092,48,,,,,1*56
$GAGSV,2,1,06,02,41,302,42,03,43,231,43,08,30,297,41,24,16,071,00,7*70
$GAGSV,2,2,06,25,53,027,43,36,27,152,00,,,,,,,,,7*70
$GPRMC,060906.80,A,3046.9743577,N,10357.5039107,E,0.04,86.25,260319,0.0,E,D*07
$GPGGA,060906.80,3046.9743577,N,10357.5039107,E,4,24,1.0,532.100,M,-40.962,M,2.8,*6E
$GPGSA,A,3,07,08,09,16,23,26,27,,,,,,3.3,1.6,2.8,1*23
$GAGSA,A,3,02,03,08,24,25,36,,,,,,,2.9,1.1,2.7,3*3F
$GPGSV,2,1,07,07,24,311,44,08,59,182,48,09,45,296,47,16,46,032,44,1*63
$GPGSV,2,2,07,23,62,241,46,26,23,054,41,27,71,092,48,,,,,1*56
$GAGSV,2,1,06,02,41,302,42,03,43,231,43,08,30,297,41,24,16,071,00,7*70
$GAGSV,2,2,06,25,53,027,43,36,27,152,00,,,,,,,,,7*70
$GPRMC,060907.00,A,3046.9743578,N,10357.5039104,E,0.05,86.25,260319,0.0,E,D*03
$GPGGA,060907.00,3046.9743578,N,10357.5039104,E,4,24,1.0,532.100,M,-40.962,M,3.0,*62
$GPGSA,A,3,07,08,09,16,23,26,27,,,,,,3.3,1.6,2.8,1*23
$GAGSA,A,3,02,03,08,24,25,36,,,,,,,2.9,1.1,2.7,3*3F
$GPGSV,2,1,07,07,24,311,44,08,59,182,48,09,45,296,47,16,46,032,44,1*63
$GPGSV,2,2,07,23,62,241,46,26,23,054,41,27,71,092,48,,,,,1*56
$GAGSV,2,1,06,02,41,302,42,03,43,231,43,08,30,297,41,24,16,071,00,7*70
$GAGSV,2,2,06,25,53,027,43,36,27,152,00,,,,,,,,,7*70
$GPRMC,060907.20,A,3046.9743595,N,10357.5039107,E,0.04,86.25,260319,0.0,E,D*00
$GPGGA,060907.20,3046.9743595,N,10357.5039107,E,4,24,1.0,532.104,M,-40.962,M,1.2,*64
$GPGSA,A,3,07,08,09,16,23,26,27,,,,,,3.3,1.6,2.8,1*23
$GAGSA,A,3,02,03,08,24,25,36,,,,,,,2.9,1.1,2.7,3*3F
$GPGSV,2,1,07,07,24,311,44,08,59,182,48,09,45,296,47,16,46,032,44,1*63
$GPGSV,2,2,07,23,62,241,46,26,23,054,41,27,71,092,48,,,,,1*56
$GAGSV,2,1,06,02,41,302,42,03,43,231,43,08,30,297,41,24,16,071,00,7*70
$GAGSV,2,2,06,25,53,027,43,36,27,152,00,,,,,,,,,7*70
$GPRMC,060907.40,A,3046.9743587,N,10357.5039107,E,0.02,86.25,260319,0.0,E,D*03
$GPGGA,060907.40,3046.9743587,N,10357.5039107,E,4,24,1.0,532.104,M,-40.962,M,1.4,*67
$GPGSA,A,3,07,08,09,16,23,26,27,,,,,,3.3,1.6,2.8,1*23
$GAGSA,A,3,02,03,08,24,25,36,,,,,,,2.9,1.1,2.7,3*3F
$GPGSV,2,1,07,07,24,311,44,08,59,182,48,09,45,296,47,16,46,032,44,1*63
$GPGSV,2,2,07,23,62,241,46,26,23,054,41,27,71,092,48,,,,,1*56
$GAGSV,2,1,06,02,41,302,42,03,43,231,43,08,30,297,41,24,16,071,00,7*70
$GAGSV,2,2,06,25,53,027,43,36,27,152,00,,,,,,,,,7*70
$GPRMC,060907.60,A,3046.9743589,N,10357.5039097,E,0.08,86.25,260319,0.0,E,D*0D
$GPGGA,060907.60,3046.9743589,N,10357.5039097,E,4,24,1.0,532.106,M,-40.962,M,1.6,*63
$GPGSA,A,3,07,08,09,16,23,26,27,,,,,,3.3,1.6,2.8,1*23
$GAGSA,A,3,02,03,08,24,25,36,,,,,,,2.9,1.1,2.7,3*3F
$GPGSV,2,1,07,07,24,311,44,08,59,182,48,09,45,296,47,16,46,032,44,1*63
$GPGSV,2,2,07,23,62,241,46,26,23,054,41,27,71,092,48,,,,,1*56
$GAGSV,2,1,06,02,41,302,42,03,43,231,43,08,30,297,41,24,16,071,00,7*70
$GAGSV,2,2,06,25,53,027,43,36,27,152,00,,,,,,,,,7*70
$GPRMC,060907.80,A,3046.9743594,N,10357.5039093,E,0.06,86.25,260319,0.0,E,D*05
$GPGGA,060907.80,3046.9743594,N,10357.5039093,E,4,24,1.0,532.106,M,-40.962,M,1.8,*6B
$GPGSA,A,3,07,08,09,16,23,26,27,,,,,,3.3,1.6,2.8,1*23
$GAGSA,A,3,02,03,08,24,25,36,,,,,,,2.9,1.1,2.7,3*3F
$GPGSV,2,1,07,07,24,311,44,08,59,182,48,09,45,296,47,16,46,032,44,1*63
$GPGSV,2,2,07,23,62,241,46,26,23,054,41,27,71,092,48,,,,,1*56
$GAGSV,2,1,06,02,41,302,42,03,43,231,43,08,30,297,41,24,16,071,00,7*70
$GAGSV,2,2,06,25,53,027,43,36,27,152,00,,,,,,,,,7*70
$GPRMC,060908.00,A,3046.9743598,N,10357.5039098,E,0.04,86.25,260319,0.0,E,D*07
$GPGGA,060908.00,3046.9743598,N,10357.5039098,E,4,24,1.0,532.105,M,-40.962,M,2.0,*63
$GPGSA,A,3,07,08,09,16,23,26,27,,,,,,3.3,1.6,2.8,1*23
$GAGSA,A,3,02,03,08,24,25,36,,,,,,,2.9,1.1,2.7,3*3F
$GPGSV,2,1,07,07,24,311,44,08,59,182,48,09,45,296,47,16,46,032,44,1*63
$GPGSV,2,2,07,23,62,241,46,26,23,054,41,27,71,092,48,,,,,1*56
$GAGSV,2,1,06,02,41,302,42,03,43,231,43,08,30,297,41,24,16,071,00,7*70
$GAGSV,2,2,06,25,53,027,43,36,27,152,00,,,,,,,,,7*70
$GPRMC,060908.20,A,3046.9743592,N,10357.5039101,E,0.05,86.25,260319,0.0,E,D*0F
$GPGGA,060908.20,3046.9743592,N,10357.5039101,E,4,24,1.0,532.104,M,-40.962,M,2.2,*69
$GPGSA,A,3,07,08,09,16,23,26,27,,,,,,3.3,1.6,2.8,1*23
$GAGSA,A,3,02,03,08,24,25,36,,,,,,,2.9,1.1,2.7,3*3F
$GPGSV,2,1,07,07,24,311,44,08,59,182,48,09,45,296,47,16,46,032,44,1*63
$GPGSV,2,2,07,23,62,241,46,26,23,054,41,27,71,092,48,,,,,1*56
$GAGSV,2,1,06,02,41,302,42,03,43,231,43,08,30,297,41,24,16,071,00,7*70
$GAGSV,2,2,06,25,53,027,43,36,27,152,00,,,,,,,,,7*70
$GPRMC,060908.40,A,3046.9743590,N,10357.5039098,E,0.02,86.25,260319,0.0,E,D*0D
$GPGGA,060908.40,3046.9743590,N,10357.5039098,E,4,24,1.0,532.104,M,-40.962,M,2.4,*6A
$GPGSA,A,3,07,08,09,16,23,26,27,,,,,,3.3,1.6,2.8,1*23
$GAGSA,A,3,02,03,08,24,25,36,,,,,,,2.9,1.1,2.7,3*3F
$GPGSV,2,1,07,07,24,311,44,08,59,182,48,09,45,296,47,16,46,032,44,1*63
$GPGSV,2,2,07,23,62,241,46,26,23,054,41,27,71,092,48,,,,,1*56
$GAGSV,2,1,06,02,41,302,42,03,43,231,43,08,30,297,41,24,16,071,00,7*70
$GAGSV,2,2,06,25,53,027,43,36,27,152,00,,,,,,,,,7*70
$GPRMC,060908.60,A,3046.9743590,N,10357.5039096,E,0.03,86.25,260319,0.0,E,D*00
$GPGGA,060908.60,3046.9743590,N,10357.5039096,E,4,24,1.0,532.104,M,-40.962,M,2.6,*64
$GPGSA,A,3,07,08,09,16,23,26,27,,,,,,3.3,1.6,2.8,1*23
$GAGSA,A,3,02,03,08,24,25,36,,,,,,,2.9,1.1,2.7,3*3F
$GPGSV,2,1,07,07,24,311,44,08,59,182,48,09,45,296,47,16,46,032,44,1*63
$GPGSV,2,2,07,23,62,241,46,26,23,054,41,27,71,092,48,,,,,1*56
$GAGSV,2,1,06,02,41,302,42,03,43,231,43,08,30,297,41,24,16,071,00,7*70
$GAGSV,2,2,06,25,53,027,43,36,27,152,00,,,,,,,,,7*70
$GPRMC,060908.80,A,3046.9743593,N,10357.5039095,E,0.07,86.25,260319,0.0,E,D*0A
$GPGGA,060908.80,3046.9743593,N,10357.5039095,E,4,24,1.0,532.105,M,-40.962,M,2.8,*65
$GPGSA,A,3,07,08,09,16,23,26,27,,,,,,3.3,1.6,2.8,1*23
$GAGSA,A,3,02,03,08,24,25,36,,,,,,,2.9,1.1,2.7,3*3F
$GPGSV,2,1,07,07,24,311,44,08,59,182,48,09,45,296,47,16,46,032,44,1*63
$GPGSV,2,2,07,23,62,241,46,26,23,054,41,27,71,092,48,,,,,1*56
$GAGSV,2,1,06,02,41,302,42,03,43,231,43,08,30,297,41,24,16,071,00,7*70
$GAGSV,2,2,06,25,53,027,43,36,27,152,00,,,,,,,,,7*70
$GPRMC,060909.00,A,3046.9743582,N,10357.5039100,E,0.03,86.25,260319,0.0,E,D*0A
$GPGGA,060909.00,3046.9743582,N,10357.5039100,E,4,24,1.0,532.103,M,-40.962,M,3.0,*6E
$GPGSA,A,3,07,08,09,16,23,26,27,,,,,,3.3,1.6,2.8,1*23
$GAGSA,A,3,02,03,08,24,25,36,,,,,,,2.9,1.1,2.7,3*3F
$GPGSV,2,1,07,07,24,311,44,08,59,182,48,09,45,296,47,16,46,032,44,1*63
$GPGSV,2,2,07,23,62,241,46,26,23,054,41,27,71,092,48,,,,,1*56
$GAGSV,2,1,06,02,41,302,42,03,43,231,43,08,30,297,41,24,16,071,00,7*70
$GAGSV,2,2,06,25,53,027,43,36,27,152,00,,,,,,,,,7*70
$GPRMC,060909.20,A,3046.9743588,N,10357.5039108,E,0.10,86.25,260319,0.0,E,D*08
$GPGGA,060909.20,3046.9743588,N,10357.5039108,E,4,24,1.0,532.103,M,-40.962,M,1.2,*6E
$GPGSA,A,3,07,08,09,16,23,26,27,,,,,,3.3,1.6,2.8,1*23
$GAGSA,A,3,02,03,08,24,25,36,,,,,,,2.9,1.1,2.7,3*3F
$GPGSV,2,1,07,07,24,311,44,08,59,182,48,09,45,296,47,16,46,032,44,1*63
$GPGSV,2,2,07,23,62,241,46,26,23,054,41,27,71,092,48,,,,,1*56
$GAGSV,2,1,06,02,41,302,42,03,43,231,43,08,30,297,41,24,16,071,00,7*70
$GAGSV,2,2,06,25,53,027,43,36,27,152,00,,,,,,,,,7*70
$GPRMC,060909.40,A,3046.9743589,N,10357.5039097,E,0.03,86.25,260319,0.0,E,D*0A
$GPGGA,060909.40,3046.9743589,N,10357.5039097,E,4,24,1.0,532.105,M,-40.962,M,1.4,*6E
$GPGSA,A,3,07,08,09,16,23,26,27,,,,,,3.3,1.6,2.8,1*23
$GAGSA,A,3,02,03,08,24,25,36,,,,,,,2.9,1.1,2.7,3*3F
$GPGSV,2,1,07,07,24,311,44,08,59,182,48,09,45,296,47,16,46,032,44,1*63
$GPGSV,2,2,07,23,62,241,46,26,23,054,41,27,71,092,48,,,,,1*56
$GAGSV,2,1,06,02,41,302,42,03,43,231,43,08,30,297,41,24,16,071,00,7*70
$GAGSV,2,2,06,25,53,027,43,36,27,152,00,,,,,,,,,7*70
$GPRMC,060909.60,A,3046.9743592,N,10357.5039103,E,0.07,86.25,260319,0.0,E,D*0A
$GPGGA,060909.60,3046.9743592,N,10357.5039103,E,4,24,1.0,532.105,M,-40.962,M,1.6,*68
$GPGSA,A,3,07,08,09,16,23,26,27,,,,,,3.3,1.6,2.8,1*23
$GAGSA,A,3,02,03,08,24,25,36,,,,,,,2.9,1.1,2.7,3*3F
$GPGSV,2,1,07,07,24,311,44,08,59,182,48,09,45,296,48,16,46,032,44,1*6C
$GPGSV,2,2,07,23,62,241,46,26,23,054,41,27,71,092,48,,,,,1*56
$GAGSV,2,1,06,02,41,302,42,03,43,231,43,08,30,297,41,24,16,071,00,7*70
$GAGSV,2,2,06,25,53,027,43,36,27,152,00,,,,,,,,,7*70
$GPRMC,060909.80,A,3046.9743589,N,10357.5039100,E,0.02,86.25,260319,0.0,E,D*08
$GPGGA,060909.80,3046.9743589,N,10357.5039100,E,4,24,1.0,532.106,M,-40.962,M,1.8,*62
$GPGSA,A,3,07,08,09,16,23,26,27,,,,,,3.3,1.6,2.8,1*23
$GAGSA,A,3,02,03,08,24,25,36,,,,,,,2.9,1.1,2.7,3*3F
$GPGSV,2,1,07,07,24,311,44,08,59,182,48,09,45,296,48,16,46,032,44,1*6C
$GPGSV,2,2,07,23,62,241,46,26,23,054,41,27,71,092,48,,,,,1*56
$GAGSV,2,1,06,02,41,302,42,03,43,231,43,08,30,297,41,24,16,071,00,7*70
$GAGSV,2,2,06,25,53,027,43,36,27,152,00,,,,,,,,,7*70
$GPRMC,060910.00,A,3046.9743587,N,10357.5039100,E,0.05,86.25,260319,0.0,E,D*01
$GPGGA,060910.00,3046.9743587,N,10357.5039100,E,4,24,1.0,532.104,M,-40.962,M,2.0,*65
$GPGSA,A,3,07,08,09,16,23,26,27,,,,,,3.3,1.6,2.8,1*23
$GAGSA,A,3,02,03,08,24,25,36,,,,,,,2.9,1.1,2.7,3*3F
$GPGSV,2,1,07,07,24,311,44,08,59,182,48,09,45,296,48,16,46,032,44,1*6C
$GPGSV,2,2,07,23,62,241,46,26,23,054,41,27,71,092,48,,,,,1*56
$GAGSV,2,1,06,02,41,302,42,03,43,231,43,08,30,297,41,24,16,071,00,7*70
$GAGSV,2,2,06,25,53,027,43,36,27,152,00,,,,,,,,,7*70
$GPRMC,060910.20,A,3046.9743589,N,10357.5039099,E,0.04,86.25,260319,0.0,E,D*0D
$GPGGA,060910.20,3046.9743589,N,10357.5039099,E,4,24,1.0,532.104,M,-40.962,M,2.2,*6A
$GPGSA,A,3,07,08,09,16,23,26,27,,,,,,3.3,1.6,2.8,1*23
$GAGSA,A,3,02,03,08,24,25,36,,,,,,,2.9,1.1,2.7,3*3F
$GPGSV,2,1,07,07,24,311,44,08,59,182,48,09,45,296,48,16,46,032,44,1*6C
$GPGSV,2,2,07,23,62,241,46,26,23,054,41,27,71,092,48,,,,,1*56
$GAGSV,2,1,06,02,41,302,42,03,43,231,43,08,30,297,41,24,16,071,00,7*70
$GAGSV,2,2,06,25,53,027,43,36,27,152,00,,,,,,,,,7*70
$GPRMC,060910.40,A,3046.9743584,N,10357.5039101,E,0.04,86.25,260319,0.0,E,D*06
$GPGGA,060910.40,3046.9743584,N,10357.5039101,E,4,24,1.0,532.105,M,-40.962,M,2.4,*66
$GPGSA,A,3,07,08,09,16,23,26,27,,,,,,3.3,1.6,2.8,1*23
$GAGSA,A,3,02,03,08,24,25,36,,,,,,,2.9,1.1,2.7,3*3F
$GPGSV,2,1,07,07,24,311,44,08,59,182,48,09,45,296,48,16,46,032,44,1*6C
$GPGSV,2,2,07,23,62,241,46,26,23,054,41,27,71,092,48,,,,,1*56
$GAGSV,2,1,06,02,41,302,42,03,43,231,43,08,30,297,41,24,16,071,00,7*70
$GAGSV,2,2,06,25,53,027,43,36,27,152,00,,,,,,,,,7*70
$GPRMC,060910.60,A,3046.9743589,N,10357.5039098,E,0.03,86.25,260319,0.0,E,D*0F
$GPGGA,060910.60,3046.9743589,N,10357.5039098,E,4,24,1.0,532.105,M,-40.962,M,2.6,*6A
$GPGSA,A,3,07,08,09,16,23,26,27,,,,,,3.3,1.6,2.8,1*23
$GAGSA,A,3,02,03,08,24,25,36,,,,,,,2.9,1.1,2.7,3*3F
$GPGSV,2,1,07,07,24,311,44,08,59,182,48,09,45,296,48,16,46,032,44,1*6C
$GPGSV,2,2,07,23,62,241,46,26,23,054,41,27,71,092,48,,,,,1*56
$GAGSV,2,1,06,02,41,302,42,03,43,231,43,08,30,297,41,24,16,071,00,7*70
$GAGSV,2,2,06,25,53,027,43,36,27,152,00,,,,,,,,,7*70
$GPRMC,060910.80,A,3046.9743591,N,10357.5039102,E,0.08,86.25,260319,0.0,E,D*01
$GPGGA,060910.80,3046.9743591,N,10357.5039102,E,4,24,1.0,532.102,M,-40.962,M,2.8,*66
$GPGSA,A,3,07,08,09,16,23,26,27,,,,,,3.3,1.6,2.8,1*23
$GAGSA,A,3,02,03,08,24,25,36,,,,,,,2.9,1.1,2.7,3*3F
$GPGSV,2,1,07,07,24,311,44,08,59,182,48,09,45,296,48,16,46,032,44,1*6C
$GPGSV,2,2,07,23,62,241,46,26,23,054,41,27,71,092,48,,,,,1*56
$GAGSV,2,1,06,02,41,302,42,03,43,231,43,08,30,297,41,24,16,071,00,7*70
$GAGSV,2,2,06,25,53,027,43,36,27,152,00,,,,,,,,,7*70
$GPRMC,060911.00,A,3046.9743584,N,10357.5039094,E,0.14,86.25,260319,0.0,E,D*0F
$GPGGA,060911.00,3046.9743584,N,10357.5039094,E,4,24,1.0,532.103,M,-40.962,M,3.0,*6D
$GPGSA,A,3,07,08,09,16,23,26,27,,,,,,3.3,1.6,2.8,1*23
$GAGSA,A,3,02,03,08,24,25,36,,,,,,,2.9,1.1,2.7,3*3F
$GPGSV,2,1,07,07,24,311,44,08,59,182,48,09,45,296,48,16,46,032,44,1*6C
$GPGSV,2,2,07,23,61,241,46,26,23,054,41,27,71,092,48,,,,,1*55
$GAGSV,2,1,06,02,41,302,42,03,43,231,43,08,30,297,41,24,16,071,00,7*70
$GAGSV,2,2,06,25,53,027,43,36,27,152,00,,,,,,,,,7*70
$GPRMC,060911.20,A,3046.9743593,N,10357.5039114,E,0.07,86.25,260319,0.0,E,D*00
$GPGGA,060911.20,3046.9743593,N,10357.5039114,E,4,24,1.0,532.103,M,-40.962,M,1.2,*60
$GPGSA,A,3,07,08,09,16,23,26,27,,,,,,3.3,1.6,2.8,1*23
$GAGSA,A,3,02,03,08,24,25,36,,,,,,,2.9,1.1,2.7,3*3F
$GPGSV,2,1,07,07,24,311,45,08,59,182,48,09,45,296,48,16,46,032,44,1*6D
$GPGSV,2,2,07,23,61,241,46,26,23,054,41,27,71,092,48,,,,,1*55
$GAGSV,2,1,06,02,41,302,42,03,43,231,43,08,30,297,41,24,16,071,00,7*70
$GAGSV,2,2,06,25,53,027,43,36,27,152,00,,,,,,,,,7*70
$GPRMC,060911.40,A,3046.9743594,N,10357.5039115,E,0.13,86.25,260319,0.0,E,D*05
$GPGGA,060911.40,3046.9743594,N,10357.5039115,E,4,24,1.0,532.101,M,-40.962,M,1.4,*64
$GPGSA,A,3,07,08,09,16,23,26,27,,,,,,3.3,1.6,2.8,1*23
$GAGSA,A,3,02,03,08,24,25,36,,,,,,,2.9,1.1,2.7,3*3F
$GPGSV,2,1,07,07,24,311,45,08,59,182,48,09,45,296,48,16,46,032,44,1*6D
$GPGSV,2,2,07,23,61,241,46,26,23,054,41,27,71,092,48,,,,,1*55
$GAGSV,2,1,06,02,41,302,42,03,43,231,43,08,30,297,41,24,16,071,00,7*70
$GAGSV,2,2,06,25,53,027,43,36,27,152,00,,,,,,,,,7*70
$GPRMC,060911.60,A,3046.9743589,N,10357.5039114,E,0.03,86.25,260319,0.0,E,D*0B
$GPGGA,060911.60,3046.9743589,N,10357.5039114,E,4,24,1.0,532.102,M,-40.962,M,1.6,*6A
$GPGSA,A,3,07,08,09,16,23,26,27,,,,,,3.3,1.6,2.8,1*23
$GAGSA,A,3,02,03,08,24,25,36,,,,,,,2.9,1.1,2.7,3*3F
$GPGSV,2,1,07,07,24,311,45,08,59,182,48,09,45,296,48,16,46,032,44,1*6D
$GPGSV,2,2,07,23,61,241,46,26,23,054,41,27,71,092,48,,,,,1*55
$GAGSV,2,1,06,02,41,302,42,03,43,231,43,08,30,297,41,24,16,071,00,7*70
$GAGSV,2,2,06,25,53,027,43,36,27,152,00,,,,,,,,,7*70
$GPRMC,060911.80,A,3046.9743585,N,10357.5039110,E,0.04,86.25,260319,0.0,E,D*0A
$GPGGA,060911.80,3046.9743585,N,10357.5039110,E,4,24,1.0,532.103,M,-40.962,M,1.8,*63
$GPGSA,A,3,07,08,09,16,23,26,27,,,,,,3.3,1.6,2.8,1*23
$GAGSA,A,3,02,03,08,24,25,36,,,,,,,2.9,1.1,2.7,3*3F
$GPGSV,2,1,07,07,24,311,45,08,59,182,48,09,45,296,48,16,46,032,44,1*6D
$GPGSV,2,2,07,23,61,241,46,26,23,054,41,27,71,092,48,,,,,1*55
$GAGSV,2,1,06,02,41,302,42,03,43,231,43,08,30,297,41,24,16,071,00,7*70
$GAGSV,2,2,06,25,53,027,43,36,27,152,00,,,,,,,,,7*70
$GPRMC,060912.00,A,3046.9743588,N,10357.5039114,E,0.04,86.25,260319,0.0,E,D*08
$GPGGA,060912.00,3046.9743588,N,10357.5039114,E,4,24,1.0,532.102,M,-40.962,M,2.0,*6B
$GPGSA,A,3,07,08,09,16,23,26,27,,,,,,3.3,1.6,2.8,1*23
$GAGSA,A,3,02,03,08,24,25,36,,,,,,,2.9,1.1,2.7,3*3F
$GPGSV,2,1,07,07,24,311,44,08,59,182,48,09,45,296,48,16,46,032,44,1*6C
$GPGSV,2,2,07,23,61,241,46,26,23,054,41,27,71,092,48,,,,,1*55
$GAGSV,2,1,06,02,41,302,42,03,43,231,43,08,30,297,41,24,16,071,00,7*70
$GAGSV,2,2,06,25,53,027,43,36,27,152,00,,,,,,,,,7*70
$GPRMC,060912.20,A,3046.9743580,N,10357.5039111,E,0.04,86.25,260319,0.0,E,D*07
$GPGGA,060912.20,3046.9743580,N,10357.5039111,E,4,24,1.0,532.102,M,-40.962,M,2.2,*66
$GPGSA,A,3,07,08,09,16,23,26,27,,,,,,3.3,1.6,2.8,1*23
$GAGSA,A,3,02,03,08,24,25,36,,,,,,,2.9,1.1,2.7,3*3F
$GPGSV,2,1,07,07,24,311,45,08,59,182,48,09,45,296,48,16,46,032,44,1*6D
$GPGSV,2,2,07,23,61,241,46,26,23,054,41,27,71,092,48,,,,,1*55
$GAGSV,2,1,06,02,41,302,42,03,43,231,43,08,30,297,41,24,16,071,00,7*70
$GAGSV,2,2,06,25,53,027,43,36,27,152,00,,,,,,,,,7*70
$GPRMC,060912.40,A,3046.9743591,N,10357.5039108,E,0.10,86.25,260319,0.0,E,D*0C
$GPGGA,060912.40,3046.9743591,N,10357.5039108,E,4,24,1.0,532.102,M,-40.962,M,2.4,*6E
$GPGSA,A,3,07,08,09,16,23,26,27,,,,,,3.3,1.6,2.8,1*23
$GAGSA,A,3,02,03,08,24,25,36,,,,,,,2.9,1.1,2.7,3*3F
$GPGSV,2,1,07,07,24,311,45,08,59,182,48,09,45,296,48,16,46,032,44,1*6D
$GPGSV,2,2,07,23,61,241,46,26,23,054,41,27,71,092,48,,,,,1*55
$GAGSV,2,1,06,02,41,302,42,03,43,231,43,08,30,297,41,24,16,071,00,7*70
$GAGSV,2,2,06,25,53,027,43,36,27,152,00,,,,,,,,,7*70
$GPRMC,060912.60,A,3046.9743579,N,10357.5039112,E,0.06,86.25,260319,0.0,E,D*04
$GPGGA,060912.60,3046.9743579,N,10357.5039112,E,4,24,1.0,532.102,M,-40.962,M,2.6,*63
$GPGSA,A,3,07,08,09,16,23,26,27,,,,,,3.3,1.6,2.8,1*23
$GAGSA,A,3,02,03,08,24,25,36,,,,,,,2.9,1.1,2.7,3*3F
$GPGSV,2,1,07,07,24,311,44,08,59,182,48,09,45,296,48,16,46,032,44,1*6C
$GPGSV,2,2,07,23,61,241,46,26,23,054,41,27,71,092,48,,,,,1*55
$GAGSV,2,1,06,02,41,302,42,03,43,231,43,08,30,297,41,24,16,071,00,7*70
$GAGSV,2,2,06,25,53,027,43,36,27,152,00,,,,,,,,,7*70
$GPRMC,060912.80,A,3046.9743578,N,10357.5039105,E,0.05,86.25,260319,0.0,E,D*0E
$GPGGA,060912.80,3046.9743578,N,10357.5039105,E,4,24,1.0,532.103,M,-40.962,M,2.8,*65
$GPGSA,A,3,07,08,09,16,23,26,27,,,,,,3.3,1.6,2.8,1*23
$GAGSA,A,3,02,03,08,24,25,36,,,,,,,2.9,1.1,2.7,3*3F
$GPGSV,2,1,07,07,24,311,45,08,59,182,48,09,45,296,48,16,46,032,44,1*6D
$GPGSV,2,2,07,23,61,241,46,26,23,054,41,27,71,092,48,,,,,1*55
$GAGSV,2,1,06,02,41,302,42,03,43,231,43,08,30,297,41,24,16,071,00,7*70
$GAGSV,2,2,06,25,53,027,43,36,27,152,00,,,,,,,,,7*70
$GPRMC,060913.00,A,3046.9743590,N,10357.5039100,E,0.09,86.25,260319,0.0,E,D*08
$GPGGA,060913.00,3046.9743590,N,10357.5039100,E,4,24,1.0,532.105,M,-40.962,M,3.0,*60
$GPGSA,A,3,07,08,09,16,23,26,27,,,,,,3.3,1.6,2.8,1*23
$GAGSA,A,3,02,03,08,24,25,36,,,,,,,2.9,1.1,2.7,3*3F
$GPGSV,2,1,07,07,24,311,45,08,59,182,48,09,45,296,48,16,46,032,44,1*6D
$GPGSV,2,2,07,23,61,241,46,26,23,054,41,27,71,092,48,,,,,1*55
$GAGSV,2,1,06,02,41,302,42,03,43,231,43,08,30,297,41,24,16,071,00,7*70
$GAGSV,2,2,06,25,53,027,43,36,27,152,00,,,,,,,,,7*70
$GPRMC,060913.20,A,3046.9743595,N,10357.5039098,E,0.07,86.25,260319,0.0,E,D*01
$GPGGA,060913.20,3046.9743595,N,10357.5039098,E,4,24,1.0,532.106,M,-40.962,M,1.2,*64
$GPGSA,A,3,07,08,09,16,23,26,27,,,,,,3.3,1.6,2.8,1*23
$GAGSA,A,3,02,03,08,24,25,36,,,,,,,2.9,1.1,2.7,3*3F
$GPGSV,2,1,07,07,24,311,44,08,59,182,48,09,45,296,48,16,46,032,44,1*6C
$GPGSV,2,2,07,23,61,241,46,26,23,054,41,27,71,092,48,,,,,1*55
$GAGSV,2,1,06,02,41,302,42,03,43,231,43,08,30,297,41,24,16,071,00,7*70
$GAGSV,2,2,06,25,53,027,43,36,27,152,00,,,,,,,,,7*70
$GPRMC,060913.40,A,3046.9743601,N,10357.5039098,E,0.05,86.25,260319,0.0,E,D*0B
$GPGGA,060913.40,3046.9743601,N,10357.5039098,E,4,24,1.0,532.105,M,-40.962,M,1.4,*69
$GPGSA,A,3,07,08,09,16,23,26,27,,,,,,3.3,1.6,2.8,1*23
$GAGSA,A,3,02,03,08,24,25,36,,,,,,,2.9,1.1,2.7,3*3F
$GPGSV,2,1,07,07,24,311,45,08,59,182,48,09,45,296,48,16,46,032,44,1*6D
$GPGSV,2,2,07,23,61,241,46,26,23,054,41,27,71,092,48,,,,,1*55
$GAGSV,2,1,06,02,41,302,42,03,43,231,43,08,30,297,41,24,16,071,00,7*70
$GAGSV,2,2,06,25,53,027,43,36,27,152,00,,,,,,,,,7*70
$GPRMC,060913.60,A,3046.9743602,N,10357.5039097,E,0.07,86.25,260319,0.0,E,D*07
$GPGGA,060913.60,3046.9743602,N,10357.5039097,E,4,24,1.0,532.105,M,-40.962,M,1.6,*65
$GPGSA,A,3,07,08,09,16,23,26,27,,,,,,3.3,1.6,2.8,1*23
$GAGSA,A,3,02,03,08,24,25,36,,,,,,,2.9,1.1,2.7,3*3F
$GPGSV,2,1,07,07,24,311,45,08,59,182,48,09,45,296,48,16,46,032,44,1*6D
$GPGSV,2,2,07,23,61,241,46,26,23,054,41,27,71,092,48,,,,,1*55
$GAGSV,2,1,06,02,41,302,42,03,43,231,43,08,30,297,41,24,16,071,00,7*70
$GAGSV,2,2,06,25,53,027,43,36,27,152,00,,,,,,,,,7*70
$GPRMC,060913.80,A,3046.9743591,N,10357.5039107,E,0.12,86.25,260319,0.0,E,D*0C
$GPGGA,060913.80,3046.9743591,N,10357.5039107,E,4,24,1.0,532.103,M,-40.962,M,1.8,*62
$GPGSA,A,3,07,08,09,16,23,26,27,,,,,,3.3,1.6,2.8,1*23
$GAGSA,A,3,02,03,08,24,25,36,,,,,,,2.9,1.1,2.7,3*3F
$GPGSV,2,1,07,07,24,311,45,08,59,182,48,09,45,296,48,16,46,032,44,1*6D
$GPGSV,2,2,07,23,61,241,46,26,23,054,41,27,71,092,48,,,,,1*55
$GAGSV,2,1,06,02,41,302,42,03,43,231,43,08,30,297,41,24,16,071,00,7*70
$GAGSV,2,2,06,25,53,027,43,36,27,152,00,,,,,,,,,7*70
$GPRMC,060914.00,A,3046.9743591,N,10357.5039098,E,0.04,86.25,260319,0.0,E,D*03
$GPGGA,060914.00,3046.9743591,N,10357.5039098,E,4,24,1.0,532.103,M,-40.962,M,2.0,*61
$GPGSA,A,3,07,08,09,16,23,26,27,,,,,,3.3,1.6,2.8,1*23
$GAGSA,A,3,02,03,08,24,25,36,,,,,,,2.9,1.1,2.7,3*3F
$GPGSV,2,1,07,07,24,311,45,08,59,182,48,09,45,296,48,16,46,032,44,1*6D
$GPGSV,2,2,07,23,61,241,46,26,23,054,41,27,71,092,48,,,,,1*55
$GAGSV,2,1,06,02,41,302,42,03,43,231,43,08,30,297,41,24,16,071,00,7*70
$GAGSV,2,2,06,25,53,027,43,36,27,152,00,,,,,,,,,7*70
$GPRMC,060914.20,A,3046.9743592,N,10357.5039102,E,0.03,86.25,260319,0.0,E,D*07
$GPGGA,060914.20,3046.9743592,N,10357.5039102,E,4,24,1.0,532.103,M,-40.962,M,2.2,*60
$GPGSA,A,3,07,08,09,16,23,26,27,,,,,,3.3,1.6,2.8,1*23
$GAGSA,A,3,02,03,08,24,25,36,,,,,,,2.9,1.1,2.7,3*3F
$GPGSV,2,1,07,07,24,311,45,08,59,182,48,09,45,296,48,16,46,032,44,1*6D
$GPGSV,2,2,07,23,61,241,46,26,23,054,41,27,71,092,48,,,,,1*55
$GAGSV,2,1,06,02,41,302,42,03,43,231,43,08,30,297,41,24,16,071,00,7*70
$GAGSV,2,2,06,25,53,027,43,36,27,152,00,,,,,,,,,7*70
$GPRMC,060914.40,A,3046.9743590,N,10357.5039093,E,0.02,86.25,260319,0.0,E,D*0B
$GPGGA,060914.40,3046.9743590,N,10357.5039093,E,4,24,1.0,532.103,M,-40.962,M,2.4,*6B
$GPGSA,A,3,07,08,09,16,23,26,27,,,,,,3.3,1.6,2.8,1*23
$GAGSA,A,3,02,03,08,24,25,36,,,,,,,2.9,1.1,2.7,3*3F
$GPGSV,2,1,07,07,24,311,45,08,59,182,48,09,45,296,48,16,46,032,44,1*6D
$GPGSV,2,2,07,23,61,241,46,26,23,054,41,27,71,092,48,,,,,1*55
$GAGSV,2,1,06,02,41,302,42,03,43,231,43,08,30,297,41,24,16,071,00,7*70
$GAGSV,2,2,06,25,53,027,43,36,27,152,00,,,,,,,,,7*70
$GPRMC,060914.60,A,3046.9743585,N,10357.5039105,E,0.12,86.25,260319,0.0,E,D*02
$GPGGA,060914.60,3046.9743585,N,10357.5039105,E,4,24,1.0,532.101,M,-40.962,M,2.6,*63
$GPGSA,A,3,07,08,09,16,23,26,27,,,,,,3.3,1.6,2.8,1*23
$GAGSA,A,3,02,03,08,24,25,36,,,,,,,2.9,1.1,2.7,3*3F
$GPGSV,2,1,07,07,24,311,45,08,59,182,48,09,45,296,48,16,46,032,44,1*6D
$GPGSV,2,2,07,23,61,241,46,26,23,054,41,27,71,092,48,,,,,1*55
$GAGSV,2,1,06,02,41,302,42,03,43,231,43,08,30,297,41,24,16,071,00,7*70
$GAGSV,2,2,06,25,53,027,43,36,27,152,00,,,,,,,,,7*70
$GPRMC,060914.80,A,3046.9743587,N,10357.5039100,E,0.05,86.25,260319,0.0,E,D*0D
$GPGGA,060914.80,3046.9743587,N,10357.5039100,E,4,24,1.0,532.100,M,-40.962,M,2.8,*65
$GPGSA,A,3,07,08,09,16,23,26,27,,,,,,3.3,1.6,2.8,1*23
$GAGSA,A,3,02,03,08,24,25,36,,,,,,,2.9,1.1,2.7,3*3F
$GPGSV,2,1,07,07,24,311,45,08,59,182,48,09,45,296,48,16,46,032,44,1*6D
$GPGSV,2,2,07,23,61,241,46,26,23,054,40,27,71,092,48,,,,,1*54
$GAGSV,2,1,06,02,41,302,42,03,43,231,43,08,30,297,41,24,16,071,00,7*70
$GAGSV,2,2,06,25,53,027,43,36,27,152,00,,,,,,,,,7*70
$GPRMC,060915.00,A,3046.9743586,N,10357.5039096,E,0.05,86.25,260319,0.0,E,D*0B
$GPGGA,060915.00,3046.9743586,N,10357.5039096,E,4,24,1.0,532.100,M,-40.962,M,3.0,*6A
$GPGSA,A,3,07,08,09,16,23,26,27,,,,,,3.3,1.6,2.8,1*23
$GAGSA,A,3,02,03,08,24,25,36,,,,,,,2.9,1.1,2.7,3*3F
$GPGSV,2,1,07,07,24,311,44,08,59,182,48,09,45,296,48,16,46,032,44,1*6C
$GPGSV,2,2,07,23,61,240,46,26,23,054,40,27,71,092,48,,,,,1*55
$GAGSV,2,1,06,02,41,302,42,03,43,231,43,08,30,297,41,24,16,071,00,7*70
$GAGSV,2,2,06,25,53,027,43,36,27,152,00,,,,,,,,,7*70
$GPRMC,060915.20,A,3046.9743589,N,10357.5039101,E,0.08,86.25,260319,0.0,E,D*04
$GPGGA,060915.20,3046.9743589,N,10357.5039101,E,4,24,1.0,532.099,M,-40.962,M,1.2,*69
$GPGSA,A,3,07,08,09,16,23,26,27,,,,,,3.3,1.6,2.8,1*23
$GAGSA,A,3,02,03,08,24,25,36,,,,,,,2.9,1.1,2.7,3*3F
$GPGSV,2,1,07,07,24,311,44,08,59,182,48,09,45,296,48,16,46,032,44,1*6C
$GPGSV,2,2,07,23,61,240,46,26,23,054,40,27,71,092,48,,,,,1*55
$GAGSV,2,1,06,02,41,302,42,03,43,231,43,08,30,297,41,24,16,071,00,7*70
$GAGSV,2,2,06,25,53,027,43,36,27,152,00,,,,,,,,,7*70
$GPRMC,060915.40,A,3046.9743589,N,10357.5039101,E,0.06,86.25,260319,0.0,E,D*0C
$GPGGA,060915.40,3046.9743589,N,10357.5039101,E,4,24,1.0,532.100,M,-40.962,M,1.4,*68
$GPGSA,A,3,07,08,09,16,23,26,27,,,,,,3.3,1.6,2.8,1*23
$GAGSA,A,3,02,03,08,24,25,36,,,,,,,2.9,1.1,2.7,3*3F
$GPGSV,2,1,07,07,24,311,44,08,59,182,48,09,45,296,48,16,46,032,44,1*6C
$GPGSV,2,2,07,23,61,240,46,26,23,054,41,27,71,092,48,,,,,1*54
$GAGSV,2,1,06,02,41,302,42,03,43,231,43,08,30,297,41,24,16,071,00,7*70
$GAGSV,2,2,06,25,53,027,43,36,27,152,00,,,,,,,,,7*70
$GPRMC,060915.60,A,3046.9743585,N,10357.5039102,E,0.05,86.25,260319,0.0,E,D*02
$GPGGA,060915.60,3046.9743585,N,10357.5039102,E,4,24,1.0,532.099,M,-40.962,M,1.6,*66
$GPGSA,A,3,07,08,09,16,23,26,27,,,,,,3.3,1.6,2.8,1*23
$GAGSA,A,3,02,03,08,24,25,36,,,,,,,2.9,1.1,2.7,3*3F
$GPGSV,2,1,07,07,24,311,44,08,59,182,48,09,45,296,48,16,46,032,44,1*6C
$GPGSV,2,2,07,23,61,240,46,26,23,054,41,27,71,092,48,,,,,1*54
$GAGSV,2,1,06,02,41,302,42,03,43,231,43,08,30,297,41,24,16,071,00,7*70
$GAGSV,2,2,06,25,53,027,43,36,27,152,00,,,,,,,,,7*70
$GPRMC,060915.80,A,3046.9743586,N,10357.5039105,E,0.12,86.25,260319,0.0,E,D*0E
$GPGGA,060915.80,3046.9743586,N,10357.5039105,E,4,24,1.0,532.096,M,-40.962,M,1.8,*6D
$GPGSA,A,3,07,08,09,16,23,26,27,,,,,,3.3,1.6,2.8,1*23
$GAGSA,A,3,02,03,08,24,25,36,,,,,,,2.9,1.1,2.7,3*3F
$GPGSV,2,1,07,07,24,311,44,08,59,182,48,09,45,296,48,16,46,032,44,1*6C
$GPGSV,2,2,07,23,61,240,46,26,23,054,41,27,71,092,48,,,,,1*54
$GAGSV,2,1,06,02,41,302,42,03,43,231,43,08,30,297,41,24,16,071,00,7*70
$GAGSV,2,2,06,25,53,027,43,36,27,152,00,,,,,,,,,7*70
$GPRMC,060916.00,A,3046.9743587,N,10357.5039101,E,0.03,86.25,260319,0.0,E,D*00
$GPGGA,060916.00,3046.9743587,N,10357.5039101,E,4,24,1.0,532.098,M,-40.962,M,2.0,*66
$GPGSA,A,3,07,08,09,16,23,26,27,,,,,,3.3,1.6,2.8,1*23
$GAGSA,A,3,02,03,08,24,25,36,,,,,,,2.9,1.1,2.7,3*3F
$GPGSV,2,1,07,07,24,311,44,08,59,182,48,09,45,296,48,16,46,032,44,1*6C
$GPGSV,2,2,07,23,61,240,46,26,23,054,41,27,71,092,48,,,,,1*54
$GAGSV,2,1,06,02,41,302,42,03,43,231,43,08,30,297,41,24,16,071,00,7*70
$GAGSV,2,2,06,25,53,027,43,36,27,152,00,,,,,,,,,7*70
$GPRMC,060916.20,A,3046.9743590,N,10357.5039103,E,0.04,86.25,260319,0.0,E,D*01
$GPGGA,060916.20,3046.9743590,N,10357.5039103,E,4,24,1.0,532.098,M,-40.962,M,2.2,*62
$GPGSA,A,3,07,08,09,16,23,26,27,,,,,,3.3,1.6,2.8,1*23
$GAGSA,A,3,02,03,08,24,25,36,,,,,,,2.9,1.1,2.7,3*3F
$GPGSV,2,1,07,07,24,311,44,08,59,182,48,09,45,296,48,16,46,032,44,1*6C
$GPGSV,2,2,07,23,61,240,46,26,23,054,41,27,71,092,48,,,,,1*54
$GAGSV,2,1,06,02,41,302,42,03,43,231,43,08,30,297,41,24,16,071,00,7*70
$GAGSV,2,2,06,25,53,027,43,36,27,152,00,,,,,,,,,7*70
$GPRMC,060916.40,A,3046.9743584,N,10357.5039100,E,0.01,86.25,260319,0.0,E,D*04
$GPGGA,060916.40,3046.9743584,N,10357.5039100,E,4,24,1.0,532.099,M,-40.962,M,2.4,*65
$GPGSA,A,3,07,08,09,16,23,26,27,,,,,,3.3,1.6,2.8,1*23
$GAGSA,A,3,02,03,08,24,25,36,,,,,,,2.9,1.1,2.7,3*3F
$GPGSV,2,1,07,07,24,311,44,08,59,182,48,09,45,296,48,16,46,032,44,1*6C
$GPGSV,2,2,07,23,61,240,46,26,23,054,41,27,71,092,48,,,,,1*54
$GAGSV,2,1,06,02,41,302,42,03,43,231,43,08,30,297,41,24,16,071,00,7*70
$GAGSV,2,2,06,25,53,027,43,36,27,152,00,,,,,,,,,7*70
$GPRMC,060916.60,A,3046.9743581,N,10357.5039107,E,0.04,86.25,260319,0.0,E,D*01
$GPGGA,060916.60,3046.9743581,N,10357.5039107,E,4,24,1.0,532.096,M,-40.962,M,2.6,*68
$GPGSA,A,3,07,08,09,16,23,26,27,,,,,,3.3,1.6,2.8,1*23
$GAGSA,A,3,02,03,08,24,25,36,,,,,,,2.9,1.1,2.7,3*3F
$GPGSV,2,1,07,07,24,311,44,08,59,182,48,09,45,296,48,16,46,032,44,1*6C
$GPGSV,2,2,07,23,61,240,46,26,23,054,41,27,71,092,48,,,,,1*54
$GAGSV,2,1,06,02,41,302,42,03,43,231,43,08,30,297,41,24,16,071,00,7*70
$GAGSV,2,2,06,25,53,027,43,36,27,152,00,,,,,,,,,7*70
$GPRMC,060916.80,A,3046.9743580,N,10357.5039109,E,0.04,86.25,260319,0.0,E,D*00
$GPGGA,060916.80,3046.9743580,N,10357.5039109,E,4,24,1.0,532.095,M,-40.962,M,2.8,*64
$GPGSA,A,3,07,08,09,16,23,26,27,,,,,,3.3,1.6,2.8,1*23
$GAGSA,A,3,02,03,08,24,25,36,,,,,,,2.9,1.1,2.7,3*3F
$GPGSV,2,1,07,07,24,311,44,08,59,182,48,09,45,296,48,16,46,032,44,1*6C
$GPGSV,2,2,07,23,61,240,46,26,23,054,41,27,71,092,48,,,,,1*54
$GAGSV,2,1,06,02,41,302,42,03,43,231,43,08,30,297,41,24,16,071,00,7*70
$GAGSV,2,2,06,25,53,027,43,36,27,152,00,,,,,,,,,7*70
$GPRMC,060917.00,A,3046.9743568,N,10357.5039106,E,0.07,86.25,260319,0.0,E,D*03
$GPGGA,060917.00,3046.9743568,N,10357.5039106,E,4,24,1.0,532.093,M,-40.962,M,3.0,*6B
$GPGSA,A,3,07,08,09,16,23,26,27,,,,,,3.3,1.6,2.8,1*23
$GAGSA,A,3,02,03,08,24,25,36,,,,,,,2.9,1.1,2.7,3*3F
$GPGSV,2,1,07,07,24,311,44,08,59,182,48,09,45,296,48,16,46,032,44,1*6C
$GPGSV,2,2,07,23,61,240,46,26,23,054,41,27,71,092,48,,,,,1*54
$GAGSV,2,1,06,02,41,302,42,03,43,231,43,08,30,297,41,24,16,071,00,7*70
$GAGSV,2,2,06,25,53,027,43,36,27,152,00,,,,,,,,,7*70
$GPRMC,060917.20,A,3046.9743595,N,10357.5039111,E,0.07,86.25,260319,0.0,E,D*05
$GPGGA,060917.20,3046.9743595,N,10357.5039111,E,4,24,1.0,532.099,M,-40.962,M,1.2,*67
$GPGSA,A,3,07,08,09,16,23,26,27,,,,,,3.3,1.6,2.8,1*23
$GAGSA,A,3,02,03,08,24,25,36,,,,,,,2.9,1.1,2.7,3*3F
$GPGSV,2,1,07,07,24,311,44,08,59,182,48,09,45,296,48,16,46,032,44,1*6C
$GPGSV,2,2,07,23,61,240,46,26,23,054,40,27,71,092,48,,,,,1*55
$GAGSV,2,1,06,02,41,302,42,03,43,231,43,08,30,297,41,24,16,071,00,7*70
$GAGSV,2,2,06,25,53,027,43,36,27,152,00,,,,,,,,,7*70
$GPRMC,060917.40,A,3046.9743587,N,10357.5039103,E,0.04,86.25,260319,0.0,E,D*00
$GPGGA,060917.40,3046.9743587,N,10357.5039103,E,4,24,1.0,532.101,M,-40.962,M,1.4,*67
$GPGSA,A,3,07,08,09,16,23,26,27,,,,,,3.3,1.6,2.8,1*23
$GAGSA,A,3,02,03,08,24,25,36,,,,,,,2.9,1.1,2.7,3*3F
$GPGSV,2,1,07,07,24,311,44,08,59,182,48,09,45,296,48,16,46,032,44,1*6C
$GPGSV,2,2,07,23,61,240,46,26,23,054,40,27,71,092,48,,,,,1*55
$GAGSV,2,1,06,02,41,302,42,03,43,231,43,08,30,297,41,24,16,071,00,7*70
$GAGSV,2,2,06,25,53,027,43,36,27,152,00,,,,,,,,,7*70
$GPRMC,060917.60,A,3046.9743586,N,10357.5039104,E,0.04,86.25,260319,0.0,E,D*04
$GPGGA,060917.60,3046.9743586,N,10357.5039104,E,4,24,1.0,532.102,M,-40.962,M,1.6,*62
$GPGSA,A,3,07,08,09,16,23,26,27,,,,,,3.3,1.6,2.8,1*23
$GAGSA,A,3,02,03,08,24,25,36,,,,,,,2.9,1.1,2.7,3*3F
$GPGSV,2,1,07,07,24,311,44,08,59,182,48,09,45,296,48,16,46,032,44,1*6C
$GPGSV,2,2,07,23,61,240,46,26,23,054,40,27,71,092,48,,,,,1*55
$GAGSV,2,1,06,02,41,302,42,03,43,231,43,08,30,297,41,24,16,071,00,7*70
$GAGSV,2,2,06,25,53,027,43,36,27,152,00,,,,,,,,,7*70
$GPRMC,060917.80,A,3046.9743591,N,10357.5039106,E,0.04,86.25,260319,0.0,E,D*0E
$GPGGA,060917.80,3046.9743591,N,10357.5039106,E,4,24,1.0,532.102,M,-40.962,M,1.8,*66
$GPGSA,A,3,07,08,09,16,23,26,27,,,,,,3.3,1.6,2.8,1*23
$GAGSA,A,3,02,03,08,24,25,36,,,,,,,2.9,1.1,2.7,3*3F
$GPGSV,2,1,07,07,24,311,44,08,59,182,48,09,45,296,48,16,46,032,44,1*6C
$GPGSV,2,2,07,23,61,240,46,26,23,054,40,27,71,092,48,,,,,1*55
$GAGSV,2,1,06,02,41,302,42,03,43,231,43,08,30,297,41,24,16,071,00,7*70
$GAGSV,2,2,06,25,53,027,43,36,27,152,00,,,,,,,,,7*70
$GPRMC,060918.00,A,3046.9743590,N,10357.5039102,E,0.06,86.25,260319,0.0,E,D*0E
$GPGGA,060918.00,3046.9743590,N,10357.5039102,E,4,24,1.0,532.099,M,-40.962,M,2.0,*6C
$GPGSA,A,3,07,08,09,16,23,26,27,,,,,,3.3,1.6,2.8,1*23
$GAGSA,A,3,02,03,08,24,25,36,,,,,,,2.9,1.1,2.7,3*3F
$GPGSV,2,1,07,07,24,311,44,08,59,182,48,09,45,296,48,16,46,032,44,1*6C
$GPGSV,2,2,07,23,61,240,46,26,23,055,40,27,71,092,48,,,,,1*54
$GAGSV,2,1,06,02,41,302,42,03,43,231,43,08,30,297,41,24,16,071,00,7*70
$GAGSV,2,2,06,25,53,027,43,36,27,152,00,,,,,,,,,7*70
$GPRMC,060918.20,A,3046.9743588,N,10357.5039100,E,0.02,86.25,260319,0.0,E,D*03
$GPGGA,060918.20,3046.9743588,N,10357.5039100,E,4,24,1.0,532.100,M,-40.962,M,2.2,*66
$GPGSA,A,3,07,08,09,16,23,26,27,,,,,,3.3,1.6,2.8,1*23
$GAGSA,A,3,02,03,08,24,25,36,,,,,,,2.9,1.1,2.7,3*3F
$GPGSV,2,1,07,07,24,311,44,08,59,182,48,09,45,296,48,16,46,032,44,1*6C
$GPGSV,2,2,07,23,61,240,46,26,23,055,40,27,71,092,48,,,,,1*54
$GAGSV,2,1,06,02,41,302,42,03,43,231,43,08,30,297,41,24,16,071,00,7*70
$GAGSV,2,2,06,25,53,027,43,36,27,152,00,,,,,,,,,7*70
$GPRMC,060918.40,A,3046.9743593,N,10357.5039095,E,0.08,86.25,260319,0.0,E,D*08
$GPGGA,060918.40,3046.9743593,N,10357.5039095,E,4,24,1.0,532.101,M,-40.962,M,2.4,*60
$GPGSA,A,3,07,08,09,16,23,26,27,,,,,,3.3,1.6,2.8,1*23
$GAGSA,A,3,02,03,08,24,25,36,,,,,,,2.9,1.1,2.7,3*3F
$GPGSV,2,1,07,07,24,311,44,08,59,182,48,09,45,296,48,16,46,032,44,1*6C
$GPGSV,2,2,07,23,61,240,46,26,23,055,40,27,71,092,48,,,,,1*54
$GAGSV,2,1,06,02,41,302,42,03,43,231,43,08,30,297,41,24,16,071,00,7*70
$GAGSV,2,2,06,25,53,027,43,36,27,152,00,,,,,,,,,7*70
$GPRMC,060918.60,A,3046.9743595,N,10357.5039095,E,0.03,86.25,260319,0.0,E,D*07
$GPGGA,060918.60,3046.9743595,N,10357.5039095,E,4,24,1.0,532.101,M,-40.962,M,2.6,*66
$GPGSA,A,3,07,08,09,16,23,26,27,,,,,,3.3,1.6,2.8,1*23
$GAGSA,A,3,02,03,08,24,25,36,,,,,,,2.9,1.1,2.7,3*3F
$GPGSV,2,1,07,07,24,311,44,08,59,182,48,09,45,296,48,16,46,032,44,1*6C
$GPGSV,2,2,07,23,61,240,46,26,23,055,40,27,71,092,48,,,,,1*54
$GAGSV,2,1,06,02,41,302,42,03,43,231,43,08,30,297,41,24,16,071,00,7*70
$GAGSV,2,2,06,25,53,027,43,36,27,152,00,,,,,,,,,7*70
$GPRMC,060918.80,A,3046.9743595,N,10357.5039095,E,0.03,86.25,260319,0.0,E,D*09
$GPGGA,060918.80,3046.9743595,N,10357.5039095,E,4,24,1.0,532.099,M,-40.962,M,2.8,*66
$GPGSA,A,3,07,08,09,16,23,26,27,,,,,,3.3,1.6,2.8,1*23
$GAGSA,A,3,02,03,08,24,25,36,,,,,,,2.9,1.1,2.7,3*3F
$GPGSV,2,1,07,07,24,311,44,08,59,182,48,09,45,296,48,16,46,032,44,1*6C
$GPGSV,2,2,07,23,61,240,46,26,23,055,40,27,71,092,48,,,,,1*54
$GAGSV,2,1,06,02,41,302,42,03,43,231,43,08,30,297,41,24,16,071,00,7*70
$GAGSV,2,2,06,25,53,027,43,36,27,152,00,,,,,,,,,7*70
$GPRMC,060919.00,A,3046.9743594,N,10357.5039091,E,0.14,86.25,260319,0.0,E,D*03
$GPGGA,060919.00,3046.9743594,N,10357.5039091,E,4,24,1.0,532.098,M,-40.962,M,3.0,*62
$GPGSA,A,3,07,08,09,16,23,26,27,,,,,,3.3,1.6,2.8,1*23
$GAGSA,A,3,02,03,08,24,25,36,,,,,,,2.9,1.1,2.7,3*3F
$GPGSV,2,1,07,07,24,311,44,08,59,182,48,09,45,296,48,16,46,032,44,1*6C
$GPGSV,2,2,07,23,61,240,46,26,23,055,40,27,71,092,48,,,,,1*54
$GAGSV,2,1,06,02,41,302,43,03,43,231,43,08,30,297,40,24,16,071,00,7*70
$GAGSV,2,2,06,25,53,027,43,36,27,152,00,,,,,,,,,7*70
$GPRMC,060919.20,A,3046.9743591,N,10357.5039100,E,0.02,86.25,260319,0.0,E,D*0A
$GPGGA,060919.20,3046.9743591,N,10357.5039100,E,4,24,1.0,532.097,M,-40.962,M,1.2,*63
$GPGSA,A,3,07,08,09,16,23,26,27,,,,,,3.3,1.6,2.8,1*23
$GAGSA,A,3,02,03,08,24,25,36,,,,,,,2.9,1.1,2.7,3*3F
$GPGSV,2,1,07,07,24,311,44,08,59,182,48,09,45,296,48,16,46,032,44,1*6C
$GPGSV,2,2,07,23,61,240,46,26,23,055,40,27,71,092,48,,,,,1*54
$GAGSV,2,1,06,02,41,302,42,03,43,231,43,08,30,297,40,24,16,071,00,7*71
$GAGSV,2,2,06,25,53,027,43,36,27,152,00,,,,,,,,,7*70
$GPRMC,060919.40,A,3046.9743596,N,10357.5039106,E,0.04,86.25,260319,0.0,E,D*0B
$GPGGA,060919.40,3046.9743596,N,10357.5039106,E,4,24,1.0,532.097,M,-40.962,M,1.4,*62
$GPGSA,A,3,07,08,09,16,23,26,27,,,,,,3.3,1.6,2.8,1*23
$GAGSA,A,3,02,03,08,24,25,36,,,,,,,2.9,1.1,2.7,3*3F
$GPGSV,2,1,07,07,24,311,44,08,59,182,48,09,45,296,48,16,46,032,44,1*6C
$GPGSV,2,2,07,23,61,240,46,26,23,055,40,27,71,092,48,,,,,1*54
$GAGSV,2,1,06,02,41,302,42,03,43,231,43,08,30,297,40,24,16,071,00,7*71
$GAGSV,2,2,06,25,53,027,43,36,27,152,00,,,,,,,,,7*70
$GPRMC,060919.60,A,3046.9743589,N,10357.5039108,E,0.09,86.25,260319,0.0,E,D*04
$GPGGA,060919.60,3046.9743589,N,10357.5039108,E,4,24,1.0,532.097,M,-40.962,M,1.6,*62
$GPGSA,A,3,07,08,09,16,23,26,27,,,,,,3.3,1.6,2.8,1*23
$GAGSA,A,3,02,03,08,24,25,36,,,,,,,2.9,1.1,2.7,3*3F
$GPGSV,2,1,07,07,24,311,44,08,59,182,48,09,45,296,48,16,46,032,44,1*6C
$GPGSV,2,2,07,23,61,240,46,26,23,055,40,27,71,092,48,,,,,1*54
$GAGSV,2,1,06,02,41,302,42,03,43,231,43,08,30,297,40,24,16,071,00,7*71
$GAGSV,2,2,06,25,53,027,43,36,27,152,00,,,,,,,,,7*70
$GPRMC,060919.80,A,3046.9743594,N,10357.5039111,E,0.02,86.25,260319,0.0,E,D*05
$GPGGA,060919.80,3046.9743594,N,10357.5039111,E,4,24,1.0,532.095,M,-40.962,M,1.8,*64
$GPGSA,A,3,07,08,09,16,23,26,27,,,,,,3.3,1.6,2.8,1*23
$GAGSA,A,3,02,03,08,24,25,36,,,,,,,2.9,1.1,2.7,3*3F
$GPGSV,2,1,07,07,24,311,44,08,59,182,48,09,45,296,48,16,46,032,44,1*6C
$GPGSV,2,2,07,23,61,240,46,26,23,055,40,27,71,092,48,,,,,1*54
$GAGSV,2,1,06,02,41,302,42,03,43,231,43,08,30,297,40,24,16,071,00,7*71
$GAGSV,2,2,06,25,53,027,43,36,27,152,00,,,,,,,,,7*70
$GPRMC,060920.00,A,3046.9743594,N,10357.5039107,E,0.07,86.25,260319,0.0,E,D*05
$GPGGA,060920.00,3046.9743594,N,10357.5039107,E,4,24,1.0,532.097,M,-40.962,M,2.0,*68
$GPGSA,A,3,07,08,09,16,23,26,27,,,,,,3.3,1.6,2.8,1*23
$GAGSA,A,3,02,03,08,24,25,36,,,,,,,2.9,1.1,2.7,3*3F
$GPGSV,2,1,07,07,24,311,44,08,59,182,48,09,45,296,48,16,46,032,44,1*6C
$GPGSV,2,2,07,23,61,240,46,26,23,055,40,27,71,092,48,,,,,1*54
$GAGSV,2,1,06,02,41,302,42,03,43,231,43,08,30,297,40,24,16,071,00,7*71
$GAGSV,2,2,06,25,53,027,43,36,27,152,00,,,,,,,,,7*70
$GPRMC,060920.20,A,3046.9743588,N,10357.5039110,E,0.01,86.25,260319,0.0,E,D*0A
$GPGGA,060920.20,3046.9743588,N,10357.5039110,E,4,24,1.0,532.097,M,-40.962,M,2.2,*63
$GPGSA,A,3,07,08,09,16,23,26,27,,,,,,3.3,1.6,2.8,1*23
$GAGSA,A,3,02,03,08,24,25,36,,,,,,,2.9,1.1,2.7,3*3F
$GPGSV,2,1,07,07,24,311,44,08,59,182,48,09,45,296,48,16,46,032,44,1*6C
$GPGSV,2,2,07,23,61,240,46,26,23,055,40,27,71,092,48,,,,,1*54
$GAGSV,2,1,06,02,41,302,42,03,43,231,43,08,30,297,40,24,16,071,00,7*71
$GAGSV,2,2,06,25,53,027,43,36,27,152,00,,,,,,,,,7*70
$GPRMC,060920.40,A,3046.9743592,N,10357.5039102,E,0.03,86.25,260319,0.0,E,D*06
$GPGGA,060920.40,3046.9743592,N,10357.5039102,E,4,24,1.0,532.096,M,-40.962,M,2.4,*6A
$GPGSA,A,3,07,08,09,16,23,26,27,,,,,,3.3,1.6,2.8,1*23
$GAGSA,A,3,02,03,08,24,25,36,,,,,,,2.9,1.1,2.7,3*3F
$GPGSV,2,1,07,07,24,311,44,08,59,182,48,09,45,296,48,16,46,032,44,1*6C
$GPGSV,2,2,07,23,61,240,46,26,23,055,40,27,71,092,48,,,,,1*54
$GAGSV,2,1,06,02,41,302,42,03,43,231,43,08,30,297,40,24,16,071,00,7*71
$GAGSV,2,2,06,25,53,027,43,36,27,152,00,,,,,,,,,7*70
$GPRMC,060920.60,A,3046.9743589,N,10357.5039110,E,0.03,86.25,260319,0.0,E,D*0D
$GPGGA,060920.60,3046.9743589,N,10357.5039110,E,4,24,1.0,532.093,M,-40.962,M,2.6,*66
$GPGSA,A,3,07,08,09,16,23,26,27,,,,,,3.3,1.6,2.8,1*23
$GAGSA,A,3,02,03,08,24,25,36,,,,,,,2.9,1.1,2.7,3*3F
$GPGSV,2,1,07,07,24,311,44,08,59,182,48,09,45,296,48,16,46,032,44,1*6C
$GPGSV,2,2,07,23,61,240,46,26,23,055,40,27,71,092,48,,,,,1*54
$GAGSV,2,1,06,02,41,302,42,03,43,231,43,08,30,297,40,24,16,071,00,7*71
$GAGSV,2,2,06,25,53,027,43,36,27,152,00,,,,,,,,,7*70
$GPRMC,060920.80,A,3046.9743584,N,10357.5039105,E,0.02,86.25,260319,0.0,E,D*0B
$GPGGA,060920.80,3046.9743584,N,10357.5039105,E,4,24,1.0,532.092,M,-40.962,M,2.8,*6E
$GPGSA,A,3,07,08,09,16,23,26,27,,,,,,3.3,1.6,2.8,1*23
$GAGSA,A,3,02,03,08,24,25,36,,,,,,,2.9,1.1,2.7,3*3F
$GPGSV,2,1,07,07,24,311,44,08,59,182,48,09,45,296,48,16,46,032,44,1*6C
$GPGSV,2,2,07,23,61,240,46,26,23,055,40,27,71,092,47,,,,,1*5B
$GAGSV,2,1,06,02,41,302,42,03,43,231,43,08,30,297,40,24,16,071,00,7*71
$GAGSV,2,2,06,25,53,027,43,36,27,152,00,,,,,,,,,7*70
$GPRMC,060921.00,A,3046.9743589,N,10357.5039107,E,0.03,86.25,260319,0.0,E,D*0C
$GPGGA,060921.00,3046.9743589,N,10357.5039107,E,4,24,1.0,532.091,M,-40.962,M,3.0,*62
$GPGSA,A,3,07,08,09,16,23,26,27,,,,,,3.3,1.6,2.8,1*23
$GAGSA,A,3,02,03,08,24,25,36,,,,,,,2.9,1.1,2.7,3*3F
$GPGSV,2,1,07,07,24,311,44,08,59,182,48,09,45,296,48,16,46,032,44,1*6C
$GPGSV,2,2,07,23,61,240,46,26,23,055,40,27,71,092,47,,,,,1*5B
$GAGSV,2,1,06,02,41,302,42,03,43,231,43,08,30,297,40,24,16,071,00,7*71
$GAGSV,2,2,06,25,53,027,43,36,27,152,00,,,,,,,,,7*70
$GPRMC,060921.20,A,3046.9743596,N,10357.5039118,E,0.06,86.25,260319,0.0,E,D*0B
$GPGGA,060921.20,3046.9743596,N,10357.5039118,E,4,24,1.0,532.097,M,-40.962,M,1.2,*66
$GPGSA,A,3,07,08,09,16,23,26,27,,,,,,3.3,1.6,2.8,1*23
$GAGSA,A,3,02,03,08,24,25,36,,,,,,,2.9,1.1,2.7,3*3F
$GPGSV,2,1,07,07,24,311,44,08,59,182,48,09,45,296,48,16,46,032,44,1*6C
$GPGSV,2,2,07,23,61,240,46,26,23,055,40,27,71,092,47,,,,,1*5B
$GAGSV,2,1,06,02,41,302,42,03,43,231,43,08,30,297,40,24,16,071,00,7*71
$GAGSV,2,2,06,25,53,027,43,36,27,152,00,,,,,,,,,7*70
$GPRMC,060921.40,A,3046.9743591,N,10357.5039118,E,0.03,86.25,260319,0.0,E,D*0F
$GPGGA,060921.40,3046.9743591,N,10357.5039118,E,4,24,1.0,532.097,M,-40.962,M,1.4,*61
$GPGSA,A,3,07,08,09,16,23,26,27,,,,,,3.3,1.6,2.8,1*23
$GAGSA,A,3,02,03,08,24,25,36,,,,,,,2.9,1.1,2.7,3*3F
$GPGSV,2,1,07,07,24,311,44,08,59,182,48,09,45,296,48,16,46,032,44,1*6C
$GPGSV,2,2,07,23,61,240,46,26,23,055,40,27,71,092,47,,,,,1*5B
$GAGSV,2,1,06,02,41,302,42,03,43,231,43,08,30,297,40,24,16,071,00,7*71
$GAGSV,2,2,06,25,53,027,43,36,27,152,00,,,,,,,,,7*70
$GPRMC,060921.60,A,3046.9743587,N,10357.5039114,E,0.04,86.25,260319,0.0,E,D*01
$GPGGA,060921.60,3046.9743587,N,10357.5039114,E,4,24,1.0,532.096,M,-40.962,M,1.6,*6B
$GPGSA,A,3,07,08,09,16,23,26,27,,,,,,3.3,1.6,2.8,1*23
$GAGSA,A,3,02,03,08,24,25,36,,,,,,,2.9,1.1,2.7,3*3F
$GPGSV,2,1,07,07,24,311,44,08,59,182,48,09,45,296,48,16,46,032,44,1*6C
$GPGSV,2,2,07,23,61,240,46,26,23,055,40,27,71,092,47,,,,,1*5B
$GAGSV,2,1,06,02,41,302,42,03,43,231,43,08,30,297,40,24,16,071,00,7*71
$GAGSV,2,2,06,25,53,027,43,36,27,152,00,,,,,,,,,7*70
$GPRMC,060921.80,A,3046.9743590,N,10357.5039121,E,0.10,86.25,260319,0.0,E,D*0A
$GPGGA,060921.80,3046.9743590,N,10357.5039121,E,4,24,1.0,532.093,M,-40.962,M,1.8,*6E
$GPGSA,A,3,07,08,09,16,23,26,27,,,,,,3.3,1.6,2.8,1*23
$GAGSA,A,3,02,03,08,24,25,36,,,,,,,2.9,1.1,2.7,3*3F
$GPGSV,2,1,07,07,24,311,44,08,59,182,48,09,45,296,48,16,46,032,44,1*6C
$GPGSV,2,2,07,23,61,240,46,26,23,055,40,27,71,092,47,,,,,1*5B
$GAGSV,2,1,06,02,41,302,43,03,43,231,43,08,30,297,40,24,16,071,00,7*70
$GAGSV,2,2,06,25,53,027,43,36,27,152,00,,,,,,,,,7*70
$GPRMC,060922.00,A,3046.9743594,N,10357.5039115,E,0.01,86.25,260319,0.0,E,D*02
$GPGGA,060922.00,3046.9743594,N,10357.5039115,E,4,24,1.0,532.095,M,-40.962,M,2.0,*6B
$GPGSA,A,3,07,08,09,16,23,26,27,,,,,,3.3,1.6,2.8,1*23
$GAGSA,A,3,02,03,08,24,25,36,,,,,,,2.9,1.1,2.7,3*3F
$GPGSV,2,1,07,07,24,311,44,08,59,182,48,09,45,296,48,16,46,032,44,1*6C
$GPGSV,2,2,07,23,61,240,46,26,23,055,40,27,71,092,47,,,,,1*5B
$GAGSV,2,1,06,02,41,302,42,03,43,231,43,08,30,297,40,24,16,071,00,7*71
$GAGSV,2,2,06,25,53,027,43,36,27,152,00,,,,,,,,,7*70
$GPRMC,060922.20,A,3046.9743593,N,10357.5039121,E,0.01,86.25,260319,0.0,E,D*00
$GPGGA,060922.20,3046.9743593,N,10357.5039121,E,4,24,1.0,532.094,M,-40.962,M,2.2,*6A
$GPGSA,A,3,07,08,09,16,23,26,27,,,,,,3.3,1.6,2.8,1*23
$GAGSA,A,3,02,03,08,24,25,36,,,,,,,2.9,1.1,2.7,3*3F
$GPGSV,2,1,07,07,24,311,44,08,59,182,48,09,45,296,47,16,46,032,44,1*63
$GPGSV,2,2,07,23,61,240,46,26,23,055,40,27,71,092,47,,,,,1*5B
$GAGSV,2,1,06,02,41,302,42,03,43,231,43,08,30,297,40,24,16,071,00,7*71
$GAGSV,2,2,06,25,53,027,43,36,27,152,00,,,,,,,,,7*70
$GPRMC,060922.40,A,3046.9743592,N,10357.5039121,E,0.04,86.25,260319,0.0,E,D*02
$GPGGA,060922.40,3046.9743592,N,10357.5039121,E,4,24,1.0,532.094,M,-40.962,M,2.4,*6B
$GPGSA,A,3,07,08,09,16,23,26,27,,,,,,3.3,1.6,2.8,1*23
$GAGSA,A,3,02,03,08,24,25,36,,,,,,,2.9,1.1,2.7,3*3F
$GPGSV,2,1,07,07,24,311,44,08,59,182,48,09,45,296,47,16,46,032,44,1*63
$GPGSV,2,2,07,23,61,240,46,26,23,055,40,27,71,092,47,,,,,1*5B
$GAGSV,2,1,06,02,41,302,42,03,43,231,43,08,30,297,40,24,16,071,00,7*71
$GAGSV,2,2,06,25,53,027,43,36,27,152,00,,,,,,,,,7*70
$GPRMC,060922.60,A,3046.9743591,N,10357.5039120,E,0.04,86.25,260319,0.0,E,D*02
$GPGGA,060922.60,3046.9743591,N,10357.5039120,E,4,24,1.0,532.094,M,-40.962,M,2.6,*69
$GPGSA,A,3,07,08,09,16,23,26,27,,,,,,3.3,1.6,2.8,1*23
$GAGSA,A,3,02,03,08,24,25,36,,,,,,,2.9,1.1,2.7,3*3F
$GPGSV,2,1,07,07,24,311,44,08,59,182,48,09,45,296,47,16,46,032,44,1*63
$GPGSV,2,2,07,23,61,240,46,26,23,055,40,27,71,092,47,,,,,1*5B
$GAGSV,2,1,06,02,41,302,42,03,43,231,43,08,30,297,40,24,16,071,00,7*71
$GAGSV,2,2,06,25,53,027,43,36,27,152,00,,,,,,,,,7*70
$GPRMC,060922.80,A,3046.9743591,N,10357.5039122,E,0.06,86.25,260319,0.0,E,D*0C
$GPGGA,060922.80,3046.9743591,N,10357.5039122,E,4,24,1.0,532.092,M,-40.962,M,2.8,*6D
$GPGSA,A,3,07,08,09,16,23,26,27,,,,,,3.3,1.6,2.8,1*23
$GAGSA,A,3,02,03,08,24,25,36,,,,,,,2.9,1.1,2.7,3*3F
$GPGSV,2,1,07,07,24,311,44,08,59,182,48,09,45,296,47,16,46,032,44,1*63
$GPGSV,2,2,07,23,61,240,46,26,23,055,40,27,71,092,47,,,,,1*5B
$GAGSV,2,1,06,02,41,302,42,03,43,231,43,08,30,297,40,24,16,071,00,7*71
$GAGSV,2,2,06,25,53,027,43,36,27,152,00,,,,,,,,,7*70
$GPRMC,060923.00,A,3046.9743589,N,10357.5039122,E,0.06,86.25,260319,0.0,E,D*0C
$GPGGA,060923.00,3046.9743589,N,10357.5039122,E,4,24,1.0,532.090,M,-40.962,M,3.0,*66
$GPGSA,A,3,07,08,09,16,23,26,27,,,,,,3.3,1.6,2.8,1*23
$GAGSA,A,3,02,03,08,24,25,36,,,,,,,2.9,1.1,2.7,3*3F
$GPGSV,2,1,07,07,24,311,44,08,59,182,48,09,45,296,47,16,46,032,44,1*63
$GPGSV,2,2,07,23,61,240,46,26,23,055,40,27,71,092,47,,,,,1*5B
