$GPRMC,061521.60,A,3046.9746025,N,10357.5015396,E,1.39,92.48,260319,0.0,E,D*03
$GPGGA,061521.60,3046.9746025,N,10357.5015396,E,4,23,1.0,532.092,M,-40.962,M,1.6,*6B
$GPGSA,A,3,07,08,09,16,23,26,27,,,,,,3.3,1.7,2.9,1*23
$GAGSA,A,3,02,03,08,25,36,,,,,,,,5.0,1.5,4.8,3*3A
$GPGSV,2,1,07,07,26,313,45,08,62,182,47,09,47,293,48,16,44,035,43,1*6F
$GPGSV,2,2,07,23,60,235,44,26,21,056,39,27,70,083,47,,,,,1*54
$GAGSV,2,1,05,02,42,304,42,03,42,229,42,08,30,295,40,25,52,031,42,7*7F
$GAGSV,2,2,05,36,29,151,00,,,,,,,,,,,,,7*4D
$GPRMC,061521.80,A,3046.9745986,N,10357.5016269,E,1.25,92.48,260319,0.0,E,D*01
$GPGGA,061521.80,3046.9745986,N,10357.5016269,E,4,23,1.0,532.093,M,-40.962,M,1.8,*6B
$GPGSA,A,3,07,08,09,16,23,26,27,,,,,,3.3,1.7,2.9,1*23
$GAGSA,A,3,02,03,08,25,36,,,,,,,,5.0,1.5,4.8,3*3A
$GPGSV,2,1,07,07,26,313,45,08,62,182,47,09,47,293,47,16,44,035,43,1*60
$GPGSV,2,2,07,23,60,235,45,26,21,056,40,27,70,083,47,,,,,1*5B
$GAGSV,2,1,05,02,42,304,42,03,42,229,42,08,30,295,40,25,52,031,42,7*7F
$GAGSV,2,2,05,36,29,151,00,,,,,,,,,,,,,7*4D
$GPRMC,061522.00,A,3046.9745948,N,10357.5017099,E,1.23,92.48,260319,0.0,E,D*02
$GPGGA,061522.00,3046.9745948,N,10357.5017099,E,4,23,1.0,532.096,M,-40.962,M,2.0,*60
$GPGSA,A,3,07,08,09,16,23,26,27,,,,,,3.3,1.7,2.9,1*23
$GAGSA,A,3,02,03,08,25,36,,,,,,,,5.0,1.5,4.8,3*3A
$GPGSV,2,1,07,07,26,313,44,08,62,182,47,09,47,293,47,16,44,035,43,1*61
$GPGSV,2,2,07,23,60,235,45,26,21,056,40,27,70,083,47,,,,,1*5B
$GAGSV,2,1,05,02,42,304,42,03,42,229,42,08,30,295,40,25,52,031,42,7*7F
$GAGSV,2,2,05,36,29,151,00,,,,,,,,,,,,,7*4D
$GPRMC,061522.20,A,3046.9745905,N,10357.5017886,E,1.20,92.48,260319,0.0,E,D*0C
$GPGGA,061522.20,3046.9745905,N,10357.5017886,E,4,23,1.0,532.095,M,-40.962,M,2.2,*6C
$GPGSA,A,3,07,08,09,16,23,26,27,,,,,,3.3,1.7,2.9,1*23
$GAGSA,A,3,02,03,08,25,36,,,,,,,,5.0,1.5,4.8,3*3A
$GPGSV,2,1,07,07,26,313,44,08,62,182,47,09,47,293,47,16,44,035,44,1*66
$GPGSV,2,2,07,23,60,235,45,26,21,056,40,27,70,083,47,,,,,1*5B
$GAGSV,2,1,05,02,42,304,42,03,42,229,42,08,30,295,40,25,52,031,42,7*7F
$GAGSV,2,2,05,36,29,151,00,,,,,,,,,,,,,7*4D
$GPRMC,061522.40,A,3046.9745847,N,10357.5018621,E,1.09,92.48,260319,0.0,E,D*0A
$GPGGA,061522.40,3046.9745847,N,10357.5018621,E,4,23,1.0,532.093,M,-40.962,M,2.4,*61
$GPGSA,A,3,07,08,09,16,23,26,27,,,,,,3.3,1.7,2.9,1*23
$GAGSA,A,3,02,03,08,25,36,,,,,,,,5.0,1.5,4.8,3*3A
$GPGSV,2,1,07,07,26,313,44,08,62,182,47,09,47,293,47,16,44,035,44,1*66
$GPGSV,2,2,07,23,60,235,44,26,21,056,40,27,70,083,47,,,,,1*5A
$GAGSV,2,1,05,02,42,304,42,03,42,229,42,08,30,295,40,25,52,031,42,7*7F
$GAGSV,2,2,05,36,29,151,00,,,,,,,,,,,,,7*4D
$GPRMC,061522.60,A,3046.9745760,N,10357.5019330,E,1.13,92.48,260319,0.0,E,D*0D
$GPGGA,061522.60,3046.9745760,N,10357.5019330,E,4,23,1.0,532.092,M,-40.962,M,2.6,*6E
$GPGSA,A,3,07,08,09,16,23,26,27,,,,,,3.3,1.7,2.9,1*23
$GAGSA,A,3,02,03,08,25,36,,,,,,,,5.0,1.5,4.8,3*3A
$GPGSV,2,1,07,07,26,313,44,08,62,182,47,09,47,293,47,16,44,035,44,1*66
$GPGSV,2,2,07,23,60,235,45,26,21,056,40,27,70,083,47,,,,,1*5B
$GAGSV,2,1,05,02,42,304,42,03,42,229,42,08,30,295,40,25,52,031,42,7*7F
$GAGSV,2,2,05,36,29,151,00,,,,,,,,,,,,,7*4D
$GPRMC,061522.80,A,3046.9745687,N,10357.5020002,E,1.02,92.48,260319,0.0,E,D*03
$GPGGA,061522.80,3046.9745687,N,10357.5020002,E,4,23,1.0,532.094,M,-40.962,M,2.8,*68
$GPGSA,A,3,07,08,09,16,23,26,27,,,,,,3.3,1.7,2.9,1*23
$GAGSA,A,3,02,03,08,25,36,,,,,,,,5.0,1.5,4.8,3*3A
$GPGSV,2,1,07,07,26,313,43,08,62,182,48,09,47,293,47,16,44,035,44,1*6E
$GPGSV,2,2,07,23,60,235,45,26,21,056,39,27,70,083,48,,,,,1*5A
$GAGSV,2,1,05,02,42,304,42,03,42,229,42,08,30,295,40,25,52,031,42,7*7F
$GAGSV,2,2,05,36,29,151,00,,,,,,,,,,,,,7*4D
$GPRMC,061523.00,A,3046.9745608,N,10357.5020611,E,0.99,92.48,260319,0.0,E,D*0A
$GPGGA,061523.00,3046.9745608,N,10357.5020611,E,4,23,1.0,532.095,M,-40.962,M,3.0,*6A
$GPGSA,A,3,07,08,09,16,23,26,27,,,,,,3.3,1.7,2.9,1*23
$GAGSA,A,3,02,03,08,25,36,,,,,,,,5.0,1.5,4.8,3*3A
$GPGSV,2,1,07,07,26,313,44,08,62,182,47,09,47,293,47,16,44,035,44,1*66
$GPGSV,2,2,07,23,60,235,45,26,21,056,38,27,70,083,48,,,,,1*5B
$GAGSV,2,1,05,02,42,304,42,03,42,229,42,08,30,295,40,25,52,031,42,7*7F
$GAGSV,2,2,05,36,29,151,00,,,,,,,,,,,,,7*4D
$GPRMC,061523.20,A,3046.9745500,N,10357.5021198,E,0.87,92.48,260319,0.0,E,D*0B
$GPGGA,061523.20,3046.9745500,N,10357.5021198,E,4,23,1.0,532.096,M,-40.962,M,1.2,*67
$GPGSA,A,3,07,08,09,16,23,26,27,,,,,,3.3,1.7,2.9,1*23
$GAGSA,A,3,02,03,08,25,36,,,,,,,,5.0,1.5,4.8,3*3A
$GPGSV,2,1,07,07,26,313,44,08,62,182,47,09,47,293,47,16,44,035,43,1*61
$GPGSV,2,2,07,23,60,235,45,26,21,056,39,27,70,082,47,,,,,1*54
$GAGSV,2,1,05,02,42,304,42,03,42,229,42,08,30,295,40,25,52,031,42,7*7F
$GAGSV,2,2,05,36,29,151,00,,,,,,,,,,,,,7*4D
$GPRMC,061523.40,A,3046.9745424,N,10357.5021723,E,0.79,92.48,260319,0.0,E,D*0D
$GPGGA,061523.40,3046.9745424,N,10357.5021723,E,4,23,1.0,532.095,M,-40.962,M,1.4,*65
$GPGSA,A,3,07,08,09,16,23,26,27,,,,,,3.3,1.7,2.9,1*23
$GAGSA,A,3,02,03,08,25,36,,,,,,,,5.0,1.5,4.8,3*3A
$GPGSV,2,1,07,07,26,313,44,08,62,182,47,09,47,293,47,16,44,035,44,1*66
$GPGSV,2,2,07,23,60,235,45,26,21,056,39,27,70,082,48,,,,,1*5B
$GAGSV,2,1,05,02,42,304,42,03,42,229,42,08,30,295,40,25,52,031,42,7*7F
$GAGSV,2,2,05,36,29,151,00,,,,,,,,,,,,,7*4D
$GPRMC,061523.60,A,3046.9745350,N,10357.5022202,E,0.72,92.48,260319,0.0,E,D*05
$GPGGA,061523.60,3046.9745350,N,10357.5022202,E,4,23,1.0,532.096,M,-40.962,M,1.6,*67
$GPGSA,A,3,07,08,09,16,23,26,27,,,,,,3.3,1.7,2.9,1*23
$GAGSA,A,3,02,03,08,25,36,,,,,,,,5.0,1.5,4.8,3*3A
$GPGSV,2,1,07,07,26,313,44,08,62,182,47,09,47,293,47,16,44,035,44,1*66
$GPGSV,2,2,07,23,60,235,45,26,21,056,39,27,70,082,48,,,,,1*5B
$GAGSV,2,1,05,02,42,304,42,03,42,229,42,08,30,295,40,25,52,031,42,7*7F
$GAGSV,2,2,05,36,29,151,00,,,,,,,,,,,,,7*4D
$GPRMC,061523.80,A,3046.9745251,N,10357.5022656,E,0.76,92.48,260319,0.0,E,D*0A
$GPGGA,061523.80,3046.9745251,N,10357.5022656,E,4,23,1.0,532.092,M,-40.962,M,1.8,*66
$GPGSA,A,3,07,08,09,16,23,26,27,,,,,,3.3,1.7,2.9,1*23
$GAGSA,A,3,02,03,08,25,36,,,,,,,,5.0,1.5,4.8,3*3A
$GPGSV,2,1,07,07,26,313,45,08,62,182,47,09,47,293,47,16,44,035,44,1*67
$GPGSV,2,2,07,23,60,235,45,26,21,056,40,27,70,082,48,,,,,1*55
$GAGSV,2,1,05,02,42,304,42,03,42,229,42,08,30,295,40,25,52,031,42,7*7F
$GAGSV,2,2,05,36,29,151,00,,,,,,,,,,,,,7*4D
$GPRMC,061524.00,A,3046.9745143,N,10357.5023110,E,0.70,92.48,260319,0.0,E,D*07
$GPGGA,061524.00,3046.9745143,N,10357.5023110,E,4,23,1.0,532.095,M,-40.962,M,2.0,*61
$GPGSA,A,3,07,08,09,16,23,26,27,,,,,,3.3,1.7,2.9,1*23
$GAGSA,A,3,02,03,08,25,36,,,,,,,,5.0,1.5,4.8,3*3A
$GPGSV,2,1,07,07,26,313,44,08,62,182,47,09,47,293,47,16,44,035,44,1*66
$GPGSV,2,2,07,23,60,235,45,26,21,056,40,27,70,082,48,,,,,1*55
$GAGSV,2,1,05,02,42,304,42,03,42,229,42,08,30,295,40,25,52,031,42,7*7F
$GAGSV,2,2,05,36,29,151,00,,,,,,,,,,,,,7*4D
$GPRMC,061524.20,A,3046.9745031,N,10357.5023639,E,0.89,92.48,260319,0.0,E,D*0B
$GPGGA,061524.20,3046.9745031,N,10357.5023639,E,4,23,1.0,532.098,M,-40.962,M,2.2,*64
$GPGSA,A,3,07,08,09,16,23,26,27,,,,,,3.3,1.7,2.9,1*23
$GAGSA,A,3,02,03,08,25,36,,,,,,,,5.0,1.5,4.8,3*3A
$GPGSV,2,1,07,07,26,313,45,08,62,182,47,09,47,293,46,16,44,035,44,1*66
$GPGSV,2,2,07,23,60,235,45,26,21,056,40,27,70,082,48,,,,,1*55
$GAGSV,2,1,05,02,42,304,42,03,42,229,42,08,30,295,40,25,52,031,42,7*7F
$GAGSV,2,2,05,36,29,151,00,,,,,,,,,,,,,7*4D
$GPRMC,061524.40,A,3046.9744886,N,10357.5024238,E,1.10,92.48,260319,0.0,E,D*0B
$GPGGA,061524.40,3046.9744886,N,10357.5024238,E,4,23,1.0,532.097,M,-40.962,M,2.4,*6C
$GPGSA,A,3,07,08,09,16,23,26,27,,,,,,3.3,1.7,2.9,1*23
$GAGSA,A,3,02,03,08,25,36,,,,,,,,5.0,1.5,4.8,3*3A
$GPGSV,2,1,07,07,26,313,43,08,62,182,47,09,47,293,47,16,44,035,44,1*61
$GPGSV,2,2,07,23,60,235,45,26,21,056,40,27,70,082,48,,,,,1*55
$GAGSV,2,1,05,02,42,304,42,03,42,229,42,08,30,295,40,25,52,031,42,7*7F
$GAGSV,2,2,05,36,29,151,00,,,,,,,,,,,,,7*4D
$GPRMC,061524.60,A,3046.9744709,N,10357.5024999,E,1.35,92.48,260319,0.0,E,D*06
$GPGGA,061524.60,3046.9744709,N,10357.5024999,E,4,23,1.0,532.095,M,-40.962,M,2.6,*66
$GPGSA,A,3,07,08,09,16,23,26,27,,,,,,3.3,1.7,2.9,1*23
$GAGSA,A,3,02,03,08,25,36,,,,,,,,5.0,1.5,4.8,3*3A
$GPGSV,2,1,07,07,26,313,44,08,62,182,47,09,47,293,46,16,44,035,43,1*60
$GPGSV,2,2,07,23,60,235,45,26,21,056,40,27,70,082,48,,,,,1*55
$GAGSV,2,1,05,02,42,304,42,03,42,229,42,08,30,295,40,25,52,031,42,7*7F
$GAGSV,2,2,05,36,29,151,00,,,,,,,,,,,,,7*4D
$GPRMC,061524.80,A,3046.9744490,N,10357.5025890,E,1.55,92.48,260319,0.0,E,D*04
$GPGGA,061524.80,3046.9744490,N,10357.5025890,E,4,23,1.0,532.100,M,-40.962,M,2.8,*61
$GPGSA,A,3,07,08,09,16,23,26,27,,,,,,3.3,1.7,2.9,1*23
$GAGSA,A,3,02,03,08,25,36,,,,,,,,5.0,1.5,4.8,3*3A
$GPGSV,2,1,07,07,26,313,43,08,62,182,47,09,47,293,47,16,44,035,44,1*61
$GPGSV,2,2,07,23,60,235,44,26,21,056,40,27,70,082,47,,,,,1*5B
$GAGSV,2,1,05,02,42,304,42,03,42,229,42,08,30,295,40,25,52,031,42,7*7F
$GAGSV,2,2,05,36,29,151,00,,,,,,,,,,,,,7*4D
$GPRMC,061525.00,A,3046.9744221,N,10357.5026917,E,1.86,92.48,260319,0.0,E,D*02
$GPGGA,061525.00,3046.9744221,N,10357.5026917,E,4,23,1.0,532.097,M,-40.962,M,3.0,*6F
$GPGSA,A,3,07,08,09,16,23,26,27,,,,,,3.3,1.7,2.9,1*23
$GAGSA,A,3,02,03,08,25,36,,,,,,,,5.0,1.5,4.8,3*3A
$GPGSV,2,1,07,07,26,313,43,08,62,182,47,09,47,293,47,16,44,035,43,1*66
$GPGSV,2,2,07,23,60,235,44,26,21,056,38,27,70,082,47,,,,,1*54
$GAGSV,2,1,05,02,42,304,42,03,42,229,42,08,30,295,40,25,52,031,42,7*7F
$GAGSV,2,2,05,36,29,151,00,,,,,,,,,,,,,7*4D
$GPRMC,061525.20,A,3046.9743940,N,10357.5028096,E,1.98,104.65,260319,0.0,E,D*3B
$GPGGA,061525.20,3046.9743940,N,10357.5028096,E,4,23,1.0,532.097,M,-40.962,M,1.2,*68
$GPGSA,A,3,07,08,09,16,23,26,27,,,,,,3.3,1.7,2.9,1*23
$GAGSA,A,3,02,03,08,25,36,,,,,,,,5.0,1.5,4.8,3*3A
$GPGSV,2,1,07,07,26,313,44,08,62,182,47,09,47,293,47,16,44,035,43,1*61
$GPGSV,2,2,07,23,60,235,45,26,21,056,38,27,70,082,47,,,,,1*55
$GAGSV,2,1,05,02,42,304,42,03,42,229,42,08,30,295,40,25,52,031,42,7*7F
$GAGSV,2,2,05,36,29,151,00,,,,,,,,,,,,,7*4D
$GPRMC,061525.40,A,3046.9743664,N,10357.5029379,E,2.06,102.62,260319,0.0,E,D*32
$GPGGA,061525.40,3046.9743664,N,10357.5029379,E,4,23,1.0,532.096,M,-40.962,M,1.4,*63
$GPGSA,A,3,07,08,09,16,23,26,27,,,,,,3.3,1.7,2.9,1*23
$GAGSA,A,3,02,03,08,25,36,,,,,,,,5.0,1.5,4.8,3*3A
$GPGSV,2,1,07,07,26,313,45,08,62,182,47,09,47,293,47,16,44,035,43,1*60
$GPGSV,2,2,07,23,60,235,45,26,21,056,40,27,70,082,47,,,,,1*5A
$GAGSV,2,1,05,02,42,304,42,03,42,229,42,08,30,295,40,25,52,031,42,7*7F
$GAGSV,2,2,05,36,29,151,00,,,,,,,,,,,,,7*4D
$GPRMC,061525.60,A,3046.9743424,N,10357.5030674,E,2.13,98.87,260319,0.0,E,D*0B
$GPGGA,061525.60,3046.9743424,N,10357.5030674,E,4,23,1.0,532.095,M,-40.962,M,1.6,*66
$GPGSA,A,3,07,08,09,16,23,26,27,,,,,,3.3,1.7,2.9,1*23
$GAGSA,A,3,02,03,08,25,36,,,,,,,,5.0,1.5,4.8,3*3A
$GPGSV,2,1,07,07,26,313,44,08,62,182,47,09,47,293,47,16,44,035,43,1*61
$GPGSV,2,2,07,23,60,235,45,26,21,056,38,27,70,082,47,,,,,1*55
$GAGSV,2,1,05,02,42,304,42,03,42,229,42,08,30,295,40,25,52,031,42,7*7F
$GAGSV,2,2,05,36,29,151,00,,,,,,,,,,,,,7*4D
$GPRMC,061525.80,A,3046.9743232,N,10357.5031926,E,1.86,98.87,260319,0.0,E,D*02
$GPGGA,061525.80,3046.9743232,N,10357.5031926,E,4,23,1.0,532.099,M,-40.962,M,1.8,*62
$GPGSA,A,3,07,08,09,16,23,26,27,,,,,,3.3,1.7,2.9,1*23
$GAGSA,A,3,02,03,08,25,36,,,,,,,,5.0,1.5,4.8,3*3A
$GPGSV,2,1,07,07,26,313,44,08,62,182,47,09,47,293,47,16,44,035,43,1*61
$GPGSV,2,2,07,23,60,235,45,26,21,056,38,27,70,082,47,,,,,1*55
$GAGSV,2,1,05,02,42,304,42,03,42,229,42,08,30,295,40,25,52,031,42,7*7F
$GAGSV,2,2,05,36,29,151,00,,,,,,,,,,,,,7*4D
$GPRMC,061526.00,A,3046.9743118,N,10357.5033137,E,1.85,98.87,260319,0.0,E,D*0B
$GPGGA,061526.00,3046.9743118,N,10357.5033137,E,4,23,1.0,532.099,M,-40.962,M,2.0,*63
$GPGSA,A,3,07,08,09,16,23,26,27,,,,,,3.3,1.7,2.9,1*23
$GAGSA,A,3,02,03,08,25,36,,,,,,,,5.0,1.5,4.8,3*3A
$GPGSV,2,1,07,07,26,313,44,08,62,182,47,09,47,293,47,16,44,035,43,1*61
$GPGSV,2,2,07,23,60,235,45,26,21,056,40,27,70,082,48,,,,,1*55
$GAGSV,2,1,05,02,42,304,42,03,42,229,42,08,30,295,40,25,52,031,42,7*7F
$GAGSV,2,2,05,36,29,151,00,,,,,,,,,,,,,7*4D
$GPRMC,061526.20,A,3046.9743025,N,10357.5034252,E,1.74,98.87,260319,0.0,E,D*0F
$GPGGA,061526.20,3046.9743025,N,10357.5034252,E,4,23,1.0,532.096,M,-40.962,M,2.2,*64
$GPGSA,A,3,07,08,09,16,23,26,27,,,,,,3.3,1.7,2.9,1*23
$GAGSA,A,3,02,03,08,25,36,,,,,,,,5.0,1.5,4.8,3*3A
$GPGSV,2,1,07,07,26,313,43,08,62,182,47,09,47,293,47,16,44,035,43,1*66
$GPGSV,2,2,07,23,60,235,45,26,21,056,40,27,70,082,47,,,,,1*5A
$GAGSV,2,1,05,02,42,304,42,03,42,229,42,08,30,295,40,25,52,031,42,7*7F
$GAGSV,2,2,05,36,29,151,00,,,,,,,,,,,,,7*4D
$GPRMC,061526.40,A,3046.9742966,N,10357.5035268,E,1.59,98.87,260319,0.0,E,D*01
$GPGGA,061526.40,3046.9742966,N,10357.5035268,E,4,23,1.0,532.098,M,-40.962,M,2.4,*6D
$GPGSA,A,3,07,08,09,16,23,26,27,,,,,,3.3,1.7,2.9,1*23
$GAGSA,A,3,02,03,08,25,36,,,,,,,,5.0,1.5,4.8,3*3A
$GPGSV,2,1,07,07,26,313,43,08,62,182,48,09,47,293,47,16,44,035,43,1*69
$GPGSV,2,2,07,23,60,235,45,26,21,056,38,27,70,082,48,,,,,1*5A
$GAGSV,2,1,05,02,42,304,42,03,41,229,42,08,30,295,40,25,52,031,42,7*7C
$GAGSV,2,2,05,36,29,151,00,,,,,,,,,,,,,7*4D
$GPRMC,061526.60,A,3046.9742956,N,10357.5036231,E,1.38,98.87,260319,0.0,E,D*08
$GPGGA,061526.60,3046.9742956,N,10357.5036231,E,4,23,1.0,532.101,M,-40.962,M,2.6,*60
$GPGSA,A,3,07,08,09,16,23,26,27,,,,,,3.3,1.7,2.9,1*23
$GAGSA,A,3,02,03,08,25,36,,,,,,,,5.0,1.5,4.8,3*3A
$GPGSV,2,1,07,07,26,313,44,08,62,182,47,09,47,293,47,16,44,035,43,1*61
$GPGSV,2,2,07,23,60,235,46,26,21,056,38,27,70,082,48,,,,,1*59
$GAGSV,2,1,05,02,42,304,42,03,41,229,42,08,30,295,40,25,52,031,42,7*7C
$GAGSV,2,2,05,36,29,151,00,,,,,,,,,,,,,7*4D
$GPRMC,061526.80,A,3046.9742971,N,10357.5037147,E,1.30,98.87,260319,0.0,E,D*08
$GPGGA,061526.80,3046.9742971,N,10357.5037147,E,4,23,1.0,532.101,M,-40.962,M,2.8,*66
$GPGSA,A,3,07,08,09,16,23,26,27,,,,,,3.3,1.7,2.9,1*23
$GAGSA,A,3,02,03,08,25,36,,,,,,,,5.0,1.5,4.8,3*3A
$GPGSV,2,1,07,07,26,313,45,08,62,182,47,09,47,293,47,16,44,035,44,1*67
$GPGSV,2,2,07,23,60,235,46,26,21,056,38,27,70,082,48,,,,,1*59
$GAGSV,2,1,05,02,42,304,42,03,41,229,42,08,30,295,40,25,52,031,41,7*7F
$GAGSV,2,2,05,36,29,151,00,,,,,,,,,,,,,7*4D
$GPRMC,061527.00,A,3046.9743011,N,10357.5038009,E,1.29,98.87,260319,0.0,E,D*03
$GPGGA,061527.00,3046.9743011,N,10357.5038009,E,4,23,1.0,532.098,M,-40.962,M,3.0,*6D
$GPGSA,A,3,07,08,09,16,23,26,27,,,,,,3.3,1.7,2.9,1*23
$GAGSA,A,3,02,03,08,25,36,,,,,,,,5.0,1.5,4.8,3*3A
$GPGSV,2,1,07,07,26,313,45,08,62,182,47,09,47,293,47,16,44,035,43,1*60
$GPGSV,2,2,07,23,60,235,45,26,21,056,38,27,70,082,48,,,,,1*5A
$GAGSV,2,1,05,02,42,304,42,03,41,229,42,08,30,295,40,25,52,031,41,7*7F
$GAGSV,2,2,05,36,29,151,00,,,,,,,,,,,,,7*4D
$GPRMC,061527.20,A,3046.9743054,N,10357.5038812,E,1.25,98.87,260319,0.0,E,D*0E
$GPGGA,061527.20,3046.9743054,N,10357.5038812,E,4,23,1.0,532.101,M,-40.962,M,1.2,*6D
$GPGSA,A,3,07,08,09,16,23,26,27,,,,,,3.3,1.7,2.9,1*23
$GAGSA,A,3,02,03,08,25,36,,,,,,,,5.0,1.5,4.8,3*3A
$GPGSV,2,1,07,07,26,313,45,08,62,182,47,09,47,293,47,16,44,035,43,1*60
$GPGSV,2,2,07,23,60,235,45,26,21,056,39,27,70,082,47,,,,,1*54
$GAGSV,2,1,05,02,42,304,42,03,41,229,42,08,30,295,40,25,52,031,41,7*7F
$GAGSV,2,2,05,36,29,151,00,,,,,,,,,,,,,7*4D
$GPRMC,061527.40,A,3046.9743122,N,10357.5039569,E,1.13,98.87,260319,0.0,E,D*0D
$GPGGA,061527.40,3046.9743122,N,10357.5039569,E,4,23,1.0,532.103,M,-40.962,M,1.4,*6F
$GPGSA,A,3,07,08,09,16,23,26,27,,,,,,3.3,1.7,2.9,1*23
$GAGSA,A,3,02,03,08,25,36,,,,,,,,5.0,1.5,4.8,3*3A
$GPGSV,2,1,07,07,26,313,45,08,62,182,47,09,47,293,47,16,44,035,43,1*60
$GPGSV,2,2,07,23,60,235,45,26,21,056,39,27,70,082,47,,,,,1*54
$GAGSV,2,1,05,02,42,304,42,03,41,229,42,08,30,295,40,25,52,031,41,7*7F
$GAGSV,2,2,05,36,29,151,00,,,,,,,,,,,,,7*4D
$GPRMC,061527.60,A,3046.9743161,N,10357.5040293,E,1.06,98.87,260319,0.0,E,D*00
$GPGGA,061527.60,3046.9743161,N,10357.5040293,E,4,23,1.0,532.105,M,-40.962,M,1.6,*62
$GPGSA,A,3,07,08,09,16,23,26,27,,,,,,3.3,1.7,2.9,1*23
$GAGSA,A,3,02,03,08,25,36,,,,,,,,5.0,1.5,4.8,3*3A
$GPGSV,2,1,07,07,26,313,44,08,62,182,47,09,47,293,46,16,44,035,43,1*60
$GPGSV,2,2,07,23,60,235,45,26,21,056,39,27,70,082,48,,,,,1*5B
$GAGSV,2,1,05,02,42,304,42,03,41,229,42,08,30,295,40,25,52,031,42,7*7C
$GAGSV,2,2,05,36,29,151,00,,,,,,,,,,,,,7*4D
$GPRMC,061527.80,A,3046.9743179,N,10357.5040953,E,1.04,98.87,260319,0.0,E,D*02
$GPGGA,061527.80,3046.9743179,N,10357.5040953,E,4,23,1.0,532.103,M,-40.962,M,1.8,*6A
$GPGSA,A,3,07,08,09,16,23,26,27,,,,,,3.3,1.7,2.9,1*23
$GAGSA,A,3,02,03,08,25,36,,,,,,,,5.0,1.5,4.8,3*3A
$GPGSV,2,1,07,07,26,313,44,08,62,182,47,09,47,293,47,16,44,035,44,1*66
$GPGSV,2,2,07,23,60,235,45,26,21,056,39,27,70,082,48,,,,,1*5B
$GAGSV,2,1,05,02,42,304,42,03,41,229,42,08,30,295,40,25,52,031,42,7*7C
$GAGSV,2,2,05,36,29,151,00,,,,,,,,,,,,,7*4D
$GPRMC,061528.00,A,3046.9743182,N,10357.5041577,E,0.89,98.87,260319,0.0,E,D*0E
$GPGGA,061528.00,3046.9743182,N,10357.5041577,E,4,23,1.0,532.103,M,-40.962,M,2.0,*69
$GPGSA,A,3,07,08,09,16,23,26,27,,,,,,3.3,1.7,2.9,1*23
$GAGSA,A,3,02,03,08,25,36,,,,,,,,5.0,1.5,4.8,3*3A
$GPGSV,2,1,07,07,26,313,44,08,62,182,47,09,47,293,47,16,44,035,43,1*61
$GPGSV,2,2,07,23,60,235,45,26,21,056,39,27,70,082,48,,,,,1*5B
$GAGSV,2,1,05,02,42,304,42,03,41,229,42,08,30,295,41,25,52,031,42,7*7D
$GAGSV,2,2,05,36,29,151,00,,,,,,,,,,,,,7*4D
$GPRMC,061528.20,A,3046.9743138,N,10357.5042163,E,0.86,98.87,260319,0.0,E,D*00
$GPGGA,061528.20,3046.9743138,N,10357.5042163,E,4,23,1.0,532.099,M,-40.962,M,2.2,*68
$GPGSA,A,3,07,08,09,16,23,26,27,,,,,,3.3,1.7,2.9,1*23
$GAGSA,A,3,02,03,08,25,36,,,,,,,,5.0,1.5,4.8,3*3A
$GPGSV,2,1,07,07,26,313,44,08,62,182,47,09,47,293,47,16,44,035,43,1*61
$GPGSV,2,2,07,23,60,235,45,26,21,056,38,27,70,082,48,,,,,1*5A
$GAGSV,2,1,05,02,42,304,42,03,41,229,42,08,30,295,41,25,52,031,42,7*7D
$GAGSV,2,2,05,36,29,151,00,,,,,,,,,,,,,7*4D
$GPRMC,061528.40,A,3046.9743127,N,10357.5042591,E,0.57,98.87,260319,0.0,E,D*0D
$GPGGA,061528.40,3046.9743127,N,10357.5042591,E,4,23,1.0,532.098,M,-40.962,M,2.4,*6E
$GPGSA,A,3,07,08,09,16,23,26,27,,,,,,3.3,1.7,2.9,1*23
$GAGSA,A,3,02,03,08,25,36,,,,,,,,5.0,1.5,4.8,3*3A
$GPGSV,2,1,07,07,26,313,44,08,62,182,47,09,47,293,47,16,44,035,43,1*61
$GPGSV,2,2,07,23,60,235,45,26,21,056,39,27,70,082,48,,,,,1*5B
$GAGSV,2,1,05,02,42,304,42,03,41,229,42,08,30,295,41,25,52,031,42,7*7D
$GAGSV,2,2,05,36,29,151,00,,,,,,,,,,,,,7*4D
$GPRMC,061528.60,A,3046.9743103,N,10357.5042880,E,0.32,98.87,260319,0.0,E,D*07
$GPGGA,061528.60,3046.9743103,N,10357.5042880,E,4,23,1.0,532.095,M,-40.962,M,2.6,*68
$GPGSA,A,3,07,08,09,16,23,26,27,,,,,,3.3,1.7,2.9,1*23
$GAGSA,A,3,02,03,08,25,36,,,,,,,,5.0,1.5,4.8,3*3A
$GPGSV,2,1,07,07,26,313,44,08,62,182,47,09,47,293,47,16,44,035,43,1*61
$GPGSV,2,2,07,23,60,235,45,26,21,056,39,27,70,082,48,,,,,1*5B
$GAGSV,2,1,05,02,42,304,42,03,41,229,41,08,30,295,41,25,52,031,42,7*7E
$GAGSV,2,2,05,36,29,151,00,,,,,,,,,,,,,7*4D
$GPRMC,061528.80,A,3046.9743091,N,10357.5043010,E,0.13,98.87,260319,0.0,E,D*00
$GPGGA,061528.80,3046.9743091,N,10357.5043010,E,4,23,1.0,532.094,M,-40.962,M,2.8,*63
$GPGSA,A,3,07,08,09,16,23,26,27,,,,,,3.3,1.7,2.9,1*23
$GAGSA,A,3,02,03,08,25,36,,,,,,,,5.0,1.5,4.8,3*3A
$GPGSV,2,1,07,07,26,313,44,08,62,182,47,09,47,293,47,16,44,035,43,1*61
$GPGSV,2,2,07,23,60,235,45,26,21,056,39,27,70,082,48,,,,,1*5B
$GAGSV,2,1,05,02,42,304,42,03,41,229,41,08,30,295,41,25,52,031,42,7*7E
$GAGSV,2,2,05,36,29,151,00,,,,,,,,,,,,,7*4D
$GPRMC,061529.00,A,3046.9743099,N,10357.5042990,E,0.11,98.87,260319,0.0,E,D*03
$GPGGA,061529.00,3046.9743099,N,10357.5042990,E,4,23,1.0,532.097,M,-40.962,M,3.0,*68
$GPGSA,A,3,07,08,09,16,23,26,27,,,,,,3.3,1.7,2.9,1*23
$GAGSA,A,3,02,03,08,25,36,,,,,,,,5.0,1.5,4.8,3*3A
$GPGSV,2,1,07,07,26,313,44,08,62,182,47,09,47,293,47,16,44,035,44,1*66
$GPGSV,2,2,07,23,60,235,45,26,21,056,39,27,70,082,48,,,,,1*5B
$GAGSV,2,1,05,02,42,304,42,03,41,229,41,08,30,295,41,25,52,031,42,7*7E
$GAGSV,2,2,05,36,29,151,00,,,,,,,,,,,,,7*4D
$GPRMC,061529.20,A,3046.9743102,N,10357.5042973,E,0.04,98.87,260319,0.0,E,D*0B
$GPGGA,061529.20,3046.9743102,N,10357.5042973,E,4,23,1.0,532.100,M,-40.962,M,1.2,*6B
$GPGSA,A,3,07,08,09,16,23,26,27,,,,,,3.3,1.7,2.9,1*23
$GAGSA,A,3,02,03,08,25,36,,,,,,,,5.0,1.5,4.8,3*3A
$GPGSV,2,1,07,07,26,313,44,08,62,182,47,09,47,293,47,16,44,035,44,1*66
$GPGSV,2,2,07,23,60,235,45,26,21,056,39,27,70,082,48,,,,,1*5B
$GAGSV,2,1,05,02,42,304,42,03,41,229,41,08,30,295,41,25,52,031,42,7*7E
$GAGSV,2,2,05,36,29,151,00,,,,,,,,,,,,,7*4D
$GPRMC,061529.40,A,3046.9743104,N,10357.5042981,E,0.07,98.87,260319,0.0,E,D*05
$GPGGA,061529.40,3046.9743104,N,10357.5042981,E,4,23,1.0,532.101,M,-40.962,M,1.4,*61
$GPGSA,A,3,07,08,09,16,23,26,27,,,,,,3.3,1.7,2.9,1*23
$GAGSA,A,3,02,03,08,25,36,,,,,,,,5.0,1.5,4.8,3*3A
$GPGSV,2,1,07,07,26,313,44,08,62,182,47,09,47,293,47,16,44,035,44,1*66
$GPGSV,2,2,07,23,60,235,45,26,21,056,39,27,70,082,48,,,,,1*5B
$GAGSV,2,1,05,02,42,304,42,03,41,229,41,08,30,295,41,25,52,031,42,7*7E
$GAGSV,2,2,05,36,29,151,00,,,,,,,,,,,,,7*4D
$GPRMC,061529.60,A,3046.9743109,N,10357.5042972,E,0.03,98.87,260319,0.0,E,D*02
$GPGGA,061529.60,3046.9743109,N,10357.5042972,E,4,23,1.0,532.103,M,-40.962,M,1.6,*62
$GPGSA,A,3,07,08,09,16,23,26,27,,,,,,3.3,1.7,2.9,1*23
$GAGSA,A,3,02,03,08,25,36,,,,,,,,5.0,1.5,4.8,3*3A
$GPGSV,2,1,07,07,26,313,44,08,62,182,47,09,47,293,47,16,44,035,44,1*66
$GPGSV,2,2,07,23,60,235,45,26,21,056,40,27,70,082,48,,,,,1*55
$GAGSV,2,1,05,02,42,304,42,03,41,229,41,08,30,295,41,25,52,031,42,7*7E
$GAGSV,2,2,05,36,29,151,00,,,,,,,,,,,,,7*4D
$GPRMC,061529.80,A,3046.9743097,N,10357.5042981,E,0.04,98.87,260319,0.0,E,D*01
$GPGGA,061529.80,3046.9743097,N,10357.5042981,E,4,23,1.0,532.102,M,-40.962,M,1.8,*69
$GPGSA,A,3,07,08,09,16,23,26,27,,,,,,3.3,1.7,2.9,1*23
$GAGSA,A,3,02,03,08,25,36,,,,,,,,5.0,1.5,4.8,3*3A
$GPGSV,2,1,07,07,26,313,44,08,62,182,47,09,47,293,47,16,44,035,44,1*66
$GPGSV,2,2,07,23,60,235,45,26,21,056,40,27,70,082,48,,,,,1*55
$GAGSV,2,1,05,02,42,304,42,03,41,229,41,08,30,295,41,25,52,031,41,7*7D
$GAGSV,2,2,05,36,29,151,00,,,,,,,,,,,,,7*4D
$GPRMC,061530.00,A,3046.9743099,N,10357.5042980,E,0.09,98.87,260319,0.0,E,D*03
$GPGGA,061530.00,3046.9743099,N,10357.5042980,E,4,23,1.0,532.100,M,-40.962,M,2.0,*6F
$GPGSA,A,3,07,08,09,16,23,26,27,,,,,,3.3,1.7,2.9,1*23
$GAGSA,A,3,02,03,08,25,36,,,,,,,,5.0,1.5,4.8,3*3A
$GPGSV,2,1,07,07,26,313,44,08,62,182,47,09,47,293,47,16,44,035,44,1*66
$GPGSV,2,2,07,23,60,235,45,26,21,056,40,27,70,082,47,,,,,1*5A
$GAGSV,2,1,05,02,42,304,42,03,41,229,41,08,30,295,41,25,52,031,41,7*7D
$GAGSV,2,2,05,36,29,151,00,,,,,,,,,,,,,7*4D
$GPRMC,061530.20,A,3046.9743099,N,10357.5042977,E,0.05,98.87,260319,0.0,E,D*05
$GPGGA,061530.20,3046.9743099,N,10357.5042977,E,4,23,1.0,532.101,M,-40.962,M,2.2,*66
$GPGSA,A,3,07,08,09,16,23,26,27,,,,,,3.3,1.7,2.9,1*23
$GAGSA,A,3,02,03,08,25,36,,,,,,,,5.0,1.5,4.8,3*3A
$GPGSV,2,1,07,07,26,313,44,08,62,182,47,09,47,293,47,16,44,035,44,1*66
$GPGSV,2,2,07,23,60,235,45,26,21,056,40,27,70,082,47,,,,,1*5A
$GAGSV,2,1,05,02,42,304,42,03,41,229,41,08,30,295,41,25,52,031,41,7*7D
$GAGSV,2,2,05,36,29,151,00,,,,,,,,,,,,,7*4D
$GPRMC,061530.40,A,3046.9743097,N,10357.5042980,E,0.08,98.87,260319,0.0,E,D*08
$GPGGA,061530.40,3046.9743097,N,10357.5042980,E,4,23,1.0,532.100,M,-40.962,M,2.4,*61
$GPGSA,A,3,07,08,09,16,23,26,27,,,,,,3.3,1.7,2.9,1*23
$GAGSA,A,3,02,03,08,25,36,,,,,,,,5.0,1.5,4.8,3*3A
$GPGSV,2,1,07,07,26,313,44,08,62,182,47,09,47,293,47,16,44,035,44,1*66
$GPGSV,2,2,07,23,60,235,45,26,21,056,39,27,70,082,47,,,,,1*54
$GAGSV,2,1,05,02,42,304,42,03,41,229,41,08,30,295,41,25,52,031,42,7*7E
$GAGSV,2,2,05,36,29,151,00,,,,,,,,,,,,,7*4D
$GPRMC,061530.60,A,3046.9743097,N,10357.5042977,E,0.07,98.87,260319,0.0,E,D*0D
$GPGGA,061530.60,3046.9743097,N,10357.5042977,E,4,23,1.0,532.100,M,-40.962,M,2.6,*69
$GPGSA,A,3,07,08,09,16,23,26,27,,,,,,3.3,1.7,2.9,1*23
$GAGSA,A,3,02,03,08,25,36,,,,,,,,5.0,1.5,4.8,3*3A
$GPGSV,2,1,07,07,26,313,44,08,62,182,47,09,47,293,47,16,44,035,44,1*66
$GPGSV,2,2,07,23,60,235,45,26,21,056,39,27,70,082,47,,,,,1*54
$GAGSV,2,1,05,02,42,304,42,03,41,229,41,08,30,295,41,25,52,031,42,7*7E
$GAGSV,2,2,05,36,29,151,00,,,,,,,,,,,,,7*4D
$GPRMC,061530.80,A,3046.9743098,N,10357.5042978,E,0.03,98.87,260319,0.0,E,D*07
$GPGGA,061530.80,3046.9743098,N,10357.5042978,E,4,23,1.0,532.103,M,-40.962,M,2.8,*6A
$GPGSA,A,3,07,08,09,16,23,26,27,,,,,,3.3,1.7,2.9,1*23
$GAGSA,A,3,02,03,08,25,36,,,,,,,,5.0,1.5,4.8,3*3A
$GPGSV,2,1,07,07,26,313,44,08,62,182,47,09,47,293,47,16,44,035,44,1*66
$GPGSV,2,2,07,23,60,235,45,26,21,056,39,27,70,082,48,,,,,1*5B
$GAGSV,2,1,05,02,42,304,42,03,41,229,41,08,30,295,41,25,52,031,42,7*7E
$GAGSV,2,2,05,36,29,151,00,,,,,,,,,,,,,7*4D
$GPRMC,061531.00,A,3046.9743099,N,10357.5042973,E,0.02,98.87,260319,0.0,E,D*05
$GPGGA,061531.00,3046.9743099,N,10357.5042973,E,4,23,1.0,532.100,M,-40.962,M,3.0,*63
$GPGSA,A,3,07,08,09,16,23,26,27,,,,,,3.3,1.7,2.9,1*23
$GAGSA,A,3,02,03,08,25,36,,,,,,,,5.0,1.5,4.8,3*3A
$GPGSV,2,1,07,07,26,313,44,08,62,182,47,09,47,293,47,16,44,035,44,1*66
$GPGSV,2,2,07,23,60,235,45,26,21,056,40,27,70,082,48,,,,,1*55
$GAGSV,2,1,05,02,42,304,42,03,41,229,41,08,30,295,41,25,52,031,42,7*7E
$GAGSV,2,2,05,36,29,151,00,,,,,,,,,,,,,7*4D
$GPRMC,061531.20,A,3046.9743103,N,10357.5042981,E,0.03,98.87,260319,0.0,E,D*09
$GPGGA,061531.20,3046.9743103,N,10357.5042981,E,4,23,1.0,532.100,M,-40.962,M,1.2,*6E
$GPGSA,A,3,07,08,09,16,23,26,27,,,,,,3.3,1.7,2.9,1*23
$GAGSA,A,3,02,03,08,25,36,,,,,,,,5.0,1.5,4.8,3*3A
$GPGSV,2,1,07,07,26,313,44,08,62,182,47,09,47,293,47,16,44,035,44,1*66
$GPGSV,2,2,07,23,60,235,45,26,21,056,39,27,70,082,48,,,,,1*5B
$GAGSV,2,1,05,02,42,304,42,03,41,229,41,08,30,295,41,25,52,031,42,7*7E
$GAGSV,2,2,05,36,29,151,00,,,,,,,,,,,,,7*4D
$GPRMC,061531.40,A,3046.9743105,N,10357.5042975,E,0.04,98.87,260319,0.0,E,D*05
$GPGGA,061531.40,3046.9743105,N,10357.5042975,E,4,23,1.0,532.099,M,-40.962,M,1.4,*62
$GPGSA,A,3,07,08,09,16,23,26,27,,,,,,3.3,1.7,2.9,1*23
$GAGSA,A,3,02,03,08,25,36,,,,,,,,5.0,1.5,4.8,3*3A
$GPGSV,2,1,07,07,26,313,44,08,62,182,47,09,47,293,47,16,44,035,43,1*61
$GPGSV,2,2,07,23,60,235,45,26,21,056,39,27,70,082,47,,,,,1*54
$GAGSV,2,1,05,02,42,304,42,03,41,229,41,08,30,295,41,25,52,031,41,7*7D
$GAGSV,2,2,05,36,29,151,00,,,,,,,,,,,,,7*4D
$GPRMC,061531.60,A,3046.9743098,N,10357.5042975,E,0.04,98.87,260319,0.0,E,D*02
$GPGGA,061531.60,3046.9743098,N,10357.5042975,E,4,23,1.0,532.099,M,-40.962,M,1.6,*67
$GPGSA,A,3,07,08,09,16,23,26,27,,,,,,3.3,1.7,2.9,1*23
$GAGSA,A,3,02,03,08,25,36,,,,,,,,5.0,1.5,4.8,3*3A
$GPGSV,2,1,07,07,26,313,44,08,62,182,47,09,47,293,47,16,44,035,43,1*61
$GPGSV,2,2,07,23,60,235,45,26,21,056,39,27,70,082,47,,,,,1*54
$GAGSV,2,1,05,02,42,304,42,03,41,229,41,08,30,295,41,25,52,031,41,7*7D
$GAGSV,2,2,05,36,29,151,00,,,,,,,,,,,,,7*4D
$GPRMC,061531.80,A,3046.9743100,N,10357.5042967,E,0.09,98.87,260319,0.0,E,D*02
$GPGGA,061531.80,3046.9743100,N,10357.5042967,E,4,23,1.0,532.102,M,-40.962,M,1.8,*67
$GPGSA,A,3,07,08,09,16,23,26,27,,,,,,3.3,1.7,2.9,1*23
$GAGSA,A,3,02,03,08,25,36,,,,,,,,5.0,1.5,4.8,3*3A
$GPGSV,2,1,07,07,26,313,44,08,62,182,47,09,47,293,46,16,44,035,43,1*60
$GPGSV,2,2,07,23,60,235,45,26,21,056,39,27,70,082,47,,,,,1*54
$GAGSV,2,1,05,02,42,304,42,03,41,229,41,08,30,295,41,25,52,031,41,7*7D
$GAGSV,2,2,05,36,29,151,00,,,,,,,,,,,,,7*4D
$GPRMC,061532.00,A,3046.9743098,N,10357.5042963,E,0.04,98.87,260319,0.0,E,D*00
$GPGGA,061532.00,3046.9743098,N,10357.5042963,E,4,23,1.0,532.101,M,-40.962,M,2.0,*60
$GPGSA,A,3,07,08,09,16,23,26,27,,,,,,3.3,1.7,2.9,1*23
$GAGSA,A,3,02,03,08,25,36,,,,,,,,5.0,1.5,4.8,3*3A
$GPGSV,2,1,07,07,26,313,44,08,62,182,47,09,47,293,46,16,44,035,43,1*60
$GPGSV,2,2,07,23,60,235,45,26,21,056,39,27,70,082,47,,,,,1*54
$GAGSV,2,1,05,02,42,304,42,03,41,229,41,08,30,295,41,25,52,031,41,7*7D
$GAGSV,2,2,05,36,29,151,00,,,,,,,,,,,,,7*4D
$GPRMC,061532.20,A,3046.9743102,N,10357.5042965,E,0.08,98.87,260319,0.0,E,D*0A
$GPGGA,061532.20,3046.9743102,N,10357.5042965,E,4,23,1.0,532.100,M,-40.962,M,2.2,*65
$GPGSA,A,3,07,08,09,16,23,26,27,,,,,,3.3,1.7,2.9,1*23
$GAGSA,A,3,02,03,08,25,36,,,,,,,,5.0,1.5,4.8,3*3A
$GPGSV,2,1,07,07,26,313,44,08,62,182,47,09,47,293,46,16,44,035,43,1*60
$GPGSV,2,2,07,23,60,235,45,26,21,056,40,27,70,082,47,,,,,1*5A
$GAGSV,2,1,05,02,42,304,42,03,41,229,41,08,30,295,41,25,52,031,41,7*7D
$GAGSV,2,2,05,36,29,151,00,,,,,,,,,,,,,7*4D
$GPRMC,061532.40,A,3046.9743108,N,10357.5042965,E,0.01,98.87,260319,0.0,E,D*0F
$GPGGA,061532.40,3046.9743108,N,10357.5042965,E,4,23,1.0,532.100,M,-40.962,M,2.4,*6F
$GPGSA,A,3,07,08,09,16,23,26,27,,,,,,3.3,1.7,2.9,1*23
$GAGSA,A,3,02,03,08,25,36,,,,,,,,5.0,1.5,4.8,3*3A
$GPGSV,2,1,07,07,26,313,44,08,62,182,47,09,47,293,46,16,44,035,43,1*60
$GPGSV,2,2,07,23,60,235,45,26,21,056,40,27,70,082,47,,,,,1*5A
$GAGSV,2,1,05,02,42,304,42,03,41,229,41,08,30,295,41,25,52,031,41,7*7D
$GAGSV,2,2,05,36,29,151,00,,,,,,,,,,,,,7*4D
$GPRMC,061532.60,A,3046.9743096,N,10357.5042970,E,0.04,98.87,260319,0.0,E,D*0A
$GPGGA,061532.60,3046.9743096,N,10357.5042970,E,4,23,1.0,532.099,M,-40.962,M,2.6,*6C
$GPGSA,A,3,07,08,09,16,23,26,27,,,,,,3.3,1.7,2.9,1*23
$GAGSA,A,3,02,03,08,25,36,,,,,,,,5.0,1.5,4.8,3*3A
$GPGSV,2,1,07,07,26,313,44,08,62,182,47,09,47,293,46,16,44,035,43,1*60
$GPGSV,2,2,07,23,60,235,45,26,21,056,39,27,70,082,47,,,,,1*54
$GAGSV,2,1,05,02,42,304,42,03,41,229,41,08,30,295,41,25,52,031,41,7*7D
$GAGSV,2,2,05,36,29,151,00,,,,,,,,,,,,,7*4D
$GPRMC,061532.80,A,3046.9743099,N,10357.5042968,E,0.07,98.87,260319,0.0,E,D*01
$GPGGA,061532.80,3046.9743099,N,10357.5042968,E,4,23,1.0,532.098,M,-40.962,M,2.8,*6B
$GPGSA,A,3,07,08,09,16,23,26,27,,,,,,3.3,1.7,2.9,1*23
$GAGSA,A,3,02,03,08,25,36,,,,,,,,5.0,1.5,4.8,3*3A
$GPGSV,2,1,07,07,26,313,44,08,62,182,47,09,47,293,46,16,44,035,43,1*60
$GPGSV,2,2,07,23,60,235,45,26,21,056,39,27,70,082,47,,,,,1*54
$GAGSV,2,1,05,02,42,304,42,03,41,229,41,08,30,295,41,25,52,031,41,7*7D
$GAGSV,2,2,05,36,29,151,00,,,,,,,,,,,,,7*4D
$GPRMC,061533.00,A,3046.9743095,N,10357.5042967,E,0.08,98.87,260319,0.0,E,D*04
$GPGGA,061533.00,3046.9743095,N,10357.5042967,E,4,23,1.0,532.099,M,-40.962,M,3.0,*69
$GPGSA,A,3,07,08,09,16,23,26,27,,,,,,3.3,1.7,2.9,1*23
$GAGSA,A,3,02,03,08,25,36,,,,,,,,5.0,1.5,4.8,3*3A
$GPGSV,2,1,07,07,26,313,44,08,62,182,47,09,47,293,46,16,44,035,43,1*60
$GPGSV,2,2,07,23,60,235,45,26,21,056,39,27,70,082,47,,,,,1*54
$GAGSV,2,1,05,02,42,304,42,03,41,229,41,08,30,295,41,25,52,031,41,7*7D
$GAGSV,2,2,05,36,29,151,00,,,,,,,,,,,,,7*4D
$GPRMC,061533.20,A,3046.9743103,N,10357.5042975,E,0.06,98.87,260319,0.0,E,D*05
$GPGGA,061533.20,3046.9743103,N,10357.5042975,E,4,23,1.0,532.101,M,-40.962,M,1.2,*66
$GPGSA,A,3,07,08,09,16,23,26,27,,,,,,3.3,1.7,2.9,1*23
$GAGSA,A,3,02,03,08,25,36,,,,,,,,5.0,1.5,4.8,3*3A
$GPGSV,2,1,07,07,26,313,44,08,62,182,47,09,47,293,46,16,44,035,43,1*60
$GPGSV,2,2,07,23,60,235,45,26,21,056,39,27,70,082,47,,,,,1*54
$GAGSV,2,1,05,02,42,304,42,03,41,229,41,08,30,295,41,25,52,031,41,7*7D
$GAGSV,2,2,05,36,29,151,00,,,,,,,,,,,,,7*4D
$GPRMC,061533.40,A,3046.9743099,N,10357.5042967,E,0.04,98.87,260319,0.0,E,D*00
$GPGGA,061533.40,3046.9743099,N,10357.5042967,E,4,23,1.0,532.100,M,-40.962,M,1.4,*66
$GPGSA,A,3,07,08,09,16,23,26,27,,,,,,3.3,1.7,2.9,1*23
$GAGSA,A,3,02,03,08,25,36,,,,,,,,5.0,1.5,4.8,3*3A
$GPGSV,2,1,07,07,26,313,44,08,62,182,47,09,47,293,46,16,44,035,43,1*60
$GPGSV,2,2,07,23,60,235,45,26,21,056,39,27,70,082,47,,,,,1*54
$GAGSV,2,1,05,02,42,304,42,03,41,229,41,08,30,295,41,25,52,031,41,7*7D
$GAGSV,2,2,05,36,29,151,00,,,,,,,,,,,,,7*4D
$GPRMC,061533.60,A,3046.9743111,N,10357.5042968,E,0.04,98.87,260319,0.0,E,D*0C
$GPGGA,061533.60,3046.9743111,N,10357.5042968,E,4,23,1.0,532.101,M,-40.962,M,1.6,*69
$GPGSA,A,3,07,08,09,16,23,26,27,,,,,,3.3,1.7,2.9,1*23
$GAGSA,A,3,02,03,08,25,36,,,,,,,,5.0,1.5,4.8,3*3A
$GPGSV,2,1,07,07,26,313,44,08,62,182,47,09,47,293,46,16,44,035,43,1*60
$GPGSV,2,2,07,23,60,235,45,26,21,056,39,27,70,082,47,,,,,1*54
$GAGSV,2,1,05,02,42,304,42,03,41,229,41,08,30,295,41,25,52,031,41,7*7D
$GAGSV,2,2,05,36,29,151,00,,,,,,,,,,,,,7*4D
$GPRMC,061533.80,A,3046.9743114,N,10357.5042945,E,0.10,98.87,260319,0.0,E,D*0D
$GPGGA,061533.80,3046.9743114,N,10357.5042945,E,4,23,1.0,532.104,M,-40.962,M,1.8,*66
$GPGSA,A,3,07,08,09,16,23,26,27,,,,,,3.3,1.7,2.9,1*23
$GAGSA,A,3,02,03,08,25,36,,,,,,,,5.0,1.5,4.8,3*3A
$GPGSV,2,1,07,07,26,313,44,08,62,182,47,09,47,293,46,16,44,035,43,1*60
$GPGSV,2,2,07,23,60,235,45,26,21,056,39,27,70,082,47,,,,,1*54
$GAGSV,2,1,05,02,42,305,42,03,41,229,41,08,30,295,41,25,52,031,41,7*7C
$GAGSV,2,2,05,36,29,151,00,,,,,,,,,,,,,7*4D
$GPRMC,061534.00,A,3046.9743113,N,10357.5042904,E,0.09,98.87,260319,0.0,E,D*08
$GPGGA,061534.00,3046.9743113,N,10357.5042904,E,4,23,1.0,532.102,M,-40.962,M,2.0,*66
$GPGSA,A,3,07,08,09,16,23,26,27,,,,,,3.3,1.7,2.9,1*23
$GAGSA,A,3,02,03,08,25,36,,,,,,,,5.0,1.5,4.8,3*3A
$GPGSV,2,1,07,07,26,313,44,08,62,182,47,09,47,293,46,16,44,035,43,1*60
$GPGSV,2,2,07,23,60,235,45,26,21,056,39,27,70,082,47,,,,,1*54
$GAGSV,2,1,05,02,42,305,42,03,41,229,41,08,30,295,41,25,52,031,41,7*7C
$GAGSV,2,2,05,36,29,151,00,,,,,,,,,,,,,7*4D
$GPRMC,061534.20,A,3046.9743123,N,10357.5042823,E,0.16,98.87,260319,0.0,E,D*03
$GPGGA,061534.20,3046.9743123,N,10357.5042823,E,4,23,1.0,532.102,M,-40.962,M,2.2,*61
$GPGSA,A,3,07,08,09,16,23,26,27,,,,,,3.3,1.7,2.9,1*23
$GAGSA,A,3,02,03,08,25,36,,,,,,,,5.0,1.5,4.8,3*3A
$GPGSV,2,1,07,07,26,313,44,08,62,182,47,09,47,293,46,16,44,035,43,1*60
$GPGSV,2,2,07,23,60,235,45,26,21,056,39,27,70,082,47,,,,,1*54
$GAGSV,2,1,05,02,42,305,42,03,41,229,41,08,30,295,41,25,52,031,41,7*7C
$GAGSV,2,2,05,36,29,151,00,,,,,,,,,,,,,7*4D
$GPRMC,061534.40,A,3046.9743127,N,10357.5042706,E,0.22,98.87,260319,0.0,E,D*0E
$GPGGA,061534.40,3046.9743127,N,10357.5042706,E,4,23,1.0,532.103,M,-40.962,M,2.4,*6C
$GPGSA,A,3,07,08,09,16,23,26,27,,,,,,3.3,1.7,2.9,1*23
$GAGSA,A,3,02,03,08,25,36,,,,,,,,5.0,1.5,4.8,3*3A
$GPGSV,2,1,07,07,26,313,44,08,62,182,47,09,47,293,46,16,44,035,44,1*67
$GPGSV,2,2,07,23,60,235,45,26,21,056,39,27,70,082,47,,,,,1*54
$GAGSV,2,1,05,02,42,305,42,03,41,229,41,08,30,295,41,25,52,031,41,7*7C
$GAGSV,2,2,05,36,29,151,00,,,,,,,,,,,,,7*4D
$GPRMC,061534.60,A,3046.9743141,N,10357.5042534,E,0.30,98.87,260319,0.0,E,D*0C
$GPGGA,061534.60,3046.9743141,N,10357.5042534,E,4,23,1.0,532.101,M,-40.962,M,2.6,*6D
$GPGSA,A,3,07,08,09,16,23,26,27,,,,,,3.3,1.7,2.9,1*23
$GAGSA,A,3,02,03,08,25,36,,,,,,,,5.1,1.5,4.8,3*3B
$GPGSV,2,1,07,07,26,313,44,08,62,182,47,09,47,293,47,16,44,035,43,1*61
$GPGSV,2,2,07,23,60,235,45,26,21,056,39,27,70,082,47,,,,,1*54
$GAGSV,2,1,05,02,42,305,42,03,41,229,41,08,30,295,41,25,52,031,41,7*7C
$GAGSV,2,2,05,36,29,151,00,,,,,,,,,,,,,7*4D
$GPRMC,061534.80,A,3046.9743152,N,10357.5042301,E,0.39,98.87,260319,0.0,E,D*09
$GPGGA,061534.80,3046.9743152,N,10357.5042301,E,4,23,1.0,532.102,M,-40.962,M,2.8,*6C
$GPGSA,A,3,07,08,09,16,23,26,27,,,,,,3.3,1.7,2.9,1*23
$GAGSA,A,3,02,03,08,25,36,,,,,,,,5.1,1.5,4.8,3*3B
$GPGSV,2,1,07,07,26,313,44,08,62,182,47,09,47,293,47,16,44,035,43,1*61
$GPGSV,2,2,07,23,60,235,45,26,21,056,39,27,70,082,47,,,,,1*54
$GAGSV,2,1,05,02,42,305,42,03,41,229,41,08,30,295,41,25,52,031,41,7*7C
$GAGSV,2,2,05,36,29,151,00,,,,,,,,,,,,,7*4D
$GPRMC,061535.00,A,3046.9743165,N,10357.5042030,E,0.54,98.87,260319,0.0,E,D*0E
$GPGGA,061535.00,3046.9743165,N,10357.5042030,E,4,23,1.0,532.105,M,-40.962,M,3.0,*6E
$GPGSA,A,3,07,08,09,16,23,26,27,,,,,,3.3,1.7,2.9,1*23
$GAGSA,A,3,02,03,08,25,36,,,,,,,,5.1,1.5,4.8,3*3B
$GPGSV,2,1,07,07,26,313,45,08,62,182,47,09,47,293,47,16,44,035,43,1*60
$GPGSV,2,2,07,23,60,235,45,26,21,056,39,27,70,082,47,,,,,1*54
$GAGSV,2,1,05,02,42,305,42,03,41,229,41,08,30,295,41,25,52,031,42,7*7F
$GAGSV,2,2,05,36,29,151,00,,,,,,,,,,,,,7*4D
$GPRMC,061535.20,A,3046.9743181,N,10357.5041739,E,0.51,98.87,260319,0.0,E,D*0E
$GPGGA,061535.20,3046.9743181,N,10357.5041739,E,4,23,1.0,532.107,M,-40.962,M,1.2,*69
$GPGSA,A,3,07,08,09,16,23,26,27,,,,,,3.3,1.7,2.9,1*23
$GAGSA,A,3,02,03,08,25,36,,,,,,,,5.1,1.5,4.8,3*3B
$GPGSV,2,1,07,07,26,313,45,08,62,182,47,09,47,293,47,16,44,035,43,1*60
$GPGSV,2,2,07,23,60,235,45,26,21,056,39,27,70,082,47,,,,,1*54
$GAGSV,2,1,05,02,42,305,42,03,41,229,42,08,30,295,41,25,52,031,42,7*7C
$GAGSV,2,2,05,36,29,151,00,,,,,,,,,,,,,7*4D
$GPRMC,061535.40,A,3046.9743204,N,10357.5041454,E,0.41,98.87,260319,0.0,E,D*0F
$GPGGA,061535.40,3046.9743204,N,10357.5041454,E,4,23,1.0,532.105,M,-40.962,M,1.4,*6D
$GPGSA,A,3,07,08,09,16,23,26,27,,,,,,3.3,1.7,2.9,1*23
$GAGSA,A,3,02,03,08,25,36,,,,,,,,5.1,1.5,4.8,3*3B
$GPGSV,2,1,07,07,26,313,45,08,62,182,47,09,47,293,47,16,44,035,44,1*67
$GPGSV,2,2,07,23,60,235,45,26,21,056,39,27,70,082,47,,,,,1*54
$GAGSV,2,1,05,02,42,305,42,03,41,229,42,08,30,295,41,25,52,031,42,7*7C
$GAGSV,2,2,05,36,29,151,00,,,,,,,,,,,,,7*4D
$GPRMC,061535.60,A,3046.9743214,N,10357.5041199,E,0.37,98.87,260319,0.0,E,D*09
$GPGGA,061535.60,3046.9743214,N,10357.5041199,E,4,23,1.0,532.105,M,-40.962,M,1.6,*68
$GPGSA,A,3,07,08,09,16,23,26,27,,,,,,3.3,1.7,2.9,1*23
$GAGSA,A,3,02,03,08,25,36,,,,,,,,5.1,1.5,4.8,3*3B
$GPGSV,2,1,07,07,26,313,45,08,62,182,47,09,47,293,47,16,44,035,43,1*60
$GPGSV,2,2,07,23,60,235,45,26,21,056,39,27,70,082,47,,,,,1*54
$GAGSV,2,1,05,02,42,305,42,03,41,229,42,08,30,295,41,25,52,031,42,7*7C
$GAGSV,2,2,05,36,29,151,00,,,,,,,,,,,,,7*4D
$GPRMC,061535.80,A,3046.9743225,N,10357.5040995,E,0.31,98.87,260319,0.0,E,D*06
$GPGGA,061535.80,3046.9743225,N,10357.5040995,E,4,23,1.0,532.103,M,-40.962,M,1.8,*69
$GPGSA,A,3,07,08,09,16,23,26,27,,,,,,3.3,1.7,2.9,1*23
$GAGSA,A,3,02,03,08,25,36,,,,,,,,5.1,1.5,4.8,3*3B
$GPGSV,2,1,07,07,26,313,44,08,62,182,46,09,47,293,47,16,44,035,44,1*67
$GPGSV,2,2,07,23,60,235,45,26,21,056,39,27,70,082,47,,,,,1*54
$GAGSV,2,1,05,02,42,305,42,03,41,229,42,08,30,295,41,25,52,031,42,7*7C
$GAGSV,2,2,05,36,29,151,00,,,,,,,,,,,,,7*4D
$GPRMC,061536.00,A,3046.9743236,N,10357.5040857,E,0.17,98.87,260319,0.0,E,D*04
$GPGGA,061536.00,3046.9743236,N,10357.5040857,E,4,23,1.0,532.104,M,-40.962,M,2.0,*63
$GPGSA,A,3,07,08,09,16,23,26,27,,,,,,3.3,1.7,2.9,1*23
$GAGSA,A,3,02,03,08,25,36,,,,,,,,5.1,1.5,4.8,3*3B
$GPGSV,2,1,07,07,26,313,44,08,62,182,46,09,47,293,47,16,44,035,44,1*67
$GPGSV,2,2,07,23,60,235,45,26,21,056,39,27,70,082,48,,,,,1*5B
$GAGSV,2,1,05,02,42,305,42,03,41,229,41,08,30,295,41,25,52,031,42,7*7F
$GAGSV,2,2,05,36,29,151,00,,,,,,,,,,,,,7*4D
$GPRMC,061536.20,A,3046.9743240,N,10357.5040768,E,0.08,98.87,260319,0.0,E,D*0A
$GPGGA,061536.20,3046.9743240,N,10357.5040768,E,4,23,1.0,532.102,M,-40.962,M,2.2,*67
$GPGSA,A,3,07,08,09,16,23,26,27,,,,,,3.3,1.7,2.9,1*23
$GAGSA,A,3,02,03,08,25,36,,,,,,,,5.1,1.5,4.8,3*3B
$GPGSV,2,1,07,07,26,313,44,08,62,182,46,09,47,293,47,16,44,035,45,1*66
$GPGSV,2,2,07,23,60,235,45,26,21,056,39,27,70,082,48,,,,,1*5B
$GAGSV,2,1,05,02,42,305,42,03,41,229,41,08,30,295,41,25,52,031,42,7*7F
$GAGSV,2,2,05,36,29,151,00,,,,,,,,,,,,,7*4D
$GPRMC,061536.40,A,3046.9743251,N,10357.5040717,E,0.06,98.87,260319,0.0,E,D*0A
$GPGGA,061536.40,3046.9743251,N,10357.5040717,E,4,23,1.0,532.102,M,-40.962,M,2.4,*6F
$GPGSA,A,3,07,08,09,16,23,26,27,,,,,,3.3,1.7,2.9,1*23
$GAGSA,A,3,02,03,08,25,36,,,,,,,,5.1,1.5,4.8,3*3B
$GPGSV,2,1,07,07,26,313,44,08,62,182,46,09,47,293,47,16,44,035,45,1*66
$GPGSV,2,2,07,23,60,235,45,26,21,056,39,27,70,082,48,,,,,1*5B
$GAGSV,2,1,05,02,42,305,42,03,41,229,42,08,30,295,41,25,52,031,42,7*7C
$GAGSV,2,2,05,36,29,151,00,,,,,,,,,,,,,7*4D
$GPRMC,061536.60,A,3046.9743245,N,10357.5040712,E,0.02,98.87,260319,0.0,E,D*0C
$GPGGA,061536.60,3046.9743245,N,10357.5040712,E,4,23,1.0,532.103,M,-40.962,M,2.6,*6E
$GPGSA,A,3,07,08,09,16,23,26,27,,,,,,3.3,1.7,2.9,1*23
$GAGSA,A,3,02,03,08,25,36,,,,,,,,5.1,1.5,4.8,3*3B
$GPGSV,2,1,07,07,26,313,44,08,62,182,46,09,47,293,47,16,44,035,45,1*66
$GPGSV,2,2,07,23,60,235,45,26,21,056,39,27,70,082,48,,,,,1*5B
$GAGSV,2,1,05,02,42,305,42,03,41,229,42,08,30,295,41,25,52,031,42,7*7C
$GAGSV,2,2,05,36,29,151,00,,,,,,,,,,,,,7*4D
$GPRMC,061536.80,A,3046.9743250,N,10357.5040703,E,0.06,98.87,260319,0.0,E,D*02
$GPGGA,061536.80,3046.9743250,N,10357.5040703,E,4,23,1.0,532.103,M,-40.962,M,2.8,*6A
$GPGSA,A,3,07,08,09,16,23,26,27,,,,,,3.3,1.7,2.9,1*23
$GAGSA,A,3,02,03,08,25,36,,,,,,,,5.1,1.5,4.8,3*3B
$GPGSV,2,1,07,07,26,313,44,08,62,182,46,09,47,293,47,16,44,035,45,1*66
$GPGSV,2,2,07,23,60,235,45,26,21,056,39,27,70,082,48,,,,,1*5B
$GAGSV,2,1,05,02,42,305,42,03,41,229,42,08,30,295,41,25,52,031,42,7*7C
$GAGSV,2,2,05,36,29,151,00,,,,,,,,,,,,,7*4D
$GPRMC,061537.00,A,3046.9743256,N,10357.5040665,E,0.13,98.87,260319,0.0,E,D*08
$GPGGA,061537.00,3046.9743256,N,10357.5040665,E,4,23,1.0,532.102,M,-40.962,M,3.0,*6C
$GPGSA,A,3,07,08,09,16,23,26,27,,,,,,3.3,1.7,2.9,1*23
$GAGSA,A,3,02,03,08,25,36,,,,,,,,5.1,1.5,4.8,3*3B
$GPGSV,2,1,07,07,26,313,44,08,62,182,46,09,47,293,47,16,44,035,45,1*66
$GPGSV,2,2,07,23,60,235,45,26,21,056,39,27,70,082,48,,,,,1*5B
$GAGSV,2,1,05,02,42,305,42,03,41,229,42,08,30,295,41,25,52,031,42,7*7C
$GAGSV,2,2,05,36,29,151,00,,,,,,,,,,,,,7*4D
$GPRMC,061537.20,A,3046.9743267,N,10357.5040615,E,0.12,98.87,260319,0.0,E,D*0E
$GPGGA,061537.20,3046.9743267,N,10357.5040615,E,4,23,1.0,532.102,M,-40.962,M,1.2,*6B
$GPGSA,A,3,07,08,09,16,23,26,27,,,,,,3.3,1.7,2.9,1*23
$GAGSA,A,3,02,03,08,25,36,,,,,,,,5.1,1.5,4.8,3*3B
$GPGSV,2,1,07,07,26,313,44,08,62,182,46,09,47,293,47,16,44,035,45,1*66
$GPGSV,2,2,07,23,60,235,45,26,21,056,39,27,70,082,48,,,,,1*5B
$GAGSV,2,1,05,02,42,305,42,03,41,229,42,08,30,295,41,25,52,031,42,7*7C
$GAGSV,2,2,05,36,29,151,00,,,,,,,,,,,,,7*4D
$GPRMC,061537.40,A,3046.9743271,N,10357.5040509,E,0.19,98.87,260319,0.0,E,D*0A
$GPGGA,061537.40,3046.9743271,N,10357.5040509,E,4,23,1.0,532.102,M,-40.962,M,1.4,*62
$GPGSA,A,3,07,08,09,16,23,26,27,,,,,,3.3,1.7,2.9,1*23
$GAGSA,A,3,02,03,08,25,36,,,,,,,,5.1,1.5,4.8,3*3B
$GPGSV,2,1,07,07,26,313,44,08,62,182,46,09,47,293,47,16,44,035,45,1*66
$GPGSV,2,2,07,23,60,235,45,26,21,056,40,27,70,082,48,,,,,1*55
$GAGSV,2,1,05,02,42,305,42,03,41,229,42,08,30,295,41,25,52,031,42,7*7C
$GAGSV,2,2,05,36,29,151,00,,,,,,,,,,,,,7*4D
$GPRMC,061537.60,A,3046.9743275,N,10357.5040360,E,0.28,98.87,260319,0.0,E,D*07
$GPGGA,061537.60,3046.9743275,N,10357.5040360,E,4,23,1.0,532.103,M,-40.962,M,1.6,*6E
$GPGSA,A,3,07,08,09,16,23,26,27,,,,,,3.3,1.7,2.9,1*23
$GAGSA,A,3,02,03,08,25,36,,,,,,,,5.1,1.5,4.8,3*3B
$GPGSV,2,1,07,07,26,313,44,08,62,182,46,09,47,293,47,16,44,035,44,1*67
$GPGSV,2,2,07,23,60,235,45,26,21,056,40,27,70,082,48,,,,,1*55
$GAGSV,2,1,05,02,42,305,42,03,41,229,42,08,30,295,41,25,52,031,42,7*7C
$GAGSV,2,2,05,36,29,151,00,,,,,,,,,,,,,7*4D
$GPRMC,061537.80,A,3046.9743285,N,10357.5040146,E,0.38,98.87,260319,0.0,E,D*01
$GPGGA,061537.80,3046.9743285,N,10357.5040146,E,4,23,1.0,532.102,M,-40.962,M,1.8,*66
$GPGSA,A,3,07,08,09,16,23,26,27,,,,,,3.3,1.7,2.9,1*23
$GAGSA,A,3,02,03,08,25,36,,,,,,,,5.1,1.5,4.8,3*3B
$GPGSV,2,1,07,07,26,313,44,08,62,182,47,09,47,293,47,16,44,035,44,1*66
$GPGSV,2,2,07,23,60,235,45,26,21,056,40,27,70,082,48,,,,,1*55
$GAGSV,2,1,05,02,42,305,42,03,41,229,42,08,30,295,41,25,52,031,42,7*7C
$GAGSV,2,2,05,36,29,151,00,,,,,,,,,,,,,7*4D
$GPRMC,061538.00,A,3046.9743299,N,10357.5039848,E,0.53,98.87,260319,0.0,E,D*0F
$GPGGA,061538.00,3046.9743299,N,10357.5039848,E,4,23,1.0,532.103,M,-40.962,M,2.0,*6F
$GPGSA,A,3,07,08,09,16,23,26,27,,,,,,3.3,1.7,2.9,1*23
$GAGSA,A,3,02,03,08,25,36,,,,,,,,5.1,1.5,4.8,3*3B
$GPGSV,2,1,07,07,26,313,44,08,62,182,47,09,47,293,47,16,44,035,44,1*66
$GPGSV,2,2,07,23,60,235,45,26,21,056,40,27,70,082,48,,,,,1*55
$GAGSV,2,1,05,02,42,305,42,03,41,229,42,08,30,295,41,25,52,031,42,7*7C
$GAGSV,2,2,05,36,29,151,00,,,,,,,,,,,,,7*4D
$GPRMC,061538.20,A,3046.9743309,N,10357.5039495,E,0.59,98.87,260319,0.0,E,D*03
$GPGGA,061538.20,3046.9743309,N,10357.5039495,E,4,23,1.0,532.102,M,-40.962,M,2.2,*6A
$GPGSA,A,3,07,08,09,16,23,26,27,,,,,,3.3,1.7,2.9,1*23
$GAGSA,A,3,02,03,08,25,36,,,,,,,,5.1,1.5,4.8,3*3B
$GPGSV,2,1,07,07,26,313,45,08,62,182,47,09,47,293,47,16,44,035,44,1*67
$GPGSV,2,2,07,23,60,235,45,26,21,056,39,27,70,082,48,,,,,1*5B
$GAGSV,2,1,05,02,42,305,42,03,41,229,42,08,30,295,41,25,52,031,42,7*7C
$GAGSV,2,2,05,36,29,151,00,,,,,,,,,,,,,7*4D
$GPRMC,061538.40,A,3046.9743308,N,10357.5039118,E,0.58,98.87,260319,0.0,E,D*05
$GPGGA,061538.40,3046.9743308,N,10357.5039118,E,4,23,1.0,532.105,M,-40.962,M,2.4,*6C
$GPGSA,A,3,07,08,09,16,23,26,27,,,,,,3.3,1.7,2.9,1*23
$GAGSA,A,3,02,03,08,25,36,,,,,,,,5.1,1.5,4.8,3*3B
$GPGSV,2,1,07,07,26,313,45,08,62,182,47,09,47,293,47,16,44,035,44,1*67
$GPGSV,2,2,07,23,60,235,45,26,21,056,39,27,70,082,48,,,,,1*5B
$GAGSV,2,1,05,02,42,305,42,03,41,229,42,08,30,295,41,25,52,031,42,7*7C
$GAGSV,2,2,05,36,29,151,00,,,,,,,,,,,,,7*4D
$GPRMC,061538.60,A,3046.9743310,N,10357.5038758,E,0.54,98.87,260319,0.0,E,D*01
$GPGGA,061538.60,3046.9743310,N,10357.5038758,E,4,23,1.0,532.104,M,-40.962,M,2.6,*67
$GPGSA,A,3,07,08,09,16,23,26,27,,,,,,3.3,1.7,2.9,1*23
$GAGSA,A,3,02,03,08,25,36,,,,,,,,5.1,1.5,4.8,3*3B
$GPGSV,2,1,07,07,26,313,45,08,62,182,47,09,47,293,47,16,44,035,44,1*67
$GPGSV,2,2,07,23,60,235,45,26,21,056,39,27,70,082,48,,,,,1*5B
$GAGSV,2,1,05,02,42,305,42,03,41,229,42,08,30,295,41,25,52,031,42,7*7C
$GAGSV,2,2,05,36,29,151,00,,,,,,,,,,,,,7*4D
$GPRMC,061538.80,A,3046.9743324,N,10357.5038426,E,0.49,98.87,260319,0.0,E,D*0E
$GPGGA,061538.80,3046.9743324,N,10357.5038426,E,4,23,1.0,532.106,M,-40.962,M,2.8,*68
$GPGSA,A,3,07,08,09,16,23,26,27,,,,,,3.3,1.7,2.9,1*23
$GAGSA,A,3,02,03,08,25,36,,,,,,,,5.1,1.5,4.8,3*3B
$GPGSV,2,1,07,07,26,313,45,08,62,182,47,09,47,293,47,16,44,035,44,1*67
$GPGSV,2,2,07,23,60,235,45,26,21,056,39,27,70,082,48,,,,,1*5B
$GAGSV,2,1,05,02,42,305,42,03,41,229,42,08,30,295,41,25,52,031,42,7*7C
$GAGSV,2,2,05,36,29,151,00,,,,,,,,,,,,,7*4D
$GPRMC,061539.00,A,3046.9743338,N,10357.5038175,E,0.33,98.87,260319,0.0,E,D*04
$GPGGA,061539.00,3046.9743338,N,10357.5038175,E,4,23,1.0,532.106,M,-40.962,M,3.0,*66
$GPGSA,A,3,07,08,09,16,23,26,27,,,,,,3.3,1.7,2.9,1*23
$GAGSA,A,3,02,03,08,25,36,,,,,,,,5.1,1.5,4.8,3*3B
$GPGSV,2,1,07,07,26,313,45,08,62,182,47,09,47,293,47,16,44,035,44,1*67
$GPGSV,2,2,07,23,60,235,45,26,21,056,39,27,70,082,48,,,,,1*5B
$GAGSV,2,1,05,02,42,305,42,03,41,229,42,08,30,295,41,25,52,031,42,7*7C
$GAGSV,2,2,05,36,29,151,00,,,,,,,,,,,,,7*4D
$GPRMC,061539.20,A,3046.9743361,N,10357.5038016,E,0.16,98.87,260319,0.0,E,D*09
$GPGGA,061539.20,3046.9743361,N,10357.5038016,E,4,23,1.0,532.106,M,-40.962,M,1.2,*6C
$GPGSA,A,3,07,08,09,16,23,26,27,,,,,,3.3,1.7,2.9,1*23
$GAGSA,A,3,02,03,08,25,36,,,,,,,,5.1,1.5,4.8,3*3B
$GPGSV,2,1,07,07,26,313,46,08,62,182,47,09,47,293,47,16,44,035,44,1*64
$GPGSV,2,2,07,23,60,235,45,26,21,056,37,27,70,082,47,,,,,1*5A
$GAGSV,2,1,05,02,42,305,42,03,41,229,42,08,30,295,41,25,52,031,42,7*7C
$GAGSV,2,2,05,36,29,151,00,,,,,,,,,,,,,7*4D
$GPRMC,061539.40,A,3046.9743357,N,10357.5037948,E,0.09,98.87,260319,0.0,E,D*09
$GPGGA,061539.40,3046.9743357,N,10357.5037948,E,4,23,1.0,532.107,M,-40.962,M,1.4,*65
$GPGSA,A,3,07,08,09,16,23,26,27,,,,,,3.3,1.7,2.9,1*23
$GAGSA,A,3,02,03,08,25,36,,,,,,,,5.1,1.5,4.8,3*3B
$GPGSV,2,1,07,07,26,313,46,08,62,182,47,09,47,293,47,16,44,035,44,1*64
$GPGSV,2,2,07,23,60,235,45,26,21,056,37,27,70,082,47,,,,,1*5A
$GAGSV,2,1,05,02,42,305,42,03,41,229,42,08,30,295,41,25,52,031,42,7*7C
$GAGSV,2,2,05,36,29,151,00,,,,,,,,,,,,,7*4D
$GPRMC,061539.60,A,3046.9743361,N,10357.5037932,E,0.06,98.87,260319,0.0,E,D*0C
$GPGGA,061539.60,3046.9743361,N,10357.5037932,E,4,23,1.0,532.107,M,-40.962,M,1.6,*6D
$GPGSA,A,3,07,08,09,16,23,26,27,,,,,,3.3,1.7,2.9,1*23
$GAGSA,A,3,02,03,08,25,36,,,,,,,,5.1,1.5,4.8,3*3B
$GPGSV,2,1,07,07,26,313,45,08,62,182,47,09,47,293,47,16,44,035,44,1*67
$GPGSV,2,2,07,23,60,235,45,26,21,056,37,27,70,082,47,,,,,1*5A
$GAGSV,2,1,05,02,42,305,42,03,41,229,42,08,30,295,41,25,52,031,42,7*7C
$GAGSV,2,2,05,36,29,151,00,,,,,,,,,,,,,7*4D
$GPRMC,061539.80,A,3046.9743358,N,10357.5037932,E,0.02,98.87,260319,0.0,E,D*0C
$GPGGA,061539.80,3046.9743358,N,10357.5037932,E,4,23,1.0,532.105,M,-40.962,M,1.8,*65
$GPGSA,A,3,07,08,09,16,23,26,27,,,,,,3.3,1.7,2.9,1*23
$GAGSA,A,3,02,03,08,25,36,,,,,,,,5.1,1.5,4.8,3*3B
$GPGSV,2,1,07,07,26,313,45,08,62,182,47,09,47,293,47,16,44,035,44,1*67
$GPGSV,2,2,07,23,60,235,45,26,21,056,37,27,70,082,47,,,,,1*5A
$GAGSV,2,1,05,02,42,305,42,03,41,229,42,08,30,295,40,25,52,031,42,7*7D
$GAGSV,2,2,05,36,29,151,00,,,,,,,,,,,,,7*4D
$GPRMC,061540.00,A,3046.9743363,N,10357.5037937,E,0.07,98.87,260319,0.0,E,D*02
$GPGGA,061540.00,3046.9743363,N,10357.5037937,E,4,23,1.0,532.104,M,-40.962,M,2.0,*64
$GPGSA,A,3,07,08,09,16,23,26,27,,,,,,3.3,1.7,2.9,1*23
$GAGSA,A,3,02,03,08,25,36,,,,,,,,5.1,1.5,4.8,3*3B
$GPGSV,2,1,07,07,26,313,45,08,62,182,47,09,47,293,47,16,44,035,44,1*67
$GPGSV,2,2,07,23,60,235,45,26,21,056,37,27,70,082,47,,,,,1*5A
$GAGSV,2,1,05,02,42,305,42,03,41,229,42,08,30,295,40,25,52,031,42,7*7D
$GAGSV,2,2,05,36,29,151,00,,,,,,,,,,,,,7*4D
$GPRMC,061540.20,A,3046.9743358,N,10357.5037933,E,0.13,98.87,260319,0.0,E,D*09
$GPGGA,061540.20,3046.9743358,N,10357.5037933,E,4,23,1.0,532.107,M,-40.962,M,2.2,*6B
$GPGSA,A,3,07,08,09,16,23,26,27,,,,,,3.3,1.7,2.9,1*23
$GAGSA,A,3,02,03,08,25,36,,,,,,,,5.1,1.5,4.8,3*3B
$GPGSV,2,1,07,07,26,313,45,08,62,182,47,09,47,293,47,16,44,035,44,1*67
$GPGSV,2,2,07,23,60,235,45,26,21,056,37,27,70,082,47,,,,,1*5A
$GAGSV,2,1,05,02,42,305,42,03,41,229,42,08,30,295,40,25,52,031,42,7*7D
$GAGSV,2,2,05,36,29,151,00,,,,,,,,,,,,,7*4D
$GPRMC,061540.40,A,3046.9743351,N,10357.5037936,E,0.02,98.87,260319,0.0,E,D*03
$GPGGA,061540.40,3046.9743351,N,10357.5037936,E,4,23,1.0,532.104,M,-40.962,M,2.4,*64
$GPGSA,A,3,07,08,09,16,23,26,27,,,,,,3.3,1.7,2.9,1*23
$GAGSA,A,3,02,03,08,25,36,,,,,,,,5.1,1.5,4.8,3*3B
$GPGSV,2,1,07,07,26,313,45,08,62,182,47,09,47,293,47,16,44,035,43,1*60
$GPGSV,2,2,07,23,60,235,45,26,21,056,37,27,70,082,47,,,,,1*5A
$GAGSV,2,1,05,02,42,305,42,03,41,229,42,08,30,295,40,25,52,031,42,7*7D
$GAGSV,2,2,05,36,29,151,00,,,,,,,,,,,,,7*4D
$GPRMC,061540.60,A,3046.9743353,N,10357.5037938,E,0.08,98.87,260319,0.0,E,D*07
$GPGGA,061540.60,3046.9743353,N,10357.5037938,E,4,23,1.0,532.106,M,-40.962,M,2.6,*6A
$GPGSA,A,3,07,08,09,16,23,26,27,,,,,,3.3,1.7,2.9,1*23
$GAGSA,A,3,02,03,08,25,36,,,,,,,,5.1,1.5,4.8,3*3B
$GPGSV,2,1,07,07,26,313,45,08,62,182,47,09,47,293,47,16,44,035,43,1*60
$GPGSV,2,2,07,23,60,235,45,26,21,056,37,27,70,082,47,,,,,1*5A
$GAGSV,2,1,05,02,42,305,42,03,41,229,42,08,30,295,41,25,52,031,42,7*7C
$GAGSV,2,2,05,36,29,151,00,,,,,,,,,,,,,7*4D
$GPRMC,061540.80,A,3046.9743357,N,10357.5037936,E,0.04,98.87,260319,0.0,E,D*0F
$GPGGA,061540.80,3046.9743357,N,10357.5037936,E,4,23,1.0,532.104,M,-40.962,M,2.8,*62
$GPGSA,A,3,07,08,09,16,23,26,27,,,,,,3.3,1.7,2.9,1*23
$GAGSA,A,3,02,03,08,25,36,,,,,,,,5.1,1.5,4.8,3*3B
$GPGSV,2,1,07,07,26,313,45,08,62,182,47,09,47,293,47,16,44,035,43,1*60
$GPGSV,2,2,07,23,60,235,45,26,21,056,37,27,70,082,47,,,,,1*5A
$GAGSV,2,1,05,02,42,305,42,03,41,229,42,08,30,295,41,25,52,031,42,7*7C
$GAGSV,2,2,05,36,29,151,00,,,,,,,,,,,,,7*4D
$GPRMC,061541.00,A,3046.9743360,N,10357.5037934,E,0.10,98.87,260319,0.0,E,D*05
$GPGGA,061541.00,3046.9743360,N,10357.5037934,E,4,23,1.0,532.104,M,-40.962,M,3.0,*64
$GPGSA,A,3,07,08,09,16,23,26,27,,,,,,3.3,1.7,2.9,1*23
$GAGSA,A,3,02,03,08,25,36,,,,,,,,5.1,1.5,4.8,3*3B
$GPGSV,2,1,07,07,26,313,45,08,62,182,47,09,47,293,47,16,44,035,43,1*60
$GPGSV,2,2,07,23,60,235,45,26,21,056,38,27,70,082,47,,,,,1*55
$GAGSV,2,1,05,02,42,305,42,03,41,229,42,08,30,295,41,25,52,031,42,7*7C
$GAGSV,2,2,05,36,29,151,00,,,,,,,,,,,,,7*4D
$GPRMC,061541.20,A,3046.9743373,N,10357.5037943,E,0.08,98.87,260319,0.0,E,D*0C
$GPGGA,061541.20,3046.9743373,N,10357.5037943,E,4,23,1.0,532.104,M,-40.962,M,1.2,*64
$GPGSA,A,3,07,08,09,16,23,26,27,,,,,,3.3,1.7,2.9,1*23
$GAGSA,A,3,02,03,08,25,36,,,,,,,,5.1,1.5,4.8,3*3B
$GPGSV,2,1,07,07,26,313,45,08,62,182,47,09,47,293,47,16,44,035,43,1*60
$GPGSV,2,2,07,23,60,235,45,26,21,056,38,27,70,082,47,,,,,1*55
$GAGSV,2,1,05,02,42,305,42,03,41,229,42,08,30,295,41,25,52,031,42,7*7C
$GAGSV,2,2,05,36,29,151,00,,,,,,,,,,,,,7*4D
$GPRMC,061541.40,A,3046.9743375,N,10357.5037943,E,0.08,98.87,260319,0.0,E,D*0C
$GPGGA,061541.40,3046.9743375,N,10357.5037943,E,4,23,1.0,532.103,M,-40.962,M,1.4,*65
$GPGSA,A,3,07,08,09,16,23,26,27,,,,,,3.3,1.7,2.9,1*23
$GAGSA,A,3,02,03,08,25,36,,,,,,,,5.1,1.5,4.8,3*3B
$GPGSV,2,1,07,07,26,313,45,08,62,182,47,09,47,293,47,16,44,035,43,1*60
$GPGSV,2,2,07,23,60,235,45,26,21,056,38,27,70,082,47,,,,,1*55
$GAGSV,2,1,05,02,42,305,42,03,41,229,42,08,30,295,41,25,52,031,42,7*7C
$GAGSV,2,2,05,36,29,151,00,,,,,,,,,,,,,7*4D
$GPRMC,061541.60,A,3046.9743369,N,10357.5037941,E,0.09,98.87,260319,0.0,E,D*00
$GPGGA,061541.60,3046.9743369,N,10357.5037941,E,4,23,1.0,532.104,M,-40.962,M,1.6,*6D
$GPGSA,A,3,07,08,09,16,23,26,27,,,,,,3.3,1.7,2.9,1*23
$GAGSA,A,3,02,03,08,25,36,,,,,,,,5.1,1.5,4.8,3*3B
$GPGSV,2,1,07,07,26,313,45,08,62,182,47,09,47,293,47,16,44,035,43,1*60
$GPGSV,2,2,07,23,60,235,45,26,21,056,38,27,70,082,47,,,,,1*55
$GAGSV,2,1,05,02,42,305,42,03,41,229,42,08,30,295,41,25,52,031,42,7*7C
$GAGSV,2,2,05,36,29,151,00,,,,,,,,,,,,,7*4D
$GPRMC,061541.80,A,3046.9743367,N,10357.5037943,E,0.02,98.87,260319,0.0,E,D*09
$GPGGA,061541.80,3046.9743367,N,10357.5037943,E,4,23,1.0,532.105,M,-40.962,M,1.8,*60
$GPGSA,A,3,07,08,09,16,23,26,27,,,,,,3.3,1.7,2.9,1*23
$GAGSA,A,3,02,03,08,25,36,,,,,,,,5.1,1.5,4.8,3*3B
$GPGSV,2,1,07,07,26,313,45,08,62,182,47,09,47,293,47,16,44,035,43,1*60
$GPGSV,2,2,07,23,60,235,45,26,21,056,38,27,70,082,47,,,,,1*55
$GAGSV,2,1,05,02,42,305,42,03,41,229,42,08,30,295,41,25,52,031,42,7*7C
$GAGSV,2,2,05,36,29,151,00,,,,,,,,,,,,,7*4D
$GPRMC,061542.00,A,3046.9743373,N,10357.5037942,E,0.03,98.87,260319,0.0,E,D*07
$GPGGA,061542.00,3046.9743373,N,10357.5037942,E,4,23,1.0,532.105,M,-40.962,M,2.0,*64
$GPGSA,A,3,07,08,09,16,23,26,27,,,,,,3.3,1.7,2.9,1*23
$GAGSA,A,3,02,03,08,25,36,,,,,,,,5.1,1.5,4.8,3*3B
$GPGSV,2,1,07,07,26,313,45,08,62,182,47,09,47,293,47,16,44,035,43,1*60
$GPGSV,2,2,07,23,60,235,45,26,21,056,38,27,70,082,47,,,,,1*55
$GAGSV,2,1,05,02,42,305,42,03,41,229,42,08,30,295,41,25,52,031,42,7*7C
$GAGSV,2,2,05,36,29,151,00,,,,,,,,,,,,,7*4D
$GPRMC,061542.20,A,3046.9743369,N,10357.5037937,E,0.04,98.87,260319,0.0,E,D*0B
$GPGGA,061542.20,3046.9743369,N,10357.5037937,E,4,23,1.0,532.103,M,-40.962,M,2.2,*6B
$GPGSA,A,3,07,08,09,16,23,26,27,,,,,,3.3,1.7,2.9,1*23
$GAGSA,A,3,02,03,08,25,36,,,,,,,,5.1,1.5,4.9,3*3A
$GPGSV,2,1,07,07,26,313,45,08,62,182,47,09,47,293,47,16,44,035,43,1*60
$GPGSV,2,2,07,23,60,235,45,26,21,056,38,27,70,082,47,,,,,1*55
$GAGSV,2,1,05,02,42,305,42,03,41,229,42,08,30,295,41,25,52,031,42,7*7C
$GAGSV,2,2,05,36,29,151,00,,,,,,,,,,,,,7*4D
$GPRMC,061542.40,A,3046.9743368,N,10357.5037946,E,0.11,98.87,260319,0.0,E,D*0E
$GPGGA,061542.40,3046.9743368,N,10357.5037946,E,4,23,1.0,532.100,M,-40.962,M,2.4,*6F
$GPGSA,A,3,07,08,09,16,23,26,27,,,,,,3.3,1.7,2.9,1*23
$GAGSA,A,3,02,03,08,25,36,,,,,,,,5.1,1.5,4.9,3*3A
$GPGSV,2,1,07,07,26,313,45,08,62,182,47,09,47,293,47,16,44,035,43,1*60
$GPGSV,2,2,07,23,60,235,45,26,21,056,38,27,70,082,47,,,,,1*55
$GAGSV,2,1,05,02,42,305,42,03,41,229,42,08,30,294,41,25,52,031,42,7*7D
$GAGSV,2,2,05,36,29,151,00,,,,,,,,,,,,,7*4D
$GPRMC,061542.60,A,3046.9743373,N,10357.5037940,E,0.05,98.87,260319,0.0,E,D*05
$GPGGA,061542.60,3046.9743373,N,10357.5037940,E,4,23,1.0,532.101,M,-40.962,M,2.6,*62
$GPGSA,A,3,07,08,09,16,23,26,27,,,,,,3.3,1.7,2.9,1*23
$GAGSA,A,3,02,03,08,25,36,,,,,,,,5.1,1.5,4.9,3*3A
$GPGSV,2,1,07,07,26,313,45,08,62,182,47,09,47,293,47,16,44,035,43,1*60
$GPGSV,2,2,07,23,60,235,45,26,21,056,38,27,70,082,47,,,,,1*55
$GAGSV,2,1,05,02,42,305,42,03,41,229,42,08,30,294,41,25,52,031,42,7*7D
$GAGSV,2,2,05,36,29,151,00,,,,,,,,,,,,,7*4D
$GPRMC,061542.80,A,3046.9743363,N,10357.5037935,E,0.05,98.87,260319,0.0,E,D*08
$GPGGA,061542.80,3046.9743363,N,10357.5037935,E,4,23,1.0,532.101,M,-40.962,M,2.8,*61
$GPGSA,A,3,07,08,09,16,23,26,27,,,,,,3.3,1.7,2.9,1*23
$GAGSA,A,3,02,03,08,25,36,,,,,,,,5.1,1.5,4.9,3*3A
$GPGSV,2,1,07,07,26,313,45,08,62,182,47,09,47,293,47,16,44,035,44,1*67
$GPGSV,2,2,07,23,60,235,45,26,21,056,38,27,70,082,47,,,,,1*55
$GAGSV,2,1,05,02,42,305,42,03,41,229,42,08,30,294,41,25,52,031,42,7*7D
$GAGSV,2,2,05,36,29,151,00,,,,,,,,,,,,,7*4D
$GPRMC,061543.00,A,3046.9743370,N,10357.5037939,E,0.03,98.87,260319,0.0,E,D*09
$GPGGA,061543.00,3046.9743370,N,10357.5037939,E,4,23,1.0,532.101,M,-40.962,M,3.0,*6F
$GPGSA,A,3,07,08,09,16,23,26,27,,,,,,3.3,1.7,2.9,1*23
$GAGSA,A,3,02,03,08,25,36,,,,,,,,5.1,1.5,4.9,3*3A
$GPGSV,2,1,07,07,26,313,45,08,62,182,47,09,47,293,47,16,44,035,44,1*67
$GPGSV,2,2,07,23,60,235,45,26,21,056,38,27,70,082,47,,,,,1*55
$GAGSV,2,1,05,02,42,305,42,03,41,229,42,08,30,294,41,25,52,031,42,7*7D
$GAGSV,2,2,05,36,29,151,00,,,,,,,,,,,,,7*4D
$GPRMC,061543.20,A,3046.9743362,N,10357.5037936,E,0.03,98.87,260319,0.0,E,D*07
$GPGGA,061543.20,3046.9743362,N,10357.5037936,E,4,23,1.0,532.100,M,-40.962,M,1.2,*60
$GPGSA,A,3,07,08,09,16,23,26,27,,,,,,3.3,1.7,2.9,1*23
$GAGSA,A,3,02,03,08,25,36,,,,,,,,5.1,1.5,4.9,3*3A
$GPGSV,2,1,07,07,26,313,45,08,62,182,47,09,47,293,47,16,44,035,44,1*67
$GPGSV,2,2,07,23,60,235,45,26,21,056,38,27,70,082,47,,,,,1*55
$GAGSV,2,1,05,02,42,305,42,03,41,229,42,08,30,294,41,25,52,031,42,7*7D
$GAGSV,2,2,05,36,29,151,00,,,,,,,,,,,,,7*4D
$GPRMC,061543.40,A,3046.9743353,N,10357.5037935,E,0.04,98.87,260319,0.0,E,D*07
$GPGGA,061543.40,3046.9743353,N,10357.5037935,E,4,23,1.0,532.098,M,-40.962,M,1.4,*61
$GPGSA,A,3,07,08,09,16,23,26,27,,,,,,3.3,1.7,2.9,1*23
$GAGSA,A,3,02,03,08,25,36,,,,,,,,5.1,1.5,4.9,3*3A
$GPGSV,2,1,07,07,26,313,45,08,62,182,47,09,47,293,47,16,44,035,44,1*67
$GPGSV,2,2,07,23,60,235,45,26,21,056,38,27,70,082,48,,,,,1*5A
$GAGSV,2,1,05,02,42,305,42,03,41,229,42,08,30,294,41,25,52,031,42,7*7D
$GAGSV,2,2,05,36,29,151,00,,,,,,,,,,,,,7*4D
$GPRMC,061543.60,A,3046.9743350,N,10357.5037937,E,0.09,98.87,260319,0.0,E,D*09
$GPGGA,061543.60,3046.9743350,N,10357.5037937,E,4,23,1.0,532.097,M,-40.962,M,1.6,*6F
$GPGSA,A,3,07,08,09,16,23,26,27,,,,,,3.3,1.7,2.9,1*23
$GAGSA,A,3,02,03,08,25,36,,,,,,,,5.1,1.5,4.9,3*3A
$GPGSV,2,1,07,07,26,313,45,08,62,182,47,09,47,293,47,16,44,035,44,1*67
$GPGSV,2,2,07,23,60,235,45,26,21,056,38,27,70,082,48,,,,,1*5A
$GAGSV,2,1,05,02,42,305,42,03,41,229,42,08,30,294,41,25,52,031,42,7*7D
$GAGSV,2,2,05,36,29,151,00,,,,,,,,,,,,,7*4D
$GPRMC,061543.80,A,3046.9743358,N,10357.5037933,E,0.03,98.87,260319,0.0,E,D*01
$GPGGA,061543.80,3046.9743358,N,10357.5037933,E,4,23,1.0,532.097,M,-40.962,M,1.8,*63
$GPGSA,A,3,07,08,09,16,23,26,27,,,,,,3.3,1.7,2.9,1*23
$GAGSA,A,3,02,03,08,25,36,,,,,,,,5.1,1.5,4.9,3*3A
$GPGSV,2,1,07,07,26,313,45,08,62,182,47,09,47,293,47,16,44,035,44,1*67
$GPGSV,2,2,07,23,60,235,45,26,21,056,38,27,70,082,48,,,,,1*5A
$GAGSV,2,1,05,02,42,305,42,03,41,229,42,08,30,294,41,25,52,031,42,7*7D
$GAGSV,2,2,05,36,29,151,00,,,,,,,,,,,,,7*4D
$GPRMC,061544.00,A,3046.9743360,N,10357.5037934,E,0.05,98.87,260319,0.0,E,D*04
$GPGGA,061544.00,3046.9743360,N,10357.5037934,E,4,23,1.0,532.098,M,-40.962,M,2.0,*64
$GPGSA,A,3,07,08,09,16,23,26,27,,,,,,3.3,1.7,2.9,1*23
$GAGSA,A,3,02,03,08,25,36,,,,,,,,5.1,1.5,4.9,3*3A
$GPGSV,2,1,07,07,26,313,45,08,62,182,47,09,47,293,47,16,44,035,44,1*67
$GPGSV,2,2,07,23,60,235,45,26,21,056,38,27,70,082,48,,,,,1*5A
$GAGSV,2,1,05,02,42,305,42,03,41,229,42,08,30,294,41,25,52,031,42,7*7D
$GAGSV,2,2,05,36,29,151,00,,,,,,,,,,,,,7*4D
$GPRMC,061544.20,A,3046.9743359,N,10357.5037929,E,0.05,98.87,260319,0.0,E,D*00
$GPGGA,061544.20,3046.9743359,N,10357.5037929,E,4,23,1.0,532.097,M,-40.962,M,2.2,*6D
$GPGSA,A,3,07,08,09,16,23,26,27,,,,,,3.3,1.7,2.9,1*23
$GAGSA,A,3,02,03,08,25,36,,,,,,,,5.1,1.5,4.9,3*3A
$GPGSV,2,1,07,07,26,313,45,08,62,182,47,09,47,293,47,16,44,035,44,1*67
$GPGSV,2,2,07,23,60,235,45,26,21,056,38,27,70,082,48,,,,,1*5A
$GAGSV,2,1,05,02,42,305,42,03,41,229,42,08,30,294,41,25,52,031,42,7*7D
$GAGSV,2,2,05,36,29,151,00,,,,,,,,,,,,,7*4D
$GPRMC,061544.40,A,3046.9743354,N,10357.5037936,E,0.08,98.87,260319,0.0,E,D*08
$GPGGA,061544.40,3046.9743354,N,10357.5037936,E,4,23,1.0,532.095,M,-40.962,M,2.4,*6C
$GPGSA,A,3,07,08,09,16,23,26,27,,,,,,3.3,1.7,2.9,1*23
$GAGSA,A,3,02,03,08,25,36,,,,,,,,5.1,1.5,4.9,3*3A
$GPGSV,2,1,07,07,26,313,45,08,62,182,47,09,47,293,47,16,44,035,44,1*67
$GPGSV,2,2,07,23,60,235,45,26,21,056,38,27,70,082,48,,,,,1*5A
$GAGSV,2,1,05,02,42,305,42,03,41,229,42,08,30,294,41,25,52,031,42,7*7D
$GAGSV,2,2,05,36,29,151,00,,,,,,,,,,,,,7*4D
$GPRMC,061544.60,A,3046.9743356,N,10357.5037936,E,0.09,98.87,260319,0.0,E,D*09
$GPGGA,061544.60,3046.9743356,N,10357.5037936,E,4,23,1.0,532.096,M,-40.962,M,2.6,*6D
$GPGSA,A,3,07,08,09,16,23,26,27,,,,,,3.3,1.7,2.9,1*23
$GAGSA,A,3,02,03,08,25,36,,,,,,,,5.1,1.5,4.9,3*3A
$GPGSV,2,1,07,07,26,313,45,08,62,182,47,09,47,293,47,16,44,035,44,1*67
$GPGSV,2,2,07,23,60,235,45,26,21,056,38,27,70,082,48,,,,,1*5A
$GAGSV,2,1,05,02,42,305,42,03,41,229,42,08,30,294,41,25,52,031,42,7*7D
$GAGSV,2,2,05,36,29,151,00,,,,,,,,,,,,,7*4D
$GPRMC,061544.80,A,3046.9743351,N,10357.5037934,E,0.03,98.87,260319,0.0,E,D*08
