8,30,293,42,25,52,033,42,7*77
$GAGSV,2,2,05,36,31,150,00,,,,,,,,,,,,,7*45
$GPRMC,062010.80,A,3046.9742860,N,10357.5037591,E,0.05,106.49,260319,0.0,E,D*36
$GPGGA,062010.80,3046.9742860,N,10357.5037591,E,4,23,1.0,532.099,M,-40.962,M,2.8,*6B
$GPGSA,A,3,07,08,09,16,23,26,27,,,,,,3.3,1.7,2.8,1*22
$GAGSA,A,3,02,03,08,25,36,,,,,,,,5.7,1.5,5.5,3*31
$GPGSV,2,1,07,07,28,314,44,08,65,182,47,09,48,290,47,16,42,036,44,1*61
$GPGSV,2,2,07,23,58,231,45,26,19,058,41,27,69,076,48,,,,,1*5D
$GAGSV,2,1,05,02,43,307,42,03,40,227,42,08,30,293,42,25,52,033,42,7*77
$GAGSV,2,2,05,36,31,150,00,,,,,,,,,,,,,7*45
$GPRMC,062011.00,A,3046.9742865,N,10357.5037600,E,0.07,106.49,260319,0.0,E,D*33
$GPGGA,062011.00,3046.9742865,N,10357.5037600,E,4,23,1.0,532.097,M,-40.962,M,3.0,*6B
$GPGSA,A,3,07,08,09,16,23,26,27,,,,,,3.3,1.7,2.8,1*22
$GAGSA,A,3,02,03,08,25,36,,,,,,,,5.7,1.5,5.5,3*31
$GPGSV,2,1,07,07,28,314,44,08,65,182,47,09,48,290,47,16,42,036,44,1*61
$GPGSV,2,2,07,23,58,231,45,26,19,058,42,27,69,076,48,,,,,1*5E
$GAGSV,2,1,05,02,43,307,42,03,40,227,42,08,30,293,42,25,52,033,42,7*77
$GAGSV,2,2,05,36,31,150,00,,,,,,,,,,,,,7*45
$GPRMC,062011.20,A,3046.9742865,N,10357.5037596,E,0.02,106.49,260319,0.0,E,D*38
$GPGGA,062011.20,3046.9742865,N,10357.5037596,E,4,23,1.0,532.100,M,-40.962,M,1.2,*6A
$GPGSA,A,3,07,08,09,16,23,26,27,,,,,,3.3,1.7,2.8,1*22
$GAGSA,A,3,02,03,08,25,36,,,,,,,,5.7,1.5,5.5,3*31
$GPGSV,2,1,07,07,28,314,44,08,65,182,47,09,48,290,47,16,42,036,44,1*61
$GPGSV,2,2,07,23,58,231,45,26,19,058,42,27,69,076,48,,,,,1*5E
$GAGSV,2,1,05,02,43,307,42,03,40,227,42,08,30,293,42,25,52,033,42,7*77
$GAGSV,2,2,05,36,31,150,00,,,,,,,,,,,,,7*45
$GPRMC,062011.40,A,3046.9742860,N,10357.5037591,E,0.03,106.49,260319,0.0,E,D*3D
$GPGGA,062011.40,3046.9742860,N,10357.5037591,E,4,23,1.0,532.100,M,-40.962,M,1.4,*68
$GPGSA,A,3,07,08,09,16,23,26,27,,,,,,3.3,1.7,2.8,1*22
$GAGSA,A,3,02,03,08,25,36,,,,,,,,5.7,1.5,5.5,3*31
$GPGSV,2,1,07,07,28,314,44,08,65,182,47,09,48,290,47,16,42,036,44,1*61
$GPGSV,2,2,07,23,58,231,45,26,19,058,41,27,69,076,48,,,,,1*5D
$GAGSV,2,1,05,02,43,307,42,03,40,227,42,08,30,293,42,25,52,033,42,7*77
$GAGSV,2,2,05,36,31,150,00,,,,,,,,,,,,,7*45
$GPRMC,062011.60,A,3046.9742862,N,10357.5037599,E,0.04,106.49,260319,0.0,E,D*32
$GPGGA,062011.60,3046.9742862,N,10357.5037599,E,4,23,1.0,532.099,M,-40.962,M,1.6,*63
$GPGSA,A,3,07,08,09,16,23,26,27,,,,,,3.3,1.7,2.8,1*22
$GAGSA,A,3,02,03,08,25,36,,,,,,,,5.7,1.5,5.5,3*31
$GPGSV,2,1,07,07,28,314,44,08,65,182,47,09,48,290,47,16,42,036,45,1*60
$GPGSV,2,2,07,23,58,231,45,26,19,058,41,27,69,076,48,,,,,1*5D
$GAGSV,2,1,05,02,43,307,42,03,40,227,42,08,30,293,42,25,52,033,43,7*76
$GAGSV,2,2,05,36,31,150,00,,,,,,,,,,,,,7*45
$GPRMC,062011.80,A,3046.9742855,N,10357.5037596,E,0.05,106.49,260319,0.0,E,D*36
$GPGGA,062011.80,3046.9742855,N,10357.5037596,E,4,23,1.0,532.099,M,-40.962,M,1.8,*68
$GPGSA,A,3,07,08,09,16,23,26,27,,,,,,3.3,1.7,2.8,1*22
$GAGSA,A,3,02,03,08,25,36,,,,,,,,5.7,1.5,5.5,3*31
$GPGSV,2,1,07,07,28,314,44,08,65,182,47,09,48,290,47,16,42,036,45,1*60
$GPGSV,2,2,07,23,58,231,45,26,19,058,41,27,69,076,48,,,,,1*5D
$GAGSV,2,1,05,02,43,307,42,03,40,227,42,08,30,293,42,25,52,033,43,7*76
$GAGSV,2,2,05,36,31,150,00,,,,,,,,,,,,,7*45
$GPRMC,062012.00,A,3046.9742866,N,10357.5037594,E,0.08,106.49,260319,0.0,E,D*32
$GPGGA,062012.00,3046.9742866,N,10357.5037594,E,4,23,1.0,532.100,M,-40.962,M,2.0,*6B
$GPGSA,A,3,07,08,09,16,23,26,27,,,,,,3.3,1.7,2.8,1*22
$GAGSA,A,3,02,03,08,25,36,,,,,,,,5.7,1.5,5.5,3*31
$GPGSV,2,1,07,07,28,314,44,08,65,182,47,09,48,290,47,16,42,036,45,1*60
$GPGSV,2,2,07,23,58,231,45,26,19,058,41,27,69,076,48,,,,,1*5D
$GAGSV,2,1,05,02,43,307,42,03,40,227,42,08,30,293,42,25,52,033,43,7*76
$GAGSV,2,2,05,36,31,150,00,,,,,,,,,,,,,7*45
$GPRMC,062012.20,A,3046.9742860,N,10357.5037599,E,0.07,106.49,260319,0.0,E,D*34
$GPGGA,062012.20,3046.9742860,N,10357.5037599,E,4,23,1.0,532.097,M,-40.962,M,2.2,*6F
$GPGSA,A,3,07,08,09,16,23,26,27,,,,,,3.3,1.7,2.8,1*22
$GAGSA,A,3,02,03,08,25,36,,,,,,,,5.7,1.5,5.5,3*31
$GPGSV,2,1,07,07,28,314,44,08,65,182,47,09,48,290,47,16,42,036,45,1*60
$GPGSV,2,2,07,23,58,231,45,26,19,058,41,27,69,076,48,,,,,1*5D
$GAGSV,2,1,05,02,43,307,42,03,40,227,42,08,30,293,42,25,52,033,43,7*76
$GAGSV,2,2,05,36,31,150,00,,,,,,,,,,,,,7*45
$GPRMC,062012.40,A,3046.9742852,N,10357.5037602,E,0.04,106.49,260319,0.0,E,D*31
$GPGGA,062012.40,3046.9742852,N,10357.5037602,E,4,23,1.0,532.095,M,-40.962,M,2.4,*6D
$GPGSA,A,3,07,08,09,16,23,26,27,,,,,,3.3,1.7,2.8,1*22
$GAGSA,A,3,02,03,08,25,36,,,,,,,,5.7,1.5,5.5,3*31
$GPGSV,2,1,07,07,28,314,44,08,65,182,47,09,48,290,47,16,42,036,45,1*60
$GPGSV,2,2,07,23,58,231,45,26,19,058,41,27,69,076,48,,,,,1*5D
$GAGSV,2,1,05,02,43,307,42,03,40,227,42,08,30,293,42,25,52,033,43,7*76
$GAGSV,2,2,05,36,31,150,00,,,,,,,,,,,,,7*45
$GPRMC,062012.60,A,3046.9742858,N,10357.5037601,E,0.02,106.49,260319,0.0,E,D*3C
$GPGGA,062012.60,3046.9742858,N,10357.5037601,E,4,23,1.0,532.094,M,-40.962,M,2.6,*65
$GPGSA,A,3,07,08,09,16,23,26,27,,,,,,3.3,1.7,2.8,1*22
$GAGSA,A,3,02,03,08,25,36,,,,,,,,5.7,1.5,5.5,3*31
$GPGSV,2,1,07,07,28,314,45,08,65,182,47,09,48,290,47,16,42,036,44,1*60
$GPGSV,2,2,07,23,58,231,45,26,19,058,41,27,69,076,48,,,,,1*5D
$GAGSV,2,1,05,02,43,307,42,03,40,227,42,08,30,293,42,25,52,033,43,7*76
$GAGSV,2,2,05,36,31,150,00,,,,,,,,,,,,,7*45
$GPRMC,062012.80,A,3046.9742861,N,10357.5037602,E,0.05,106.49,260319,0.0,E,D*3C
$GPGGA,062012.80,3046.9742861,N,10357.5037602,E,4,23,1.0,532.094,M,-40.962,M,2.8,*6C
$GPGSA,A,3,07,08,09,16,23,26,27,,,,,,3.3,1.7,2.8,1*22
$GAGSA,A,3,02,03,08,25,36,,,,,,,,5.7,1.5,5.5,3*31
$GPGSV,2,1,07,07,28,314,45,08,65,182,47,09,48,290,47,16,42,036,44,1*60
$GPGSV,2,2,07,23,58,231,45,26,19,058,41,27,69,076,48,,,,,1*5D
$GAGSV,2,1,05,02,43,307,42,03,40,227,42,08,30,293,42,25,52,033,42,7*77
$GAGSV,2,2,05,36,31,150,00,,,,,,,,,,,,,7*45
$GPRMC,062013.00,A,3046.9742855,N,10357.5037606,E,0.01,106.49,260319,0.0,E,D*32
$GPGGA,062013.00,3046.9742855,N,10357.5037606,E,4,23,1.0,532.094,M,-40.962,M,3.0,*6F
$GPGSA,A,3,07,08,09,16,23,26,27,,,,,,3.3,1.7,2.8,1*22
$GAGSA,A,3,02,03,08,25,36,,,,,,,,5.7,1.5,5.5,3*31
$GPGSV,2,1,07,07,28,314,45,08,65,182,47,09,48,290,47,16,42,036,44,1*60
$GPGSV,2,2,07,23,58,231,45,26,19,058,41,27,69,076,48,,,,,1*5D
$GAGSV,2,1,05,02,43,307,42,03,40,227,42,08,30,293,42,25,52,033,42,7*77
$GAGSV,2,2,05,36,31,150,00,,,,,,,,,,,,,7*45
$GPRMC,062013.20,A,3046.9742861,N,10357.5037604,E,0.05,106.49,260319,0.0,E,D*31
$GPGGA,062013.20,3046.9742861,N,10357.5037604,E,4,23,1.0,532.099,M,-40.962,M,1.2,*65
$GPGSA,A,3,07,08,09,16,23,26,27,,,,,,3.3,1.7,2.8,1*22
$GAGSA,A,3,02,03,08,25,36,,,,,,,,5.7,1.5,5.5,3*31
$GPGSV,2,1,07,07,28,314,45,08,65,182,47,09,48,290,47,16,42,036,44,1*60
$GPGSV,2,2,07,23,58,231,45,26,19,058,41,27,69,076,48,,,,,1*5D
$GAGSV,2,1,05,02,43,307,42,03,40,227,42,08,30,293,42,25,52,033,42,7*77
$GAGSV,2,2,05,36,31,150,00,,,,,,,,,,,,,7*45
$GPRMC,062013.40,A,3046.9742857,N,10357.5037611,E,0.15,106.49,260319,0.0,E,D*37
$GPGGA,062013.40,3046.9742857,N,10357.5037611,E,4,23,1.0,532.097,M,-40.962,M,1.4,*6A
$GPGSA,A,3,07,08,09,16,23,26,27,,,,,,3.3,1.7,2.8,1*22
$GAGSA,A,3,02,03,08,25,36,,,,,,,,5.7,1.5,5.5,3*31
$GPGSV,2,1,07,07,28,314,45,08,65,182,47,09,48,290,47,16,42,036,44,1*60
$GPGSV,2,2,07,23,58,231,45,26,19,058,41,27,69,076,48,,,,,1*5D
$GAGSV,2,1,05,02,43,307,42,03,40,227,42,08,30,293,42,25,52,033,43,7*76
$GAGSV,2,2,05,36,31,150,00,,,,,,,,,,,,,7*45
$GPRMC,062013.60,A,3046.9742855,N,10357.5037612,E,0.16,106.49,260319,0.0,E,D*37
$GPGGA,062013.60,3046.9742855,N,10357.5037612,E,4,23,1.0,532.094,M,-40.962,M,1.6,*68
$GPGSA,A,3,07,08,09,16,23,26,27,,,,,,3.3,1.7,2.8,1*22
$GAGSA,A,3,02,03,08,25,36,,,,,,,,5.7,1.5,5.5,3*31
$GPGSV,2,1,07,07,28,314,45,08,65,182,47,09,48,290,47,16,42,036,44,1*60
$GPGSV,2,2,07,23,58,231,45,26,19,058,41,27,69,076,48,,,,,1*5D
$GAGSV,2,1,05,02,43,307,42,03,40,227,42,08,30,293,42,25,52,033,43,7*76
$GAGSV,2,2,05,36,31,150,00,,,,,,,,,,,,,7*45
$GPRMC,062013.80,A,3046.9742852,N,10357.5037607,E,0.04,106.49,260319,0.0,E,D*39
$GPGGA,062013.80,3046.9742852,N,10357.5037607,E,4,23,1.0,532.095,M,-40.962,M,1.8,*6A
$GPGSA,A,3,07,08,09,16,23,26,27,,,,,,3.3,1.7,2.8,1*22
$GAGSA,A,3,02,03,08,25,36,,,,,,,,5.7,1.5,5.5,3*31
$GPGSV,2,1,07,07,28,314,45,08,65,182,47,09,48,290,47,16,42,036,44,1*60
$GPGSV,2,2,07,23,58,231,45,26,19,058,42,27,69,076,48,,,,,1*5E
$GAGSV,2,1,05,02,43,307,42,03,40,227,42,08,30,293,42,25,52,033,43,7*76
$GAGSV,2,2,05,36,31,150,00,,,,,,,,,,,,,7*45
$GPRMC,062014.00,A,3046.9742862,N,10357.5037608,E,0.04,106.49,260319,0.0,E,D*3A
$GPGGA,062014.00,3046.9742862,N,10357.5037608,E,4,23,1.0,532.095,M,-40.962,M,2.0,*62
$GPGSA,A,3,07,08,09,16,23,26,27,,,,,,3.3,1.7,2.8,1*22
$GAGSA,A,3,02,03,08,25,36,,,,,,,,5.7,1.5,5.5,3*31
$GPGSV,2,1,07,07,28,314,45,08,65,182,47,09,48,290,47,16,42,036,44,1*60
$GPGSV,2,2,07,23,58,231,45,26,19,058,42,27,69,076,48,,,,,1*5E
$GAGSV,2,1,05,02,43,307,42,03,40,227,42,08,30,293,42,25,52,033,43,7*76
$GAGSV,2,2,05,36,31,150,00,,,,,,,,,,,,,7*45
$GPRMC,062014.20,A,3046.9742861,N,10357.5037608,E,0.04,106.49,260319,0.0,E,D*3B
$GPGGA,062014.20,3046.9742861,N,10357.5037608,E,4,23,1.0,532.094,M,-40.962,M,2.2,*60
$GPGSA,A,3,07,08,09,16,23,26,27,,,,,,3.3,1.7,2.8,1*22
$GAGSA,A,3,02,03,08,25,36,,,,,,,,5.7,1.5,5.5,3*31
$GPGSV,2,1,07,07,28,314,45,08,65,182,47,09,48,290,47,16,42,036,44,1*60
$GPGSV,2,2,07,23,58,231,45,26,19,058,42,27,69,076,48,,,,,1*5E
$GAGSV,2,1,05,02,43,307,42,03,40,227,42,08,30,293,42,25,52,033,43,7*76
$GAGSV,2,2,05,36,31,150,00,,,,,,,,,,,,,7*45
$GPRMC,062014.40,A,3046.9742858,N,10357.5037612,E,0.06,106.49,260319,0.0,E,D*3E
$GPGGA,062014.40,3046.9742858,N,10357.5037612,E,4,23,1.0,532.093,M,-40.962,M,2.4,*66
$GPGSA,A,3,07,08,09,16,23,26,27,,,,,,3.3,1.7,2.8,1*22
$GAGSA,A,3,02,03,08,25,36,,,,,,,,5.7,1.5,5.5,3*31
$GPGSV,2,1,07,07,28,314,45,08,65,182,47,09,48,290,47,16,42,036,44,1*60
$GPGSV,2,2,07,23,58,231,45,26,19,058,41,27,69,076,48,,,,,1*5D
$GAGSV,2,1,05,02,43,307,42,03,40,227,42,08,30,293,42,25,52,033,42,7*77
$GAGSV,2,2,05,36,31,150,00,,,,,,,,,,,,,7*45
$GPRMC,062014.60,A,3046.9742856,N,10357.5037611,E,0.06,106.49,260319,0.0,E,D*31
$GPGGA,062014.60,3046.9742856,N,10357.5037611,E,4,23,1.0,532.093,M,-40.962,M,2.6,*6B
$GPGSA,A,3,07,08,09,16,23,26,27,,,,,,3.3,1.7,2.8,1*22
$GAGSA,A,3,02,03,08,25,36,,,,,,,,5.7,1.5,5.5,3*31
$GPGSV,2,1,07,07,28,314,45,08,65,182,47,09,48,290,47,16,42,036,44,1*60
$GPGSV,2,2,07,23,58,231,45,26,19,058,41,27,69,076,48,,,,,1*5D
$GAGSV,2,1,05,02,43,307,42,03,40,227,42,08,30,293,42,25,52,033,42,7*77
$GAGSV,2,2,05,36,31,150,00,,,,,,,,,,,,,7*45
$GPRMC,062014.80,A,3046.9742856,N,10357.5037612,E,0.01,106.49,260319,0.0,E,D*3B
$GPGGA,062014.80,3046.9742856,N,10357.5037612,E,4,23,1.0,532.093,M,-40.962,M,2.8,*68
$GPGSA,A,3,07,08,09,16,23,26,27,,,,,,3.3,1.7,2.8,1*22
$GAGSA,A,3,02,03,08,25,36,,,,,,,,5.7,1.5,5.5,3*31
$GPGSV,2,1,07,07,28,314,45,08,65,182,47,09,48,290,47,16,42,036,44,1*60
$GPGSV,2,2,07,23,58,231,45,26,19,058,41,27,69,076,48,,,,,1*5D
$GAGSV,2,1,05,02,43,307,42,03,40,227,42,08,30,293,42,25,52,033,42,7*77
$GAGSV,2,2,05,36,31,150,00,,,,,,,,,,,,,7*45
$GPRMC,062015.00,A,3046.9742859,N,10357.5037611,E,0.01,106.49,260319,0.0,E,D*3E
$GPGGA,062015.00,3046.9742859,N,10357.5037611,E,4,23,1.0,532.093,M,-40.962,M,3.0,*64
$GPGSA,A,3,07,08,09,16,23,26,27,,,,,,3.3,1.7,2.8,1*22
$GAGSA,A,3,02,03,08,25,36,,,,,,,,5.7,1.5,5.5,3*31
$GPGSV,2,1,07,07,28,314,45,08,65,182,47,09,48,290,47,16,42,036,44,1*60
$GPGSV,2,2,07,23,58,231,45,26,19,058,41,27,69,076,48,,,,,1*5D
$GAGSV,2,1,05,02,43,307,42,03,40,227,42,08,30,293,42,25,52,033,43,7*76
$GAGSV,2,2,05,36,31,150,00,,,,,,,,,,,,,7*45
$GPRMC,062015.20,A,3046.9742869,N,10357.5037602,E,0.04,106.49,260319,0.0,E,D*38
$GPGGA,062015.20,3046.9742869,N,10357.5037602,E,4,23,1.0,532.099,M,-40.962,M,1.2,*6D
$GPGSA,A,3,07,08,09,16,23,26,27,,,,,,3.3,1.7,2.8,1*22
$GAGSA,A,3,02,03,08,25,36,,,,,,,,5.7,1.5,5.5,3*31
$GPGSV,2,1,07,07,28,314,45,08,65,182,47,09,48,290,47,16,42,036,44,1*60
$GPGSV,2,2,07,23,58,231,45,26,19,058,41,27,69,076,48,,,,,1*5D
$GAGSV,2,1,05,02,43,307,42,03,40,227,42,08,30,293,42,25,52,033,42,7*77
$GAGSV,2,2,05,36,31,150,00,,,,,,,,,,,,,7*45
$GPRMC,062015.40,A,3046.9742863,N,10357.5037608,E,0.04,106.49,260319,0.0,E,D*3E
$GPGGA,062015.40,3046.9742863,N,10357.5037608,E,4,23,1.0,532.100,M,-40.962,M,1.4,*6C
$GPGSA,A,3,07,08,09,16,23,26,27,,,,,,3.3,1.7,2.8,1*22
$GAGSA,A,3,02,03,08,25,36,,,,,,,,5.7,1.5,5.5,3*31
$GPGSV,2,1,07,07,28,314,45,08,65,182,47,09,48,290,47,16,42,036,44,1*60
$GPGSV,2,2,07,23,58,231,45,26,19,058,41,27,69,076,48,,,,,1*5D
$GAGSV,2,1,05,02,43,307,42,03,40,227,42,08,30,293,42,25,52,033,43,7*76
$GAGSV,2,2,05,36,31,150,00,,,,,,,,,,,,,7*45
$GPRMC,062015.60,A,3046.9742869,N,10357.5037604,E,0.05,106.49,260319,0.0,E,D*3B
$GPGGA,062015.60,3046.9742869,N,10357.5037604,E,4,23,1.0,532.099,M,-40.962,M,1.6,*6B
$GPGSA,A,3,07,08,09,16,23,26,27,,,,,,3.3,1.7,2.8,1*22
$GAGSA,A,3,02,03,08,25,36,,,,,,,,5.7,1.5,5.5,3*31
$GPGSV,2,1,07,07,28,314,45,08,65,182,47,09,48,290,47,16,42,036,44,1*60
$GPGSV,2,2,07,23,58,231,45,26,19,058,41,27,69,076,48,,,,,1*5D
$GAGSV,2,1,05,02,43,307,42,03,40,227,42,08,30,293,42,25,52,033,43,7*76
$GAGSV,2,2,05,36,31,150,00,,,,,,,,,,,,,7*45
$GPRMC,062015.80,A,3046.9742873,N,10357.5037605,E,0.04,106.49,260319,0.0,E,D*3E
$GPGGA,062015.80,3046.9742873,N,10357.5037605,E,4,23,1.0,532.100,M,-40.962,M,1.8,*60
$GPGSA,A,3,07,08,09,16,23,26,27,,,,,,3.3,1.7,2.8,1*22
$GAGSA,A,3,02,03,08,25,36,,,,,,,,5.7,1.5,5.5,3*31
$GPGSV,2,1,07,07,28,314,45,08,65,182,47,09,48,290,47,16,42,036,44,1*60
$GPGSV,2,2,07,23,58,231,45,26,19,058,41,27,69,076,48,,,,,1*5D
$GAGSV,2,1,05,02,43,307,42,03,40,227,42,08,30,293,42,25,52,033,43,7*76
$GAGSV,2,2,05,36,31,150,00,,,,,,,,,,,,,7*45
$GPRMC,062016.00,A,3046.9742875,N,10357.5037602,E,0.06,106.49,260319,0.0,E,D*36
$GPGGA,062016.00,3046.9742875,N,10357.5037602,E,4,23,1.0,532.101,M,-40.962,M,2.0,*60
$GPGSA,A,3,07,08,09,16,23,26,27,,,,,,3.3,1.7,2.8,1*22
$GAGSA,A,3,02,03,08,25,36,,,,,,,,5.7,1.5,5.5,3*31
$GPGSV,2,1,07,07,28,314,45,08,65,182,47,09,48,290,47,16,42,036,44,1*60
$GPGSV,2,2,07,23,58,231,45,26,19,058,41,27,69,076,48,,,,,1*5D
$GAGSV,2,1,05,02,43,307,42,03,40,227,42,08,30,293,42,25,52,033,43,7*76
$GAGSV,2,2,05,36,31,150,00,,,,,,,,,,,,,7*45
$GPRMC,062016.20,A,3046.9742872,N,10357.5037603,E,0.03,106.49,260319,0.0,E,D*37
$GPGGA,062016.20,3046.9742872,N,10357.5037603,E,4,23,1.0,532.102,M,-40.962,M,2.2,*65
$GPGSA,A,3,07,08,09,16,23,26,27,,,,,,3.3,1.7,2.8,1*22
$GAGSA,A,3,02,03,08,25,36,,,,,,,,5.7,1.5,5.5,3*31
$GPGSV,2,1,07,07,28,314,45,08,65,182,47,09,48,290,47,16,42,036,44,1*60
$GPGSV,2,2,07,23,58,231,45,26,19,058,41,27,69,076,48,,,,,1*5D
$GAGSV,2,1,05,02,43,307,42,03,40,227,42,08,30,293,42,25,52,033,42,7*77
$GAGSV,2,2,05,36,31,150,00,,,,,,,,,,,,,7*45
$GPRMC,062016.40,A,3046.9742874,N,10357.5037598,E,0.04,106.49,260319,0.0,E,D*31
$GPGGA,062016.40,3046.9742874,N,10357.5037598,E,4,23,1.0,532.101,M,-40.962,M,2.4,*61
$GPGSA,A,3,07,08,09,16,23,26,27,,,,,,3.3,1.7,2.8,1*22
$GAGSA,A,3,02,03,08,25,36,,,,,,,,5.7,1.5,5.5,3*31
$GPGSV,2,1,07,07,28,314,45,08,65,182,47,09,48,290,47,16,42,036,44,1*60
$GPGSV,2,2,07,23,58,231,45,26,19,058,41,27,69,076,48,,,,,1*5D
$GAGSV,2,1,05,02,43,307,42,03,40,227,42,08,30,293,42,25,52,033,42,7*77
$GAGSV,2,2,05,36,31,150,00,,,,,,,,,,,,,7*45
$GPRMC,062016.60,A,3046.9742879,N,10357.5037601,E,0.03,106.49,260319,0.0,E,D*3A
$GPGGA,062016.60,3046.9742879,N,10357.5037601,E,4,23,1.0,532.100,M,-40.962,M,2.6,*6E
$GPGSA,A,3,07,08,09,16,23,26,27,,,,,,3.3,1.7,2.8,1*22
$GAGSA,A,3,02,03,08,25,36,,,,,,,,5.7,1.5,5.5,3*31
$GPGSV,2,1,07,07,28,314,45,08,65,182,47,09,48,290,47,16,42,036,44,1*60
$GPGSV,2,2,07,23,58,231,45,26,19,058,41,27,69,076,48,,,,,1*5D
$GAGSV,2,1,05,02,43,307,42,03,40,227,42,08,30,293,42,25,52,033,42,7*77
$GAGSV,2,2,05,36,31,150,00,,,,,,,,,,,,,7*45
$GPRMC,062016.80,A,3046.9742883,N,10357.5037606,E,0.12,106.49,260319,0.0,E,D*36
$GPGGA,062016.80,3046.9742883,N,10357.5037606,E,4,23,1.0,532.099,M,-40.962,M,2.8,*6D
$GPGSA,A,3,07,08,09,16,23,26,27,,,,,,3.3,1.7,2.8,1*22
$GAGSA,A,3,02,03,08,25,36,,,,,,,,5.7,1.5,5.5,3*31
$GPGSV,2,1,07,07,28,314,45,08,65,182,47,09,48,290,47,16,42,036,44,1*60
$GPGSV,2,2,07,23,58,231,45,26,19,058,41,27,69,076,48,,,,,1*5D
$GAGSV,2,1,05,02,43,307,42,03,40,227,42,08,30,293,42,25,52,033,42,7*77
$GAGSV,2,2,05,36,31,150,00,,,,,,,,,,,,,7*45
$GPRMC,062017.00,A,3046.9742873,N,10357.5037599,E,0.03,106.49,260319,0.0,E,D*35
$GPGGA,062017.00,3046.9742873,N,10357.5037599,E,4,23,1.0,532.098,M,-40.962,M,3.0,*66
$GPGSA,A,3,07,08,09,16,23,26,27,,,,,,3.3,1.7,2.8,1*22
$GAGSA,A,3,02,03,08,25,36,,,,,,,,5.7,1.5,5.5,3*31
$GPGSV,2,1,07,07,28,314,45,08,65,182,47,09,48,290,47,16,42,036,44,1*60
$GPGSV,2,2,07,23,58,231,45,26,19,058,41,27,69,076,48,,,,,1*5D
$GAGSV,2,1,05,02,43,307,42,03,40,227,42,08,30,293,42,25,52,033,42,7*77
$GAGSV,2,2,05,36,31,150,00,,,,,,,,,,,,,7*45
$GPRMC,062017.20,A,3046.9742869,N,10357.5037602,E,0.03,106.49,260319,0.0,E,D*3D
$GPGGA,062017.20,3046.9742869,N,10357.5037602,E,4,23,1.0,532.100,M,-40.962,M,1.2,*6E
$GPGSA,A,3,07,08,09,16,23,26,27,,,,,,3.3,1.7,2.8,1*22
$GAGSA,A,3,02,03,08,25,36,,,,,,,,5.7,1.5,5.5,3*31
$GPGSV,2,1,07,07,28,314,45,08,65,182,47,09,48,290,47,16,42,036,44,1*60
$GPGSV,2,2,07,23,58,231,45,26,19,058,41,27,69,076,48,,,,,1*5D
$GAGSV,2,1,05,02,43,307,42,03,40,227,42,08,30,293,42,25,52,033,42,7*77
$GAGSV,2,2,05,36,31,150,00,,,,,,,,,,,,,7*45
$GPRMC,062017.40,A,3046.9742867,N,10357.5037603,E,0.04,106.49,260319,0.0,E,D*33
$GPGGA,062017.40,3046.9742867,N,10357.5037603,E,4,23,1.0,532.098,M,-40.962,M,1.4,*61
$GPGSA,A,3,07,08,09,16,23,26,27,,,,,,3.3,1.7,2.8,1*22
$GAGSA,A,3,02,03,08,25,36,,,,,,,,5.7,1.5,5.5,3*31
$GPGSV,2,1,07,07,28,314,45,08,65,182,47,09,48,290,47,16,42,036,44,1*60
$GPGSV,2,2,07,23,58,231,45,26,19,058,41,27,69,076,48,,,,,1*5D
$GAGSV,2,1,05,02,43,307,42,03,40,227,42,08,30,293,42,25,52,033,42,7*77
$GAGSV,2,2,05,36,31,150,00,,,,,,,,,,,,,7*45
$GPRMC,062017.60,A,3046.9742866,N,10357.5037607,E,0.04,106.49,260319,0.0,E,D*34
$GPGGA,062017.60,3046.9742866,N,10357.5037607,E,4,23,1.0,532.098,M,-40.962,M,1.6,*64
$GPGSA,A,3,07,08,09,16,23,26,27,,,,,,3.3,1.7,2.8,1*22
$GAGSA,A,3,02,03,08,25,36,,,,,,,,5.7,1.5,5.5,3*31
$GPGSV,2,1,07,07,28,314,45,08,65,182,47,09,48,290,47,16,42,036,44,1*60
$GPGSV,2,2,07,23,58,231,45,26,19,058,42,27,69,076,48,,,,,1*5E
$GAGSV,2,1,05,02,43,307,42,03,40,227,42,08,30,293,42,25,52,033,42,7*77
$GAGSV,2,2,05,36,31,150,00,,,,,,,,,,,,,7*45
$GPRMC,062017.80,A,3046.9742863,N,10357.5037606,E,0.07,106.49,260319,0.0,E,D*3D
$GPGGA,062017.80,3046.9742863,N,10357.5037606,E,4,23,1.0,532.098,M,-40.962,M,1.8,*60
$GPGSA,A,3,07,08,09,16,23,26,27,,,,,,3.3,1.7,2.8,1*22
$GAGSA,A,3,02,03,08,25,36,,,,,,,,5.7,1.5,5.5,3*31
$GPGSV,2,1,07,07,28,314,45,08,65,182,47,09,48,290,47,16,42,036,44,1*60
$GPGSV,2,2,07,23,58,231,45,26,19,058,42,27,69,076,48,,,,,1*5E
$GAGSV,2,1,05,02,43,307,42,03,40,227,42,08,30,293,42,25,52,033,42,7*77
$GAGSV,2,2,05,36,31,150,00,,,,,,,,,,,,,7*45
$GPRMC,062018.00,A,3046.9742861,N,10357.5037605,E,0.09,106.49,260319,0.0,E,D*35
$GPGGA,062018.00,3046.9742861,N,10357.5037605,E,4,23,1.0,532.098,M,-40.962,M,2.0,*6D
$GPGSA,A,3,07,08,09,16,23,26,27,,,,,,3.3,1.7,2.8,1*22
$GAGSA,A,3,02,03,08,25,36,,,,,,,,5.7,1.5,5.5,3*31
$GPGSV,2,1,07,07,28,314,45,08,65,182,47,09,48,290,47,16,42,036,44,1*60
$GPGSV,2,2,07,23,58,231,45,26,19,058,42,27,69,076,48,,,,,1*5E
$GAGSV,2,1,05,02,43,307,43,03,40,227,42,08,30,293,42,25,52,033,42,7*76
$GAGSV,2,2,05,36,31,150,00,,,,,,,,,,,,,7*45
$GPRMC,062018.20,A,3046.9742861,N,10357.5037615,E,0.15,106.49,260319,0.0,E,D*3B
$GPGGA,062018.20,3046.9742861,N,10357.5037615,E,4,23,1.0,532.095,M,-40.962,M,2.2,*61
$GPGSA,A,3,07,08,09,16,23,26,27,,,,,,3.3,1.7,2.8,1*22
$GAGSA,A,3,02,03,08,25,36,,,,,,,,5.7,1.5,5.5,3*31
$GPGSV,2,1,07,07,28,314,45,08,65,182,47,09,48,290,47,16,42,036,44,1*60
$GPGSV,2,2,07,23,58,231,45,26,19,058,41,27,69,076,48,,,,,1*5D
$GAGSV,2,1,05,02,43,307,43,03,40,227,42,08,30,293,42,25,52,033,42,7*76
$GAGSV,2,2,05,36,31,150,00,,,,,,,,,,,,,7*45
$GPRMC,062018.40,A,3046.9742858,N,10357.5037611,E,0.03,106.49,260319,0.0,E,D*34
$GPGGA,062018.40,3046.9742858,N,10357.5037611,E,4,23,1.0,532.096,M,-40.962,M,2.4,*6C
$GPGSA,A,3,07,08,09,16,23,26,27,,,,,,3.3,1.7,2.8,1*22
$GAGSA,A,3,02,03,08,25,36,,,,,,,,5.7,1.5,5.5,3*31
$GPGSV,2,1,07,07,28,314,45,08,65,182,47,09,48,290,48,16,42,036,44,1*6F
$GPGSV,2,2,07,23,58,231,45,26,19,058,41,27,69,076,48,,,,,1*5D
$GAGSV,2,1,05,02,43,307,43,03,40,227,42,08,30,293,42,25,52,033,42,7*76
$GAGSV,2,2,05,36,31,150,00,,,,,,,,,,,,,7*45
$GPRMC,062018.60,A,3046.9742860,N,10357.5037608,E,0.08,106.49,260319,0.0,E,D*3E
$GPGGA,062018.60,3046.9742860,N,10357.5037608,E,4,23,1.0,532.096,M,-40.962,M,2.6,*6F
$GPGSA,A,3,07,08,09,16,23,26,27,,,,,,3.3,1.7,2.8,1*22
$GAGSA,A,3,02,03,08,25,36,,,,,,,,5.7,1.5,5.5,3*31
$GPGSV,2,1,07,07,28,314,45,08,65,182,47,09,48,290,47,16,42,036,44,1*60
$GPGSV,2,2,07,23,58,231,45,26,19,058,42,27,69,076,48,,,,,1*5E
$GAGSV,2,1,05,02,43,307,43,03,40,227,42,08,30,293,42,25,52,033,42,7*76
$GAGSV,2,2,05,36,31,150,00,,,,,,,,,,,,,7*45
$GPRMC,062018.80,A,3046.9742850,N,10357.5037609,E,0.06,106.49,260319,0.0,E,D*3C
$GPGGA,062018.80,3046.9742850,N,10357.5037609,E,4,23,1.0,532.095,M,-40.962,M,2.8,*6E
$GPGSA,A,3,07,08,09,16,23,26,27,,,,,,3.3,1.7,2.8,1*22
$GAGSA,A,3,02,03,08,25,36,,,,,,,,5.7,1.5,5.5,3*31
$GPGSV,2,1,07,07,28,314,45,08,65,182,47,09,48,290,47,16,42,036,44,1*60
$GPGSV,2,2,07,23,58,231,45,26,19,058,42,27,69,076,48,,,,,1*5E
$GAGSV,2,1,05,02,43,307,43,03,40,227,42,08,30,293,42,25,52,033,42,7*76
$GAGSV,2,2,05,36,31,150,00,,,,,,,,,,,,,7*45
$GPRMC,062019.00,A,3046.9742862,N,10357.5037611,E,0.01,106.49,260319,0.0,E,D*3A
$GPGGA,062019.00,3046.9742862,N,10357.5037611,E,4,23,1.0,532.096,M,-40.962,M,3.0,*65
$GPGSA,A,3,07,08,09,16,23,26,27,,,,,,3.3,1.7,2.8,1*22
$GAGSA,A,3,02,03,08,25,36,,,,,,,,5.7,1.5,5.5,3*31
$GPGSV,2,1,07,07,28,314,45,08,65,182,47,09,48,290,47,16,42,036,44,1*60
$GPGSV,2,2,07,23,58,231,45,26,19,058,42,27,69,076,48,,,,,1*5E
$GAGSV,2,1,05,02,43,307,43,03,40,227,42,08,30,293,42,25,52,033,42,7*76
$GAGSV,2,2,05,36,31,150,00,,,,,,,,,,,,,7*45
$GPRMC,062019.20,A,3046.9742859,N,10357.5037607,E,0.05,106.49,260319,0.0,E,D*33
$GPGGA,062019.20,3046.9742859,N,10357.5037607,E,4,23,1.0,532.098,M,-40.962,M,1.2,*66
$GPGSA,A,3,07,08,09,16,23,26,27,,,,,,3.3,1.7,2.8,1*22
$GAGSA,A,3,02,03,08,25,36,,,,,,,,5.7,1.5,5.5,3*31
$GPGSV,2,1,07,07,28,314,45,08,65,182,47,09,48,290,47,16,42,036,44,1*60
$GPGSV,2,2,07,23,58,231,45,26,19,058,42,27,69,076,48,,,,,1*5E
$GAGSV,2,1,05,02,43,307,43,03,40,227,42,08,30,293,42,25,52,033,42,7*76
$GAGSV,2,2,05,36,31,150,00,,,,,,,,,,,,,7*45
$GPRMC,062019.40,A,3046.9742852,N,10357.5037609,E,0.05,106.49,260319,0.0,E,D*30
$GPGGA,062019.40,3046.9742852,N,10357.5037609,E,4,23,1.0,532.098,M,-40.962,M,1.4,*63
$GPGSA,A,3,07,08,09,16,23,26,27,,,,,,3.3,1.7,2.8,1*22
$GAGSA,A,3,02,03,08,25,36,,,,,,,,5.7,1.5,5.5,3*31
$GPGSV,2,1,07,07,28,314,45,08,65,182,47,09,48,290,47,16,42,036,44,1*60
$GPGSV,2,2,07,23,58,231,45,26,19,058,42,27,69,075,47,,,,,1*52
$GAGSV,2,1,05,02,43,307,43,03,40,227,42,08,30,293,42,25,52,033,42,7*76
$GAGSV,2,2,05,36,31,150,00,,,,,,,,,,,,,7*45
$GPRMC,062019.60,A,3046.9742856,N,10357.5037605,E,0.05,106.49,260319,0.0,E,D*3A
$GPGGA,062019.60,3046.9742856,N,10357.5037605,E,4,23,1.0,532.099,M,-40.962,M,1.6,*6A
$GPGSA,A,3,07,08,09,16,23,26,27,,,,,,3.3,1.7,2.8,1*22
$GAGSA,A,3,02,03,08,25,36,,,,,,,,5.7,1.5,5.5,3*31
$GPGSV,2,1,07,07,28,314,45,08,65,182,47,09,48,290,47,16,42,036,44,1*60
$GPGSV,2,2,07,23,58,231,45,26,19,058,42,27,69,075,47,,,,,1*52
$GAGSV,2,1,05,02,43,307,43,03,40,227,42,08,30,293,42,25,52,033,42,7*76
$GAGSV,2,2,05,36,31,150,00,,,,,,,,,,,,,7*45
$GPRMC,062019.80,A,3046.9742858,N,10357.5037612,E,0.15,106.49,260319,0.0,E,D*3D
$GPGGA,062019.80,3046.9742858,N,10357.5037612,E,4,23,1.0,532.101,M,-40.962,M,1.8,*62
$GPGSA,A,3,07,08,09,16,23,26,27,,,,,,3.3,1.7,2.8,1*22
$GAGSA,A,3,02,03,08,25,36,,,,,,,,5.7,1.5,5.5,3*31
$GPGSV,2,1,07,07,28,314,45,08,65,182,47,09,48,290,47,16,42,036,44,1*60
$GPGSV,2,2,07,23,58,231,45,26,19,058,42,27,69,075,47,,,,,1*52
$GAGSV,2,1,05,02,43,307,43,03,40,227,42,08,30,293,42,25,52,033,42,7*76
$GAGSV,2,2,05,36,31,150,00,,,,,,,,,,,,,7*45
$GPRMC,062020.00,A,3046.9742851,N,10357.5037613,E,0.04,106.49,260319,0.0,E,D*37
$GPGGA,062020.00,3046.9742851,N,10357.5037613,E,4,23,1.0,532.099,M,-40.962,M,2.0,*63
$GPGSA,A,3,07,08,09,16,23,26,27,,,,,,3.3,1.7,2.8,1*22
$GAGSA,A,3,02,03,08,25,36,,,,,,,,5.7,1.5,5.5,3*31
$GPGSV,2,1,07,07,28,314,45,08,65,182,47,09,48,290,47,16,42,036,44,1*60
$GPGSV,2,2,07,23,58,231,45,26,19,058,42,27,69,075,47,,,,,1*52
$GAGSV,2,1,05,02,43,307,43,03,40,227,42,08,30,293,42,25,52,033,42,7*76
$GAGSV,2,2,05,36,31,150,00,,,,,,,,,,,,,7*45
$GPRMC,062020.20,A,3046.9742853,N,10357.5037613,E,0.06,106.49,260319,0.0,E,D*35
$GPGGA,062020.20,3046.9742853,N,10357.5037613,E,4,23,1.0,532.099,M,-40.962,M,2.2,*61
$GPGSA,A,3,07,08,09,16,23,26,27,,,,,,3.3,1.7,2.8,1*22
$GAGSA,A,3,02,03,08,25,36,,,,,,,,5.7,1.5,5.5,3*31
$GPGSV,2,1,07,07,28,314,45,08,65,182,47,09,48,290,47,16,42,036,44,1*60
$GPGSV,2,2,07,23,58,231,45,26,19,058,42,27,69,075,47,,,,,1*52
$GAGSV,2,1,05,02,43,307,43,03,40,227,42,08,30,293,42,25,52,033,42,7*76
$GAGSV,2,2,05,36,31,150,00,,,,,,,,,,,,,7*45
$GPRMC,062020.40,A,3046.9742856,N,10357.5037605,E,0.06,106.49,260319,0.0,E,D*31
$GPGGA,062020.40,3046.9742856,N,10357.5037605,E,4,23,1.0,532.099,M,-40.962,M,2.4,*63
$GPGSA,A,3,07,08,09,16,23,26,27,,,,,,3.3,1.7,2.8,1*22
$GAGSA,A,3,02,03,08,25,36,,,,,,,,5.7,1.5,5.5,3*31
$GPGSV,2,1,07,07,28,314,45,08,65,182,47,09,48,290,47,16,42,036,44,1*60
$GPGSV,2,2,07,23,58,231,45,26,19,058,42,27,69,075,47,,,,,1*52
$GAGSV,2,1,05,02,43,307,43,03,40,227,42,08,30,293,42,25,52,033,42,7*76
$GAGSV,2,2,05,36,31,150,00,,,,,,,,,,,,,7*45
$GPRMC,062020.60,A,3046.9742856,N,10357.5037607,E,0.02,106.49,260319,0.0,E,D*35
$GPGGA,062020.60,3046.9742856,N,10357.5037607,E,4,23,1.0,532.098,M,-40.962,M,2.6,*60
$GPGSA,A,3,07,08,09,16,23,26,27,,,,,,3.3,1.7,2.8,1*22
$GAGSA,A,3,02,03,08,25,36,,,,,,,,5.7,1.5,5.5,3*31
$GPGSV,2,1,07,07,28,314,45,08,65,182,47,09,48,290,47,16,42,036,44,1*60
$GPGSV,2,2,07,23,58,231,45,26,19,058,42,27,69,075,47,,,,,1*52
$GAGSV,2,1,05,02,43,307,43,03,40,227,42,08,30,293,42,25,52,033,42,7*76
$GAGSV,2,2,05,36,31,150,00,,,,,,,,,,,,,7*45
$GPRMC,062020.80,A,3046.9742855,N,10357.5037605,E,0.09,106.49,260319,0.0,E,D*31
$GPGGA,062020.80,3046.9742855,N,10357.5037605,E,4,23,1.0,532.100,M,-40.962,M,2.8,*61
$GPGSA,A,3,07,08,09,16,23,26,27,,,,,,3.3,1.7,2.8,1*22
$GAGSA,A,3,02,03,08,25,36,,,,,,,,5.7,1.5,5.5,3*31
$GPGSV,2,1,07,07,28,314,45,08,65,182,47,09,48,290,48,16,42,036,44,1*6F
$GPGSV,2,2,07,23,58,231,45,26,19,058,42,27,69,075,47,,,,,1*52
$GAGSV,2,1,05,02,43,307,43,03,40,227,42,08,30,293,42,25,52,033,42,7*76
$GAGSV,2,2,05,36,31,150,00,,,,,,,,,,,,,7*45
$GPRMC,062021.00,A,3046.9742849,N,10357.5037603,E,0.10,106.49,260319,0.0,E,D*3B
$GPGGA,062021.00,3046.9742849,N,10357.5037603,E,4,23,1.0,532.100,M,-40.962,M,3.0,*6A
$GPGSA,A,3,07,08,09,16,23,26,27,,,,,,3.3,1.7,2.8,1*22
$GAGSA,A,3,02,03,08,25,36,,,,,,,,5.7,1.5,5.5,3*31
$GPGSV,2,1,07,07,28,314,45,08,65,182,47,09,48,290,48,16,42,036,44,1*6F
$GPGSV,2,2,07,23,58,231,45,26,19,058,42,27,69,075,47,,,,,1*52
$GAGSV,2,1,05,02,43,307,43,03,40,227,42,08,30,293,42,25,52,033,42,7*76
$GAGSV,2,2,05,36,31,150,00,,,,,,,,,,,,,7*45
$GPRMC,062021.20,A,3046.9742868,N,10357.5037592,E,0.04,106.49,260319,0.0,E,D*34
$GPGGA,062021.20,3046.9742868,N,10357.5037592,E,4,23,1.0,532.106,M,-40.962,M,1.2,*66
$GPGSA,A,3,07,08,09,16,23,26,27,,,,,,3.3,1.7,2.8,1*22
$GAGSA,A,3,02,03,08,25,36,,,,,,,,5.7,1.5,5.5,3*31
$GPGSV,2,1,07,07,28,314,45,08,65,182,47,09,48,290,48,16,42,036,44,1*6F
$GPGSV,2,2,07,23,58,231,45,26,19,058,42,27,69,075,47,,,,,1*52
$GAGSV,2,1,05,02,43,307,43,03,40,227,42,08,30,293,42,25,52,033,42,7*76
$GAGSV,2,2,05,36,31,150,00,,,,,,,,,,,,,7*45
$GPRMC,062021.40,A,3046.9742867,N,10357.5037588,E,0.08,106.49,260319,0.0,E,D*3A
$GPGGA,062021.40,3046.9742867,N,10357.5037588,E,4,23,1.0,532.107,M,-40.962,M,1.4,*63
$GPGSA,A,3,07,08,09,16,23,26,27,,,,,,3.3,1.7,2.8,1*22
$GAGSA,A,3,02,03,08,25,36,,,,,,,,5.7,1.5,5.5,3*31
$GPGSV,2,1,07,07,28,314,45,08,65,182,47,09,48,290,48,16,42,036,44,1*6F
$GPGSV,2,2,07,23,58,231,45,26,19,058,42,27,69,075,47,,,,,1*52
$GAGSV,2,1,05,02,43,307,43,03,40,227,42,08,30,293,42,25,52,033,42,7*76
$GAGSV,2,2,05,36,31,150,00,,,,,,,,,,,,,7*45
$GPRMC,062021.60,A,3046.9742872,N,10357.5037591,E,0.03,106.49,260319,0.0,E,D*3F
$GPGGA,062021.60,3046.9742872,N,10357.5037591,E,4,23,1.0,532.106,M,-40.962,M,1.6,*6E
$GPGSA,A,3,07,08,09,16,23,26,27,,,,,,3.3,1.7,2.8,1*22
$GAGSA,A,3,02,03,08,25,36,,,,,,,,5.7,1.5,5.5,3*31
$GPGSV,2,1,07,07,28,314,45,08,65,182,47,09,48,290,48,16,42,036,44,1*6F
$GPGSV,2,2,07,23,58,231,45,26,19,058,42,27,69,075,47,,,,,1*52
$GAGSV,2,1,05,02,43,307,43,03,40,227,42,08,30,293,42,25,52,033,42,7*76
$GAGSV,2,2,05,36,31,150,00,,,,,,,,,,,,,7*45
$GPRMC,062021.80,A,3046.9742864,N,10357.5037594,E,0.02,106.49,260319,0.0,E,D*32
$GPGGA,062021.80,3046.9742864,N,10357.5037594,E,4,23,1.0,532.106,M,-40.962,M,1.8,*6C
$GPGSA,A,3,07,08,09,16,23,26,27,,,,,,3.3,1.7,2.8,1*22
$GAGSA,A,3,02,03,08,25,36,,,,,,,,5.7,1.5,5.5,3*31
$GPGSV,2,1,07,07,28,314,45,08,65,182,47,09,48,290,48,16,42,036,44,1*6F
$GPGSV,2,2,07,23,58,231,45,26,19,058,41,27,69,075,47,,,,,1*51
$GAGSV,2,1,05,02,43,307,43,03,40,227,42,08,30,293,42,25,52,033,42,7*76
$GAGSV,2,2,05,36,31,150,00,,,,,,,,,,,,,7*45
$GPRMC,062022.00,A,3046.9742865,N,10357.5037594,E,0.04,106.49,260319,0.0,E,D*3E
$GPGGA,062022.00,3046.9742865,N,10357.5037594,E,4,23,1.0,532.104,M,-40.962,M,2.0,*6F
$GPGSA,A,3,07,08,09,16,23,26,27,,,,,,3.3,1.7,2.8,1*22
$GAGSA,A,3,02,03,08,25,36,,,,,,,,5.7,1.5,5.5,3*31
$GPGSV,2,1,07,07,28,314,45,08,65,182,47,09,48,290,48,16,42,036,44,1*6F
$GPGSV,2,2,07,23,58,231,45,26,19,058,42,27,69,075,47,,,,,1*52
$GAGSV,2,1,05,02,43,307,43,03,40,227,42,08,30,293,42,25,52,033,42,7*76
$GAGSV,2,2,05,36,31,150,00,,,,,,,,,,,,,7*45
$GPRMC,062022.20,A,3046.9742861,N,10357.5037594,E,0.02,106.49,260319,0.0,E,D*3E
$GPGGA,062022.20,3046.9742861,N,10357.5037594,E,4,23,1.0,532.105,M,-40.962,M,2.2,*6A
$GPGSA,A,3,07,08,09,16,23,26,27,,,,,,3.3,1.7,2.8,1*22
$GAGSA,A,3,02,03,08,25,36,,,,,,,,5.7,1.5,5.5,3*31
$GPGSV,2,1,07,07,28,314,45,08,65,182,47,09,48,290,48,16,42,036,44,1*6F
$GPGSV,2,2,07,23,58,231,45,26,19,058,41,27,69,075,47,,,,,1*51
$GAGSV,2,1,05,02,43,307,43,03,40,227,42,08,30,293,41,25,52,033,42,7*75
$GAGSV,2,2,05,36,31,150,00,,,,,,,,,,,,,7*45
$GPRMC,062022.40,A,3046.9742858,N,10357.5037592,E,0.04,106.49,260319,0.0,E,D*32
$GPGGA,062022.40,3046.9742858,N,10357.5037592,E,4,23,1.0,532.104,M,-40.962,M,2.4,*67
$GPGSA,A,3,07,08,09,16,23,26,27,,,,,,3.3,1.7,2.8,1*22
$GAGSA,A,3,02,03,08,25,36,,,,,,,,5.7,1.5,5.5,3*31
$GPGSV,2,1,07,07,28,314,45,08,65,182,47,09,48,290,48,16,42,036,44,1*6F
$GPGSV,2,2,07,23,58,231,45,26,19,058,41,27,69,075,47,,,,,1*51
$GAGSV,2,1,05,02,43,307,43,03,40,227,42,08,30,293,41,25,52,033,42,7*75
$GAGSV,2,2,05,36,31,150,00,,,,,,,,,,,,,7*45
$GPRMC,062022.60,A,3046.9742865,N,10357.5037586,E,0.05,106.49,260319,0.0,E,D*3A
$GPGGA,062022.60,3046.9742865,N,10357.5037586,E,4,23,1.0,532.105,M,-40.962,M,2.6,*6D
$GPGSA,A,3,07,08,09,16,23,26,27,,,,,,3.3,1.7,2.8,1*22
$GAGSA,A,3,02,03,08,25,36,,,,,,,,5.7,1.5,5.5,3*31
$GPGSV,2,1,07,07,28,314,45,08,65,182,47,09,48,290,48,16,42,036,44,1*6F
$GPGSV,2,2,07,23,58,231,45,26,19,058,41,27,69,075,47,,,,,1*51
$GAGSV,2,1,05,02,43,307,43,03,40,227,42,08,30,293,41,25,52,033,42,7*75
$GAGSV,2,2,05,36,31,150,00,,,,,,,,,,,,,7*45
$GPRMC,062022.80,A,3046.9742864,N,10357.5037589,E,0.07,106.49,260319,0.0,E,D*38
$GPGGA,062022.80,3046.9742864,N,10357.5037589,E,4,23,1.0,532.105,M,-40.962,M,2.8,*63
$GPGSA,A,3,07,08,09,16,23,26,27,,,,,,3.3,1.7,2.8,1*22
$GAGSA,A,3,02,03,08,25,36,,,,,,,,5.7,1.5,5.5,3*31
$GPGSV,2,1,07,07,28,314,45,08,65,182,47,09,48,290,48,16,42,036,44,1*6F
$GPGSV,2,2,07,23,58,231,45,26,19,058,41,27,69,075,47,,,,,1*51
$GAGSV,2,1,05,02,43,307,43,03,40,227,42,08,30,293,41,25,52,033,42,7*75
$GAGSV,2,2,05,36,31,150,00,,,,,,,,,,,,,7*45
$GPRMC,062023.00,A,3046.9742859,N,10357.5037583,E,0.02,106.49,260319,0.0,E,D*30
$GPGGA,062023.00,3046.9742859,N,10357.5037583,E,4,23,1.0,532.105,M,-40.962,M,3.0,*67
$GPGSA,A,3,07,08,09,16,23,26,27,,,,,,3.3,1.7,2.8,1*22
$GAGSA,A,3,02,03,08,25,36,,,,,,,,5.7,1.5,5.5,3*31
$GPGSV,2,1,07,07,28,314,45,08,65,182,47,09,48,290,48,16,42,036,44,1*6F
$GPGSV,2,2,07,23,58,231,45,26,19,058,42,27,69,075,47,,,,,1*52
$GAGSV,2,1,05,02,43,307,43,03,40,227,42,08,30,293,41,25,52,033,42,7*75
$GAGSV,2,2,05,36,31,150,00,,,,,,,,,,,,,7*45
$GPRMC,062023.20,A,3046.9742856,N,10357.5037597,E,0.02,106.49,260319,0.0,E,D*38
$GPGGA,062023.20,3046.9742856,N,10357.5037597,E,4,23,1.0,532.104,M,-40.962,M,1.2,*6E
$GPGSA,A,3,07,08,09,16,23,26,27,,,,,,3.3,1.7,2.8,1*22
$GAGSA,A,3,02,03,08,25,36,,,,,,,,5.7,1.5,5.5,3*31
$GPGSV,2,1,07,07,28,314,45,08,65,182,47,09,48,290,48,16,42,036,44,1*6F
$GPGSV,2,2,07,23,58,231,45,26,19,058,42,27,69,075,47,,,,,1*52
$GAGSV,2,1,05,02,43,307,43,03,40,227,42,08,30,293,41,25,52,033,42,7*75
$GAGSV,2,2,05,36,31,150,00,,,,,,,,,,,,,7*45
$GPRMC,062023.40,A,3046.9742857,N,10357.5037600,E,0.03,106.49,260319,0.0,E,D*33
$GPGGA,062023.40,3046.9742857,N,10357.5037600,E,4,23,1.0,532.104,M,-40.962,M,1.4,*62
$GPGSA,A,3,07,08,09,16,23,26,27,,,,,,3.3,1.7,2.8,1*22
$GAGSA,A,3,02,03,08,25,36,,,,,,,,5.7,1.5,5.5,3*31
$GPGSV,2,1,07,07,28,314,45,08,65,182,47,09,48,290,48,16,42,036,44,1*6F
$GPGSV,2,2,07,23,58,231,45,26,19,058,42,27,69,075,47,,,,,1*52
$GAGSV,2,1,05,02,43,307,43,03,40,227,42,08,30,293,41,25,52,033,42,7*75
$GAGSV,2,2,05,36,31,150,00,,,,,,,,,,,,,7*45
$GPRMC,062023.60,A,3046.9742856,N,10357.5037600,E,0.03,106.49,260319,0.0,E,D*30
$GPGGA,062023.60,3046.9742856,N,10357.5037600,E,4,23,1.0,532.105,M,-40.962,M,1.6,*62
$GPGSA,A,3,07,08,09,16,23,26,27,,,,,,3.3,1.7,2.8,1*22
$GAGSA,A,3,02,03,08,25,36,,,,,,,,5.7,1.5,5.5,3*31
$GPGSV,2,1,07,07,28,314,45,08,65,182,47,09,48,290,48,16,42,036,44,1*6F
$GPGSV,2,2,07,23,58,231,45,26,19,058,42,27,69,075,47,,,,,1*52
$GAGSV,2,1,05,02,43,307,43,03,40,227,42,08,30,293,41,25,52,033,42,7*75
$GAGSV,2,2,05,36,31,150,00,,,,,,,,,,,,,7*45
$GPRMC,062023.80,A,3046.9742852,N,10357.5037601,E,0.02,106.49,260319,0.0,E,D*3A
$GPGGA,062023.80,3046.9742852,N,10357.5037601,E,4,23,1.0,532.102,M,-40.962,M,1.8,*60
$GPGSA,A,3,07,08,09,16,23,26,27,,,,,,3.3,1.7,2.8,1*22
$GAGSA,A,3,02,03,08,25,36,,,,,,,,5.7,1.5,5.5,3*31
$GPGSV,2,1,07,07,28,314,45,08,65,182,47,09,48,290,48,16,42,036,45,1*6E
$GPGSV,2,2,07,23,58,231,45,26,19,058,42,27,69,075,47,,,,,1*52
$GAGSV,2,1,05,02,43,307,43,03,40,227,42,08,30,293,41,25,52,033,42,7*75
$GAGSV,2,2,05,36,31,150,00,,,,,,,,,,,,,7*45
$GPRMC,062024.00,A,3046.9742852,N,10357.5037594,E,0.05,106.49,260319,0.0,E,D*3D
$GPGGA,062024.00,3046.9742852,N,10357.5037594,E,4,23,1.0,532.102,M,-40.962,M,2.0,*6B
$GPGSA,A,3,07,08,09,16,23,26,27,,,,,,3.3,1.7,2.8,1*22
$GAGSA,A,3,02,03,08,25,36,,,,,,,,5.7,1.5,5.5,3*31
$GPGSV,2,1,07,07,28,314,45,08,65,182,47,09,48,290,48,16,42,036,45,1*6E
$GPGSV,2,2,07,23,58,231,45,26,19,058,42,27,69,075,47,,,,,1*52
$GAGSV,2,1,05,02,43,307,43,03,40,227,42,08,30,293,41,25,52,033,42,7*75
$GAGSV,2,2,05,36,31,150,00,,,,,,,,,,,,,7*45
$GPRMC,062024.20,A,3046.9742852,N,10357.5037596,E,0.08,106.49,260319,0.0,E,D*30
$GPGGA,062024.20,3046.9742852,N,10357.5037596,E,4,23,1.0,532.100,M,-40.962,M,2.2,*6B
$GPGSA,A,3,07,08,09,16,23,26,27,,,,,,3.3,1.7,2.8,1*22
$GAGSA,A,3,02,03,08,25,36,,,,,,,,5.7,1.5,5.5,3*31
$GPGSV,2,1,07,07,28,314,45,08,65,182,47,09,48,290,48,16,42,036,45,1*6E
$GPGSV,2,2,07,23,58,231,45,26,19,058,42,27,69,075,47,,,,,1*52
$GAGSV,2,1,05,02,43,307,43,03,40,227,42,08,30,293,41,25,52,033,42,7*75
$GAGSV,2,2,05,36,31,150,00,,,,,,,,,,,,,7*45
$GPRMC,062024.40,A,3046.9742854,N,10357.5037601,E,0.09,106.49,260319,0.0,E,D*3C
$GPGGA,062024.40,3046.9742854,N,10357.5037601,E,4,23,1.0,532.102,M,-40.962,M,2.4,*62
$GPGSA,A,3,07,08,09,16,23,26,27,,,,,,3.3,1.7,2.8,1*22
$GAGSA,A,3,02,03,08,25,36,,,,,,,,5.7,1.5,5.5,3*31
$GPGSV,2,1,07,07,28,314,45,08,65,182,47,09,48,290,48,16,42,036,45,1*6E
$GPGSV,2,2,07,23,58,231,45,26,19,058,42,27,69,075,47,,,,,1*52
$GAGSV,2,1,05,02,43,307,43,03,40,227,42,08,30,293,41,25,52,033,42,7*75
$GAGSV,2,2,05,36,31,150,00,,,,,,,,,,,,,7*45
$GPRMC,062024.60,A,3046.9742851,N,10357.5037592,E,0.14,106.49,260319,0.0,E,D*3E
$GPGGA,062024.60,3046.9742851,N,10357.5037592,E,4,23,1.0,532.104,M,-40.962,M,2.6,*68
$GPGSA,A,3,07,08,09,16,23,26,27,,,,,,3.3,1.7,2.8,1*22
$GAGSA,A,3,02,03,08,25,36,,,,,,,,5.7,1.5,5.5,3*31
$GPGSV,2,1,07,07,28,314,45,08,65,182,47,09,48,290,48,16,42,036,45,1*6E
$GPGSV,2,2,07,23,58,231,45,26,19,058,42,27,69,075,47,,,,,1*52
$GAGSV,2,1,05,02,43,307,43,03,40,227,42,08,30,293,41,25,52,033,42,7*75
$GAGSV,2,2,05,36,31,150,00,,,,,,,,,,,,,7*45
$GPRMC,062024.80,A,3046.9742849,N,10357.5037595,E,0.04,106.49,260319,0.0,E,D*3F
$GPGGA,062024.80,3046.9742849,N,10357.5037595,E,4,23,1.0,532.103,M,-40.962,M,2.8,*61
$GPGSA,A,3,07,08,09,16,23,26,27,,,,,,3.3,1.7,2.8,1*22
$GAGSA,A,3,02,03,08,25,36,,,,,,,,5.7,1.5,5.5,3*31
$GPGSV,2,1,07,07,28,314,45,08,65,182,47,09,48,290,48,16,42,036,45,1*6E
$GPGSV,2,2,07,23,58,231,45,26,19,058,42,27,69,075,47,,,,,1*52
$GAGSV,2,1,05,02,43,307,43,03,40,227,42,08,30,293,41,25,52,033,42,7*75
$GAGSV,2,2,05,36,31,150,00,,,,,,,,,,,,,7*45
$GPRMC,062025.00,A,3046.9742851,N,10357.5037593,E,0.01,106.49,260319,0.0,E,D*3C
$GPGGA,062025.00,3046.9742851,N,10357.5037593,E,4,23,1.0,532.102,M,-40.962,M,3.0,*6F
$GPGSA,A,3,07,08,09,16,23,26,27,,,,,,3.3,1.7,2.8,1*22
$GAGSA,A,3,02,03,08,25,36,,,,,,,,5.7,1.5,5.5,3*31
$GPGSV,2,1,07,07,28,314,45,08,65,182,47,09,48,290,48,16,42,036,45,1*6E
$GPGSV,2,2,07,23,58,231,45,26,19,058,42,27,69,075,47,,,,,1*52
$GAGSV,2,1,05,02,43,307,43,03,40,227,42,08,30,293,41,25,52,033,42,7*75
$GAGSV,2,2,05,36,31,150,00,,,,,,,,,,,,,7*45
$GPRMC,062025.20,A,3046.9742852,N,10357.5037607,E,0.02,106.49,260319,0.0,E,D*30
$GPGGA,062025.20,3046.9742852,N,10357.5037607,E,4,23,1.0,532.103,M,-40.962,M,1.2,*61
$GPGSA,A,3,07,08,09,16,23,26,27,,,,,,3.3,1.7,2.8,1*22
$GAGSA,A,3,02,03,08,25,36,,,,,,,,5.7,1.5,5.5,3*31
$GPGSV,2,1,07,07,28,314,45,08,65,182,47,09,48,290,48,16,42,036,45,1*6E
$GPGSV,2,2,07,23,58,231,45,26,19,058,42,27,69,075,47,,,,,1*52
$GAGSV,2,1,05,02,43,307,43,03,40,227,42,08,30,293,41,25,52,033,42,7*75
$GAGSV,2,2,05,36,31,150,00,,,,,,,,,,,,,7*45
$GPRMC,062025.40,A,3046.9742851,N,10357.5037603,E,0.02,106.49,260319,0.0,E,D*31
$GPGGA,062025.40,3046.9742851,N,10357.5037603,E,4,23,1.0,532.103,M,-40.962,M,1.4,*66
$GPGSA,A,3,07,08,09,16,23,26,27,,,,,,3.3,1.7,2.8,1*22
$GAGSA,A,3,02,03,08,25,36,,,,,,,,5.7,1.5,5.5,3*31
$GPGSV,2,1,07,07,28,314,45,08,65,182,47,09,48,290,48,16,42,036,45,1*6E
$GPGSV,2,2,07,23,58,231,45,26,19,058,41,27,69,075,47,,,,,1*51
$GAGSV,2,1,05,02,43,307,43,03,40,227,42,08,30,293,41,25,52,033,42,7*75
$GAGSV,2,2,05,36,31,150,00,,,,,,,,,,,,,7*45
$GPRMC,062025.60,A,3046.9742849,N,10357.5037603,E,0.02,106.49,260319,0.0,E,D*3A
$GPGGA,062025.60,3046.9742849,N,10357.5037603,E,4,23,1.0,532.102,M,-40.962,M,1.6,*6E
$GPGSA,A,3,07,08,09,16,23,26,27,,,,,,3.3,1.7,2.8,1*22
$GAGSA,A,3,02,03,08,25,36,,,,,,,,5.7,1.5,5.5,3*31
$GPGSV,2,1,07,07,28,314,45,08,65,182,47,09,48,290,48,16,42,036,45,1*6E
$GPGSV,2,2,07,23,58,231,45,26,19,058,41,27,69,075,47,,,,,1*51
$GAGSV,2,1,05,02,43,307,43,03,40,227,42,08,30,293,41,25,52,033,42,7*75
$GAGSV,2,2,05,36,31,150,00,,,,,,,,,,,,,7*45
$GPRMC,062025.80,A,3046.9742851,N,10357.5037605,E,0.06,106.49,260319,0.0,E,D*3F
$GPGGA,062025.80,3046.9742851,N,10357.5037605,E,4,23,1.0,532.102,M,-40.962,M,1.8,*61
$GPGSA,A,3,07,08,09,16,23,26,27,,,,,,3.3,1.7,2.8,1*22
$GAGSA,A,3,02,03,08,25,36,,,,,,,,5.7,1.5,5.5,3*31
$GPGSV,2,1,07,07,28,314,45,08,65,182,47,09,48,290,48,16,42,036,44,1*6F
$GPGSV,2,2,07,23,58,231,45,26,19,058,41,27,69,075,47,,,,,1*51
$GAGSV,2,1,05,02,43,307,43,03,40,227,42,08,30,293,41,25,52,033,42,7*75
$GAGSV,2,2,05,36,31,150,00,,,,,,,,,,,,,7*45
$GPRMC,062026.00,A,3046.9742854,N,10357.5037601,E,0.10,106.49,260319,0.0,E,D*32
$GPGGA,062026.00,3046.9742854,N,10357.5037601,E,4,23,1.0,532.102,M,-40.962,M,2.0,*60
$GPGSA,A,3,07,08,09,16,23,26,27,,,,,,3.3,1.7,2.8,1*22
$GAGSA,A,3,02,03,08,25,36,,,,,,,,5.7,1.5,5.5,3*31
$GPGSV,2,1,07,07,28,314,45,08,65,182,47,09,48,290,48,16,42,036,44,1*6F
$GPGSV,2,2,07,23,58,231,45,26,19,058,41,27,69,075,47,,,,,1*51
$GAGSV,2,1,05,02,43,307,43,03,40,227,42,08,30,293,41,25,52,033,42,7*75
$GAGSV,2,2,05,36,31,150,00,,,,,,,,,,,,,7*45
$GPRMC,062026.20,A,3046.9742851,N,10357.5037606,E,0.06,106.49,260319,0.0,E,D*35
$GPGGA,062026.20,3046.9742851,N,10357.5037606,E,4,23,1.0,532.103,M,-40.962,M,2.2,*63
$GPGSA,A,3,07,08,09,16,23,26,27,,,,,,3.3,1.7,2.8,1*22
$GAGSA,A,3,02,03,08,25,36,,,,,,,,5.7,1.5,5.5,3*31
$GPGSV,2,1,07,07,28,314,45,08,65,182,47,09,48,290,48,16,42,036,44,1*6F
$GPGSV,2,2,07,23,58,231,45,26,19,058,41,27,69,075,47,,,,,1*51
$GAGSV,2,1,05,02,43,307,43,03,40,227,42,08,30,293,41,25,52,033,42,7*75
$GAGSV,2,2,05,36,31,150,00,,,,,,,,,,,,,7*45
$GPRMC,062026.40,A,3046.9742847,N,10357.5037600,E,0.11,106.49,260319,0.0,E,D*34
$GPGGA,062026.40,3046.9742847,N,10357.5037600,E,4,23,1.0,532.101,M,-40.962,M,2.4,*60
$GPGSA,A,3,07,08,09,16,23,26,27,,,,,,3.3,1.7,2.8,1*22
$GAGSA,A,3,02,03,08,25,36,,,,,,,,5.7,1.5,5.5,3*31
$GPGSV,2,1,07,07,28,314,45,08,65,182,47,09,48,290,48,16,42,036,44,1*6F
$GPGSV,2,2,07,23,58,231,45,26,19,058,41,27,69,075,47,,,,,1*51
$GAGSV,2,1,05,02,43,307,43,03,40,227,42,08,30,293,41,25,52,033,42,7*75
$GAGSV,2,2,05,36,31,150,00,,,,,,,,,,,,,7*45
$GPRMC,062026.60,A,3046.9742842,N,10357.5037599,E,0.03,106.49,260319,0.0,E,D*33
$GPGGA,062026.60,3046.9742842,N,10357.5037599,E,4,23,1.0,532.102,M,-40.962,M,2.6,*65
$GPGSA,A,3,07,08,09,16,23,26,27,,,,,,3.3,1.7,2.8,1*22
$GAGSA,A,3,02,03,08,25,36,,,,,,,,5.7,1.5,5.5,3*31
$GPGSV,2,1,07,07,28,314,45,08,65,182,47,09,48,290,48,16,42,036,44,1*6F
$GPGSV,2,2,07,23,58,231,45,26,19,058,41,27,69,075,47,,,,,1*51
$GAGSV,2,1,05,02,43,307,43,03,40,227,42,08,30,293,41,25,52,033,42,7*75
$GAGSV,2,2,05,36,31,150,00,,,,,,,,,,,,,7*45
$GPRMC,062026.80,A,3046.9742851,N,10357.5037602,E,0.11,106.49,260319,0.0,E,D*3D
$GPGGA,062026.80,3046.9742851,N,10357.5037602,E,4,23,1.0,532.105,M,-40.962,M,2.8,*61
$GPGSA,A,3,07,08,09,16,23,26,27,,,,,,3.3,1.7,2.8,1*22
$GAGSA,A,3,02,03,08,25,36,,,,,,,,5.7,1.5,5.5,3*31
$GPGSV,2,1,07,07,28,314,45,08,65,182,47,09,48,290,48,16,42,036,44,1*6F
$GPGSV,2,2,07,23,58,231,45,26,19,058,41,27,69,075,47,,,,,1*51
$GAGSV,2,1,05,02,43,307,43,03,40,227,42,08,30,293,41,25,52,033,42,7*75
$GAGSV,2,2,05,36,31,150,00,,,,,,,,,,,,,7*45
$GPRMC,062027.00,A,3046.9742847,N,10357.5037598,E,0.03,106.49,260319,0.0,E,D*30
$GPGGA,062027.00,3046.9742847,N,10357.5037598,E,4,23,1.0,532.103,M,-40.962,M,3.0,*60
$GPGSA,A,3,07,08,09,16,23,26,27,,,,,,3.3,1.7,2.8,1*22
$GAGSA,A,3,02,03,08,25,36,,,,,,,,5.7,1.5,5.5,3*31
$GPGSV,2,1,07,07,28,314,45,08,65,182,47,09,48,290,48,16,42,036,44,1*6F
$GPGSV,2,2,07,23,58,231,45,26,19,058,41,27,69,075,47,,,,,1*51
$GAGSV,2,1,05,02,43,307,43,03,40,227,42,08,30,293,41,25,52,033,42,7*75
$GAGSV,2,2,05,36,31,150,00,,,,,,,,,,,,,7*45
$GPRMC,062027.20,A,3046.9742854,N,10357.5037609,E,0.06,106.49,260319,0.0,E,D*3E
$GPGGA,062027.20,3046.9742854,N,10357.5037609,E,4,23,1.0,532.104,M,-40.962,M,1.2,*6C
$GPGSA,A,3,07,08,09,16,23,26,27,,,,,,3.3,1.7,2.8,1*22
$GAGSA,A,3,02,03,08,25,36,,,,,,,,5.7,1.5,5.5,3*31
$GPGSV,2,1,07,07,28,314,45,08,65,182,47,09,48,289,48,16,42,036,44,1*67
$GPGSV,2,2,07,23,58,231,45,26,19,058,41,27,69,075,47,,,,,1*51
$GAGSV,2,1,05,02,43,307,43,03,40,227,42,08,30,293,41,25,52,033,42,7*75
$GAGSV,2,2,05,36,31,150,00,,,,,,,,,,,,,7*45
$GPRMC,062027.40,A,3046.9742853,N,10357.5037604,E,0.04,106.49,260319,0.0,E,D*30
$GPGGA,062027.40,3046.9742853,N,10357.5037604,E,4,23,1.0,532.105,M,-40.962,M,1.4,*67
$GPGSA,A,3,07,08,09,16,23,26,27,,,,,,3.3,1.7,2.8,1*22
$GAGSA,A,3,02,03,08,25,36,,,,,,,,5.7,1.5,5.5,3*31
$GPGSV,2,1,07,07,28,314,45,08,65,182,47,09,48,289,48,16,42,036,44,1*67
$GPGSV,2,2,07,23,58,231,45,26,19,058,41,27,69,075,47,,,,,1*51
$GAGSV,2,1,05,02,43,307,43,03,40,227,42,08,30,293,41,25,52,033,42,7*75
$GAGSV,2,2,05,36,31,150,00,,,,,,,,,,,,,7*45
$GPRMC,062027.60,A,3046.9742853,N,10357.5037609,E,0.02,106.49,260319,0.0,E,D*39
$GPGGA,062027.60,3046.9742853,N,10357.5037609,E,4,23,1.0,532.106,M,-40.962,M,1.6,*69
$GPGSA,A,3,07,08,09,16,23,26,27,,,,,,3.3,1.7,2.8,1*22
$GAGSA,A,3,02,03,08,25,36,,,,,,,,5.7,1.5,5.5,3*31
$GPGSV,2,1,07,07,28,314,45,08,65,182,47,09,48,289,48,16,42,036,44,1*67
$GPGSV,2,2,07,23,58,231,45,26,19,058,41,27,69,075,47,,,,,1*51
$GAGSV,2,1,05,02,43,307,43,03,40,227,42,08,30,293,41,25,52,033,42,7*75
$GAGSV,2,2,05,36,31,150,00,,,,,,,,,,,,,7*45
$GPRMC,062027.80,A,3046.9742861,N,10357.5037603,E,0.07,106.49,260319,0.0,E,D*39
$GPGGA,062027.80,3046.9742861,N,10357.5037603,E,4,23,1.0,532.105,M,-40.962,M,1.8,*61
$GPGSA,A,3,07,08,09,16,23,26,27,,,,,,3.3,1.7,2.8,1*22
$GAGSA,A,3,02,03,08,25,36,,,,,,,,5.7,1.5,5.5,3*31
$GPGSV,2,1,07,07,28,314,45,08,65,182,47,09,48,289,48,16,42,036,44,1*67
$GPGSV,2,2,07,23,58,231,45,26,19,058,41,27,69,075,47,,,,,1*51
$GAGSV,2,1,05,02,43,307,42,03,40,227,42,08,30,293,41,25,52,033,42,7*74
$GAGSV,2,2,05,36,31,150,00,,,,,,,,,,,,,7*45
$GPRMC,062028.00,A,3046.9742855,N,10357.5037608,E,0.05,106.49,260319,0.0,E,D*30
$GPGGA,062028.00,3046.9742855,N,10357.5037608,E,4,23,1.0,532.104,M,-40.962,M,2.0,*60
$GPGSA,A,3,07,08,09,16,23,26,27,,,,,,3.3,1.7,2.8,1*22
$GAGSA,A,3,02,03,08,25,36,,,,,,,,5.7,1.5,5.5,3*31
$GPGSV,2,1,07,07,28,314,45,08,65,182,47,09,48,289,48,16,42,036,44,1*67
$GPGSV,2,2,07,23,58,231,45,26,19,058,41,27,69,075,47,,,,,1*51
$GAGSV,2,1,05,02,43,307,42,03,40,227,42,08,30,293,41,25,52,033,42,7*74
$GAGSV,2,2,05,36,31,150,00,,,,,,,,,,,,,7*45
$GPRMC,062028.20,A,3046.9742859,N,10357.5037606,E,0.06,106.49,260319,0.0,E,D*33
$GPGGA,062028.20,3046.9742859,N,10357.5037606,E,4,23,1.0,532.106,M,-40.962,M,2.2,*60
$GPGSA,A,3,07,08,09,16,23,26,27,,,,,,3.3,1.7,2.8,1*22
$GAGSA,A,3,02,03,08,25,36,,,,,,,,5.7,1.5,5.5,3*31
$GPGSV,2,1,07,07,28,314,45,08,65,182,47,09,48,289,48,16,42,036,44,1*67
$GPGSV,2,2,07,23,58,231,45,26,19,058,41,27,69,075,47,,,,,1*51
$GAGSV,2,1,05,02,43,307,42,03,40,227,42,08,30,293,41,25,52,033,42,7*74
$GAGSV,2,2,05,36,31,150,00,,,,,,,,,,,,,7*45
$GPRMC,062028.40,A,3046.9742859,N,10357.5037610,E,0.03,106.49,260319,0.0,E,D*37
$GPGGA,062028.40,3046.9742859,N,10357.5037610,E,4,23,1.0,532.105,M,-40.962,M,2.4,*64
$GPGSA,A,3,07,08,09,16,23,26,27,,,,,,3.3,1.7,2.8,1*22
$GAGSA,A,3,02,03,08,25,36,,,,,,,,5.7,1.5,5.5,3*31
$GPGSV,2,1,07,07,28,314,45,08,65,182,47,09,48,289,48,16,42,036,44,1*67
$GPGSV,2,2,07,23,58,231,45,26,19,058,41,27,69,075,47,,,,,1*51
$GAGSV,2,1,05,02,43,307,42,03,40,227,42,08,30,293,41,25,52,033,42,7*74
$GAGSV,2,2,05,36,31,150,00,,,,,,,,,,,,,7*45
$GPRMC,062028.60,A,3046.9742857,N,10357.5037611,E,0.04,106.49,260319,0.0,E,D*3D
$GPGGA,062028.60,3046.9742857,N,10357.5037611,E,4,23,1.0,532.105,M,-40.962,M,2.6,*6B
$GPGSA,A,3,07,08,09,16,23,26,27,,,,,,3.3,1.7,2.8,1*22
$GAGSA,A,3,02,03,08,25,36,,,,,,,,5.7,1.5,5.5,3*31
$GPGSV,2,1,07,07,28,314,45,08,65,182,47,09,48,289,48,16,42,036,44,1*67
$GPGSV,2,2,07,23,58,231,45,26,19,058,41,27,69,075,47,,,,,1*51
$GAGSV,2,1,05,02,43,307,42,03,40,227,42,08,30,293,41,25,52,033,42,7*74
$GAGSV,2,2,05,36,31,150,00,,,,,,,,,,,,,7*45
$GPRMC,062028.80,A,3046.9742857,N,10357.5037602,E,0.03,106.49,260319,0.0,E,D*36
$GPGGA,062028.80,3046.9742857,N,10357.5037602,E,4,23,1.0,532.104,M,-40.962,M,2.8,*68
$GPGSA,A,3,07,08,09,16,23,26,27,,,,,,3.3,1.7,2.8,1*22
$GAGSA,A,3,02,03,08,25,36,,,,,,,,5.7,1.5,5.5,3*31
$GPGSV,2,1,07,07,28,314,45,08,65,182,47,09,48,289,48,16,42,037,44,1*66
$GPGSV,2,2,07,23,58,231,45,26,19,058,41,27,69,075,47,,,,,1*51
$GAGSV,2,1,05,02,43,307,42,03,40,227,42,08,30,293,41,25,52,033,42,7*74
$GAGSV,2,2,05,36,31,150,00,,,,,,,,,,,,,7*45
$GPRMC,062029.00,A,3046.9742856,N,10357.5037604,E,0.06,106.49,260319,0.0,E,D*3D
$GPGGA,062029.00,3046.9742856,N,10357.5037604,E,4,23,1.0,532.104,M,-40.962,M,3.0,*6F
$GPGSA,A,3,07,08,09,16,23,26,27,,,,,,3.3,1.7,2.8,1*22
$GAGSA,A,3,02,03,08,25,36,,,,,,,,5.7,1.5,5.5,3*31
$GPGSV,2,1,07,07,28,314,45,08,65,182,47,09,48,289,48,16,42,037,44,1*66
$GPGSV,2,2,07,23,58,231,45,26,19,058,41,27,69,075,47,,,,,1*51
$GAGSV,2,1,05,02,43,307,43,03,40,227,42,08,30,293,41,25,52,033,42,7*75
$GAGSV,2,2,05,36,31,150,00,,,,,,,,,,,,,7*45
$GPRMC,062029.20,A,3046.9742860,N,10357.5037609,E,0.02,106.49,260319,0.0,E,D*33
$GPGGA,062029.20,3046.9742860,N,10357.5037609,E,4,23,1.0,532.106,M,-40.962,M,1.2,*67
$GPGSA,A,3,07,08,09,16,23,26,27,,,,,,3.3,1.7,2.8,1*22
$GAGSA,A,3,02,03,08,25,36,,,,,,,,5.7,1.5,5.5,3*31
$GPGSV,2,1,07,07,28,314,45,08,65,182,47,09,48,289,48,16,42,037,44,1*66
$GPGSV,2,2,07,23,58,231,45,26,19,058,41,27,69,075,47,,,,,1*51
$GAGSV,2,1,05,02,43,307,43,03,40,227,42,08,30,293,41,25,52,033,42,7*75
$GAGSV,2,2,05,36,31,150,00,,,,,,,,,,,,,7*45
$GPRMC,062029.40,A,3046.9742857,N,10357.5037608,E,0.04,106.49,260319,0.0,E,D*36
$GPGGA,062029.40,3046.9742857,N,10357.5037608,E,4,23,1.0,532.108,M,-40.962,M,1.4,*6C
$GPGSA,A,3,07,08,09,16,23,26,27,,,,,,3.3,1.7,2.8,1*22
$GAGSA,A,3,02,03,08,25,36,,,,,,,,5.7,1.5,5.5,3*31
$GPGSV,2,1,07,07,28,314,45,08,65,182,47,09,48,289,48,16,42,037,44,1*66
$GPGSV,2,2,07,23,58,231,45,26,19,058,41,27,69,075,47,,,,,1*51
$GAGSV,2,1,05,02,43,307,43,03,40,227,42,08,30,293,41,25,52,033,42,7*75
$GAGSV,2,2,05,36,31,150,00,,,,,,,,,,,,,7*45
$GPRMC,062029.60,A,3046.9742860,N,10357.5037595,E,0.02,106.49,260319,0.0,E,D*31
$GPGGA,062029.60,3046.9742860,N,10357.5037595,E,4,23,1.0,532.107,M,-40.962,M,1.6,*60
$GPGSA,A,3,07,08,09,16,23,26,27,,,,,,3.3,1.7,2.8,1*22
$GAGSA,A,3,02,03,08,25,36,,,,,,,,5.7,1.5,5.5,3*31
$GPGSV,2,1,07,07,28,314,45,08,65,182,47,09,48,289,48,16,42,037,44,1*66
$GPGSV,2,2,07,23,58,231,45,26,19,058,41,27,69,075,47,,,,,1*51
$GAGSV,2,1,05,02,43,307,43,03,40,227,42,08,30,293,41,25,52,033,42,7*75
$GAGSV,2,2,05,36,31,150,00,,,,,,,,,,,,,7*45
$GPRMC,062029.80,A,3046.9742863,N,10357.5037603,E,0.03,106.49,260319,0.0,E,D*31
$GPGGA,062029.80,3046.9742863,N,10357.5037603,E,4,23,1.0,532.106,M,-40.962,M,1.8,*6E
$GPGSA,A,3,07,08,09,16,23,26,27,,,,,,3.3,1.7,2.8,1*22
$GAGSA,A,3,02,03,08,25,36,,,,,,,,5.7,1.5,5.5,3*31
$GPGSV,2,1,07,07,28,314,45,08,65,182,47,09,48,289,48,16,42,037,44,1*66
$GPGSV,2,2,07,23,58,231,45,26,19,058,41,27,69,075,47,,,,,1*51
$GAGSV,2,1,05,02,43,307,42,03,40,227,42,08,30,293,41,25,52,033,43,7*75
$GAGSV,2,2,05,36,31,150,00,,,,,,,,,,,,,7*45
$GPRMC,062030.00,A,3046.9742856,N,10357.5037603,E,0.03,106.49,260319,0.0,E,D*37
$GPGGA,062030.00,3046.9742856,N,10357.5037603,E,4,23,1.0,532.105,M,-40.962,M,2.0,*60
$GPGSA,A,3,07,08,09,16,23,26,27,,,,,,3.3,1.7,2.8,1*22
$GAGSA,A,3,02,03,08,25,36,,,,,,,,5.7,1.5,5.5,3*31
$GPGSV,2,1,07,07,28,314,45,08,65,182,47,09,48,289,48,16,42,037,44,1*66
$GPGSV,2,2,07,23,58,231,45,26,19,058,41,27,69,075,47,,,,,1*51
$GAGSV,2,1,05,02,43,307,43,03,40,227,42,08,30,293,41,25,52,033,43,7*74
$GAGSV,2,2,05,36,31,150,00,,,,,,,,,,,,,7*45
$GPRMC,062030.20,A,3046.9742856,N,10357.5037599,E,0.04,106.49,260319,0.0,E,D*32
$GPGGA,062030.20,3046.9742856,N,10357.5037599,E,4,23,1.0,532.104,M,-40.962,M,2.2,*61
$GPGSA,A,3,07,08,09,16,23,26,27,,,,,,3.3,1.7,2.8,1*22
$GAGSA,A,3,02,03,08,25,36,,,,,,,,5.7,1.5,5.5,3*31
$GPGSV,2,1,07,07,28,314,45,08,65,182,47,09,48,289,48,16,42,037,44,1*66
$GPGSV,2,2,07,23,58,231,45,26,19,058,41,27,69,075,47,,,,,1*51
$GAGSV,2,1,05,02,43,307,43,03,40,227,42,08,30,293,41,25,52,033,43,7*74
$GAGSV,2,2,05,36,31,150,00,,,,,,,,,,,,,7*45
$GPRMC,062030.40,A,3046.9742854,N,10357.5037604,E,0.02,106.49,260319,0.0,E,D*37
$GPGGA,062030.40,3046.9742854,N,10357.5037604,E,4,23,1.0,532.104,M,-40.962,M,2.4,*64
$GPGSA,A,3,07,08,09,16,23,26,27,,,,,,3.3,1.7,2.8,1*22
$GAGSA,A,3,02,03,08,25,36,,,,,,,,5.7,1.5,5.5,3*31
$GPGSV,2,1,07,07,28,314,45,08,65,182,47,09,48,289,48,16,42,037,44,1*66
$GPGSV,2,2,07,23,58,231,45,26,19,058,41,27,69,075,47,,,,,1*51
$GAGSV,2,1,05,02,43,307,43,03,40,227,42,08,30,293,41,25,52,033,43,7*74
$GAGSV,2,2,05,36,31,150,00,,,,,,,,,,,,,7*45
$GPRMC,062030.60,A,3046.9742855,N,10357.5037604,E,0.06,106.49,260319,0.0,E,D*30
$GPGGA,062030.60,3046.9742855,N,10357.5037604,E,4,23,1.0,532.102,M,-40.962,M,2.6,*63
$GPGSA,A,3,07,08,09,16,23,26,27,,,,,,3.3,1.7,2.8,1*22
$GAGSA,A,3,02,03,08,25,36,,,,,,,,5.7,1.5,5.5,3*31
$GPGSV,2,1,07,07,28,314,45,08,65,182,47,09,48,289,48,16,42,037,44,1*66
$GPGSV,2,2,07,23,58,231,45,26,19,058,41,27,69,075,47,,,,,1*51
$GAGSV,2,1,05,02,43,307,43,03,40,227,42,08,30,293,41,25,52,033,43,7*74
$GAGSV,2,2,05,36,31,150,00,,,,,,,,,,,,,7*45
$GPRMC,062030.80,A,3046.9742856,N,10357.5037606,E,0.01,106.49,260319,0.0,E,D*38
$GPGGA,062030.80,3046.9742856,N,10357.5037606,E,4,23,1.0,532.104,M,-40.962,M,2.8,*64
$GPGSA,A,3,07,08,09,16,23,26,27,,,,,,3.3,1.7,2.8,1*22
$GAGSA,A,3,02,03,08,25,36,,,,,,,,5.7,1.5,5.5,3*31
$GPGSV,2,1,07,07,28,314,45,08,65,182,47,09,48,289,48,16,42,037,44,1*66
$GPGSV,2,2,07,23,58,231,45,26,19,058,41,27,69,075,47,,,,,1*51
$GAGSV,2,1,05,02,43,307,43,03,40,227,42,08,30,293,41,25,52,033,42,7*75
$GAGSV,2,2,05,36,31,150,00,,,,,,,,,,,,,7*45
$GPRMC,062031.00,A,3046.9742854,N,10357.5037604,E,0.02,106.49,260319,0.0,E,D*32
$GPGGA,062031.00,3046.9742854,N,10357.5037604,E,4,23,1.0,532.104,M,-40.962,M,3.0,*64
$GPGSA,A,3,07,08,09,16,23,26,27,,,,,,3.3,1.7,2.8,1*22
$GAGSA,A,3,02,03,08,25,36,,,,,,,,5.7,1.5,5.5,3*31
$GPGSV,2,1,07,07,28,314,45,08,65,182,47,09,48,289,48,16,42,037,44,1*66
$GPGSV,2,2,07,23,58,231,45,26,19,058,41,27,69,075,47,,,,,1*51
$GAGSV,2,1,05,02,43,307,43,03,40,227,42,08,30,293,41,25,52,033,43,7*74
$GAGSV,2,2,05,36,31,150,00,,,,,,,,,,,,,7*45
$GPRMC,062031.20,A,3046.9742857,N,10357.5037599,E,0.04,106.49,260319,0.0,E,D*32
$GPGGA,062031.20,3046.9742857,N,10357.5037599,E,4,23,1.0,532.105,M,-40.962,M,1.2,*63
$GPGSA,A,3,07,08,09,16,23,26,27,,,,,,3.3,1.7,2.8,1*22
$GAGSA,A,3,02,03,08,25,36,,,,,,,,5.7,1.5,5.5,3*31
$GPGSV,2,1,07,07,28,314,45,08,65,182,47,09,48,289,48,16,42,037,44,1*66
$GPGSV,2,2,07,23,58,231,45,26,19,058,41,27,69,075,47,,,,,1*51
$GAGSV,2,1,05,02,43,307,43,03,40,227,42,08,30,293,41,25,52,033,42,7*75
$GAGSV,2,2,05,36,31,150,00,,,,,,,,,,,,,7*45
$GPRMC,062031.40,A,3046.9742861,N,10357.5037607,E,0.05,106.49,260319,0.0,E,D*34
$GPGGA,062031.40,3046.9742861,N,10357.5037607,E,4,23,1.0,532.107,M,-40.962,M,1.4,*60
$GPGSA,A,3,07,08,09,16,23,26,27,,,,,,3.3,1.7,2.8,1*22
$GAGSA,A,3,02,03,08,25,36,,,,,,,,5.7,1.5,5.5,3*31
$GPGSV,2,1,07,07,28,314,45,08,65,182,47,09,48,289,48,16,42,037,44,1*66
$GPGSV,2,2,07,23,58,231,45,26,19,058,41,27,69,075,47,,,,,1*51
$GAGSV,2,1,05,02,43,307,43,03,40,227,42,08,30,293,41,25,52,033,42,7*75
$GAGSV,2,2,05,36,31,150,00,,,,,,,,,,,,,7*45
$GPRMC,062031.60,A,3046.9742855,N,10357.5037600,E,0.02,106.49,260319,0.0,E,D*31
$GPGGA,062031.60,3046.9742855,N,10357.5037600,E,4,23,1.0,532.105,M,-40.962,M,1.6,*62
$GPGSA,A,3,07,08,09,16,23,26,27,,,,,,3.3,1.7,2.8,1*22
$GAGSA,A,3,02,03,08,25,36,,,,,,,,5.7,1.5,5.5,3*31
$GPGSV,2,1,07,07,28,314,45,08,65,182,47,09,48,289,48,16,42,037,44,1*66
$GPGSV,2,2,07,23,58,231,45,26,19,058,41,27,69,075,47,,,,,1*51
$GAGSV,2,1,05,02,43,307,43,03,40,227,42,08,30,292,41,25,52,033,42,7*74
$GAGSV,2,2,05,36,31,150,00,,,,,,,,,,,,,7*45
$GPRMC,062031.80,A,3046.9742850,N,10357.5037599,E,0.03,106.49,260319,0.0,E,D*38
$GPGGA,062031.80,3046.9742850,N,10357.5037599,E,4,23,1.0,532.106,M,-40.962,M,1.8,*67
$GPGSA,A,3,07,08,09,16,23,26,27,,,,,,3.3,1.7,2.8,1*22
$GAGSA,A,3,02,03,08,25,36,,,,,,,,5.7,1.5,5.5,3*31
$GPGSV,2,1,07,07,28,314,44,08,65,182,47,09,48,289,48,16,42,037,44,1*67
$GPGSV,2,2,07,23,58,231,45,26,19,058,41,27,69,075,47,,,,,1*51
$GAGSV,2,1,05,02,43,307,43,03,40,227,42,08,30,292,41,25,52,033,42,7*74
$GAGSV,2,2,05,36,31,150,00,,,,,,,,,,,,,7*45
$GPRMC,062032.00,A,3046.9742847,N,10357.5037596,E,0.03,106.49,260319,0.0,E,D*3A
$GPGGA,062032.00,3046.9742847,N,10357.5037596,E,4,23,1.0,532.106,M,-40.962,M,2.0,*6E
$GPGSA,A,3,07,08,09,16,23,26,27,,,,,,3.3,1.7,2.8,1*22
$GAGSA,A,3,02,03,08,25,36,,,,,,,,5.7,1.5,5.5,3*31
$GPGSV,2,1,07,07,28,314,44,08,65,182,47,09,48,289,48,16,42,037,44,1*67
$GPGSV,2,2,07,23,58,231,45,26,19,058,41,27,69,075,47,,,,,1*51
$GAGSV,2,1,05,02,43,307,42,03,40,227,42,08,30,292,41,25,52,033,42,7*75
$GAGSV,2,2,05,36,31,150,00,,,,,,,,,,,,,7*45
$GPRMC,062032.20,A,3046.9742853,N,10357.5037596,E,0.03,106.49,260319,0.0,E,D*3D
$GPGGA,062032.20,3046.9742853,N,10357.5037596,E,4,23,1.0,532.106,M,-40.962,M,2.2,*6B
$GPGSA,A,3,07,08,09,16,23,26,27,,,,,,3.3,1.7,2.8,1*22
$GAGSA,A,3,02,03,08,25,36,,,,,,,,5.7,1.5,5.5,3*31
$GPGSV,2,1,07,07,28,314,44,08,65,182,47,09,48,289,47,16,42,037,44,1*68
$GPGSV,2,2,07,23,58,231,45,26,19,058,41,27,69,075,47,,,,,1*51
$GAGSV,2,1,05,02,43,307,43,03,40,227,42,08,30,292,41,25,52,033,42,7*74
$GAGSV,2,2,05,36,31,150,00,,,,,,,,,,,,,7*45
$GPRMC,062032.40,A,3046.9742847,N,10357.5037596,E,0.05,106.49,260319,0.0,E,D*38
$GPGGA,062032.40,3046.9742847,N,10357.5037596,E,4,23,1.0,532.107,M,-40.962,M,2.4,*6F
$GPGSA,A,3,07,08,09,16,23,26,27,,,,,,3.3,1.7,2.8,1*22
$GAGSA,A,3,02,03,08,25,36,,,,,,,,5.7,1.5,5.5,3*31
$GPGSV,2,1,07,07,28,314,44,08,65,182,47,09,48,289,48,16,42,037,44,1*67
$GPGSV,2,2,07,23,58,231,45,26,19,058,41,27,69,075,47,,,,,1*51
$GAGSV,2,1,05,02,43,307,43,03,40,227,42,08,31,292,41,25,52,033,42,7*75
$GAGSV,2,2,05,36,31,150,00,,,,,,,,,,,,,7*45
$GPRMC,062032.60,A,3046.9742849,N,10357.5037598,E,0.05,106.49,260319,0.0,E,D*3A
$GPGGA,062032.60,3046.9742849,N,10357.5037598,E,4,23,1.0,532.107,M,-40.962,M,2.6,*6F
$GPGSA,A,3,07,08,09,16,23,26,27,,,,,,3.3,1.7,2.8,1*22
$GAGSA,A,3,02,03,08,25,36,,,,,,,,5.7,1.5,5.5,3*31
$GPGSV,2,1,07,07,28,314,44,08,65,182,47,09,48,289,48,16,42,037,44,1*67
$GPGSV,2,2,07,23,58,231,45,26,19,058,41,27,69,075,47,,,,,1*51
$GAGSV,2,1,05,02,43,307,43,03,40,227,42,08,31,292,41,25,52,033,42,7*75
$GAGSV,2,2,05,36,31,150,00,,,,,,,,,,,,,7*45
$GPRMC,062032.80,A,3046.9742851,N,10357.5037591,E,0.01,106.49,260319,0.0,E,D*30
$GPGGA,062032.80,3046.9742851,N,10357.5037591,E,4,23,1.0,532.108,M,-40.962,M,2.8,*60
$GPGSA,A,3,07,08,09,16,23,26,27,,,,,,3.3,1.7,2.8,1*22
$GAGSA,A,3,02,03,08,25,36,,,,,,,,5.7,1.5,5.5,3*31
$GPGSV,2,1,07,07,28,314,45,08,65,182,47,09,48,289,48,16,42,037,44,1*66
$GPGSV,2,2,07,23,58,231,45,26,19,058,41,27,69,075,47,,,,,1*51
$GAGSV,2,1,05,02,43,307,43,03,40,227,42,08,31,292,41,25,52,033,42,7*75
$GAGSV,2,2,05,36,31,150,00,,,,,,,,,,,,,7*45
$GPRMC,062033.00,A,3046.9742847,N,10357.5037592,E,0.04,106.49,260319,0.0,E,D*38
$GPGGA,062033.00,3046.9742847,N,10357.5037592,E,4,23,1.0,532.107,M,-40.962,M,3.0,*6B
$GPGSA,A,3,07,08,09,16,23,26,27,,,,,,3.3,1.7,2.8,1*22
$GAGSA,A,3,02,03,08,25,36,,,,,,,,5.7,1.5,5.5,3*31
$GPGSV,2,1,07,07,28,314,45,08,65,182,47,09,48,289,48,16,42,037,44,1*66
$GPGSV,2,2,07,23,58,231,45,26,19,058,41,27,69,075,47,,,,,1*51
$GAGSV,2,1,05,02,43,307,43,03,40,227,42,08,31,292,41,25,52,033,42,7*75
$GAGSV,2,2,05,36,31,150,00,,,,,,,,,,,,,7*45
$GPRMC,062033.20,A,3046.9742861,N,10357.5037597,E,0.09,106.49,260319,0.0,E,D*36
$GPGGA,062033.20,3046.9742861,N,10357.5037597,E,4,23,1.0,532.107,M,-40.962,M,1.2,*68
$GPGSA,A,3,07,08,09,16,23,26,27,,,,,,3.3,1.7,2.8,1*22
$GAGSA,A,3,02,03,08,25,36,,,,,,,,5.7,1.5,5.5,3*31
$GPGSV,2,1,07,07,28,314,44,08,65,182,47,09,48,289,48,16,42,037,44,1*67
$GPGSV,2,2,07,23,58,231,45,26,19,058,41,27,69,075,47,,,,,1*51
$GAGSV,2,1,05,02,43,307,43,03,40,227,42,08,31,292,41,25,52,033,42,7*75
$GAGSV,2,2,05,36,31,150,00,,,,,,,,,,,,,7*45
$GPRMC,062033.40,A,3046.9742859,N,10357.5037597,E,0.05,106.49,260319,0.0,E,D*37
$GPGGA,062033.40,3046.9742859,N,10357.5037597,E,4,23,1.0,532.108,M,-40.962,M,1.4,*6C
$GPGSA,A,3,07,08,09,16,23,26,27,,,,,,3.3,1.7,2.8,1*22
$GAGSA,A,3,02,03,08,25,36,,,,,,,,5.7,1.5,5.5,3*31
$GPGSV,2,1,07,07,28,314,44,08,65,182,47,09,48,289,48,16,42,037,44,1*67
$GPGSV,2,2,07,23,58,231,45,26,19,058,41,27,69,075,47,,,,,1*51
$GAGSV,2,1,05,02,43,307,43,03,40,227,42,08,31,292,41,25,52,033,42,7*75
$GAGSV,2,2,05,36,31,150,00,,,,,,,,,,,,,7*45
$GPRMC,062033.60,A,3046.9742861,N,10357.5037583,E,0.08,106.49,260319,0.0,E,D*36
$GPGGA,062033.60,3046.9742861,N,10357.5037583,E,4,23,1.0,532.109,M,-40.962,M,1.6,*63
$GPGSA,A,3,07,08,09,16,23,26,27,,,,,,3.3,1.7,2.8,1*22
$GAGSA,A,3,02,03,08,25,36,,,,,,,,5.7,1.5,5.5,3*31
$GPGSV,2,1,07,07,28,314,44,08,65,182,47,09,48,289,48,16,42,037,44,1*67
$GPGSV,2,2,07,23,58,231,45,26,19,058,41,27,69,075,47,,,,,1*51
$GAGSV,2,1,05,02,43,307,43,03,40,227,42,08,31,292,41,25,52,033,42,7*75
$GAGSV,2,2,05,36,31,150,00,,,,,,,,,,,,,7*45
$GPRMC,062033.80,A,3046.9742861,N,10357.5037583,E,0.03,106.49,260319,0.0,E,D*33
$GPGGA,062033.80,3046.9742861,N,10357.5037583,E,4,23,1.0,532.109,M,-40.962,M,1.8,*63
$GPGSA,A,3,07,08,09,16,23,26,27,,,,,,3.3,1.7,2.8,1*22
$GAGSA,A,3,02,03,08,25,36,,,,,,,,5.7,1.5,5.5,3*31
$GPGSV,2,1,07,07,28,314,44,08,65,182,47,09,48,289,48,16,42,037,44,1*67
$GPGSV,2,2,07,23,58,231,45,26,19,058,41,27,69,075,47,,,,,1*51
