$GPRMC,062817.60,A,3046.9743782,N,10357.5038401,E,0.07,90.61,260319,0.0,E,D*04
$GPGGA,062817.60,3046.9743782,N,10357.5038401,E,4,23,1.0,532.105,M,-40.962,M,1.6,*66
$GPGSA,A,3,07,08,09,16,23,27,,,,,,,6.9,2.7,6.4,1*22
$GAGSA,A,3,02,03,08,11,25,36,,,,,,,6.0,1.3,5.9,3*3F
$GPGSV,2,1,06,07,30,316,44,08,69,180,47,09,49,284,48,16,40,039,45,1*62
$GPGSV,2,2,06,23,56,225,45,27,67,066,48,,,,,,,,,1*6C
$GAGSV,2,1,06,02,44,310,42,03,37,225,41,08,31,289,40,11,37,082,39,7*7E
$GAGSV,2,2,06,25,51,038,43,36,34,148,00,,,,,,,,,7*75
$GPRMC,062817.80,A,3046.9743778,N,10357.5038403,E,0.03,90.61,260319,0.0,E,D*09
$GPGGA,062817.80,3046.9743778,N,10357.5038403,E,4,23,1.0,532.104,M,-40.962,M,1.8,*60
$GPGSA,A,3,07,08,09,16,23,27,,,,,,,6.9,2.7,6.4,1*22
$GAGSA,A,3,02,03,08,11,25,36,,,,,,,6.0,1.3,5.9,3*3F
$GPGSV,2,1,06,07,30,316,44,08,69,180,47,09,49,284,48,16,40,039,45,1*62
$GPGSV,2,2,06,23,56,225,45,27,67,066,48,,,,,,,,,1*6C
$GAGSV,2,1,06,02,44,310,42,03,37,225,41,08,31,289,40,11,37,082,39,7*7E
$GAGSV,2,2,06,25,51,038,43,36,34,148,00,,,,,,,,,7*75
$GPRMC,062818.00,A,3046.9743778,N,10357.5038401,E,0.05,90.61,260319,0.0,E,D*0A
$GPGGA,062818.00,3046.9743778,N,10357.5038401,E,4,23,1.0,532.105,M,-40.962,M,2.0,*6F
$GPGSA,A,3,07,08,09,16,23,27,,,,,,,6.9,2.7,6.4,1*22
$GAGSA,A,3,02,03,08,11,25,36,,,,,,,6.0,1.3,5.9,3*3F
$GPGSV,2,1,06,07,30,316,44,08,69,180,47,09,49,284,48,16,40,039,45,1*62
$GPGSV,2,2,06,23,56,225,45,27,67,066,48,,,,,,,,,1*6C
$GAGSV,2,1,06,02,44,310,42,03,37,225,41,08,31,289,40,11,37,082,39,7*7E
$GAGSV,2,2,06,25,51,038,43,36,34,148,00,,,,,,,,,7*75
$GPRMC,062818.20,A,3046.9743777,N,10357.5038401,E,0.06,90.61,260319,0.0,E,D*04
$GPGGA,062818.20,3046.9743777,N,10357.5038401,E,4,23,1.0,532.106,M,-40.962,M,2.2,*63
$GPGSA,A,3,07,08,09,16,23,27,,,,,,,6.9,2.7,6.4,1*22
$GAGSA,A,3,02,03,08,11,25,36,,,,,,,6.0,1.3,5.9,3*3F
$GPGSV,2,1,06,07,30,316,44,08,69,180,47,09,49,284,48,16,40,039,45,1*62
$GPGSV,2,2,06,23,56,225,45,27,67,066,48,,,,,,,,,1*6C
$GAGSV,2,1,06,02,44,310,42,03,37,225,41,08,31,289,40,11,37,082,39,7*7E
$GAGSV,2,2,06,25,51,038,43,36,34,148,00,,,,,,,,,7*75
$GPRMC,062818.40,A,3046.9743778,N,10357.5038406,E,0.12,90.61,260319,0.0,E,D*0F
$GPGGA,062818.40,3046.9743778,N,10357.5038406,E,4,23,1.0,532.105,M,-40.962,M,2.4,*68
$GPGSA,A,3,07,08,09,16,23,27,,,,,,,6.9,2.7,6.4,1*22
$GAGSA,A,3,02,03,08,11,25,36,,,,,,,6.0,1.3,5.9,3*3F
$GPGSV,2,1,06,07,30,316,44,08,69,180,47,09,49,284,48,16,40,039,45,1*62
$GPGSV,2,2,06,23,56,225,45,27,67,066,48,,,,,,,,,1*6C
$GAGSV,2,1,06,02,44,310,42,03,37,225,41,08,31,289,40,11,37,082,38,7*7F
$GAGSV,2,2,06,25,51,038,43,36,34,148,00,,,,,,,,,7*75
$GPRMC,062818.60,A,3046.9743776,N,10357.5038390,E,0.03,90.61,260319,0.0,E,D*0B
$GPGGA,062818.60,3046.9743776,N,10357.5038390,E,4,23,1.0,532.104,M,-40.962,M,2.6,*6F
$GPGSA,A,3,07,08,09,16,23,27,,,,,,,6.9,2.7,6.4,1*22
$GAGSA,A,3,02,03,08,11,25,36,,,,,,,6.0,1.3,5.9,3*3F
$GPGSV,2,1,06,07,30,316,44,08,69,180,47,09,49,284,48,16,40,039,45,1*62
$GPGSV,2,2,06,23,56,225,45,27,67,066,48,,,,,,,,,1*6C
$GAGSV,2,1,06,02,44,310,43,03,37,225,41,08,31,289,40,11,37,082,38,7*7E
$GAGSV,2,2,06,25,51,038,43,36,34,148,00,,,,,,,,,7*75
$GPRMC,062818.80,A,3046.9743779,N,10357.5038395,E,0.07,90.61,260319,0.0,E,D*0B
$GPGGA,062818.80,3046.9743779,N,10357.5038395,E,4,23,1.0,532.103,M,-40.962,M,2.8,*62
$GPGSA,A,3,07,08,09,16,23,27,,,,,,,6.9,2.7,6.4,1*22
$GAGSA,A,3,02,03,08,11,25,36,,,,,,,6.0,1.3,5.9,3*3F
$GPGSV,2,1,06,07,30,316,44,08,69,180,47,09,49,284,48,16,40,039,45,1*62
$GPGSV,2,2,06,23,56,225,45,27,67,066,48,,,,,,,,,1*6C
$GAGSV,2,1,06,02,44,310,42,03,37,225,41,08,31,289,40,11,37,082,38,7*7F
$GAGSV,2,2,06,25,51,038,43,36,34,148,00,,,,,,,,,7*75
$GPRMC,062819.00,A,3046.9743774,N,10357.5038399,E,0.13,90.61,260319,0.0,E,D*06
$GPGGA,062819.00,3046.9743774,N,10357.5038399,E,4,23,1.0,532.100,M,-40.962,M,3.0,*60
$GPGSA,A,3,07,08,09,16,23,27,,,,,,,6.9,2.7,6.4,1*22
$GAGSA,A,3,02,03,08,11,25,36,,,,,,,6.0,1.3,5.9,3*3F
$GPGSV,2,1,06,07,30,316,44,08,69,180,47,09,49,284,48,16,40,039,45,1*62
$GPGSV,2,2,06,23,56,225,44,27,67,066,48,,,,,,,,,1*6D
$GAGSV,2,1,06,02,44,310,42,03,37,225,41,08,31,289,40,11,37,082,38,7*7F
$GAGSV,2,2,06,25,51,038,43,36,34,148,00,,,,,,,,,7*75
$GPRMC,062819.20,A,3046.9743792,N,10357.5038401,E,0.19,90.61,260319,0.0,E,D*00
$GPGGA,062819.20,3046.9743792,N,10357.5038401,E,4,23,1.0,532.111,M,-40.962,M,1.2,*6C
$GPGSA,A,3,07,08,09,16,23,27,,,,,,,6.9,2.7,6.4,1*22
$GAGSA,A,3,02,03,08,11,25,36,,,,,,,6.0,1.3,5.9,3*3F
$GPGSV,2,1,06,07,30,316,44,08,69,180,47,09,49,284,48,16,40,039,45,1*62
$GPGSV,2,2,06,23,56,225,45,27,67,066,48,,,,,,,,,1*6C
$GAGSV,2,1,06,02,44,310,42,03,37,225,41,08,31,289,40,11,37,082,39,7*7E
$GAGSV,2,2,06,25,51,038,43,36,34,148,00,,,,,,,,,7*75
$GPRMC,062819.40,A,3046.9743786,N,10357.5038400,E,0.05,90.61,260319,0.0,E,D*0F
$GPGGA,062819.40,3046.9743786,N,10357.5038400,E,4,23,1.0,532.112,M,-40.962,M,1.4,*6B
$GPGSA,A,3,07,08,09,16,23,27,,,,,,,6.9,2.7,6.4,1*22
$GAGSA,A,3,02,03,08,11,25,36,,,,,,,6.0,1.3,5.9,3*3F
$GPGSV,2,1,06,07,30,316,44,08,69,180,47,09,49,284,48,16,40,039,45,1*62
$GPGSV,2,2,06,23,56,225,45,27,67,066,48,,,,,,,,,1*6C
$GAGSV,2,1,06,02,44,310,42,03,37,225,41,08,31,289,40,11,37,082,39,7*7E
$GAGSV,2,2,06,25,51,038,43,36,34,148,00,,,,,,,,,7*75
$GPRMC,062819.60,A,3046.9743789,N,10357.5038403,E,0.09,90.61,260319,0.0,E,D*0D
$GPGGA,062819.60,3046.9743789,N,10357.5038403,E,4,23,1.0,532.110,M,-40.962,M,1.6,*65
$GPGSA,A,3,07,08,09,16,23,27,,,,,,,6.9,2.7,6.4,1*22
$GAGSA,A,3,02,03,08,11,25,36,,,,,,,6.0,1.3,5.9,3*3F
$GPGSV,2,1,06,07,30,316,44,08,69,180,47,09,49,284,48,16,40,040,45,1*6C
$GPGSV,2,2,06,23,56,225,45,27,67,066,48,,,,,,,,,1*6C
$GAGSV,2,1,06,02,44,310,42,03,37,225,41,08,31,289,40,11,37,082,39,7*7E
$GAGSV,2,2,06,25,51,038,43,36,34,148,00,,,,,,,,,7*75
$GPRMC,062819.80,A,3046.9743784,N,10357.5038398,E,0.05,90.61,260319,0.0,E,D*07
$GPGGA,062819.80,3046.9743784,N,10357.5038398,E,4,23,1.0,532.108,M,-40.962,M,1.8,*64
$GPGSA,A,3,07,08,09,16,23,27,,,,,,,6.9,2.7,6.3,1*25
$GAGSA,A,3,02,03,08,11,25,36,,,,,,,6.0,1.3,5.9,3*3F
$GPGSV,2,1,06,07,30,316,44,08,69,180,47,09,49,284,48,16,40,040,45,1*6C
$GPGSV,2,2,06,23,56,225,45,27,67,066,48,,,,,,,,,1*6C
$GAGSV,2,1,06,02,44,310,42,03,37,225,41,08,31,289,40,11,37,082,39,7*7E
$GAGSV,2,2,06,25,51,038,43,36,34,148,00,,,,,,,,,7*75
$GPRMC,062820.00,A,3046.9743787,N,10357.5038398,E,0.07,90.61,260319,0.0,E,D*04
$GPGGA,062820.00,3046.9743787,N,10357.5038398,E,4,23,1.0,532.108,M,-40.962,M,2.0,*6E
$GPGSA,A,3,07,08,09,16,23,27,,,,,,,6.9,2.7,6.3,1*25
$GAGSA,A,3,02,03,08,11,25,36,,,,,,,6.0,1.3,5.9,3*3F
$GPGSV,2,1,06,07,30,316,44,08,69,180,47,09,49,284,48,16,40,040,45,1*6C
$GPGSV,2,2,06,23,56,225,45,27,67,066,48,,,,,,,,,1*6C
$GAGSV,2,1,06,02,44,310,42,03,37,225,41,08,31,289,40,11,37,082,39,7*7E
$GAGSV,2,2,06,25,51,038,43,36,34,148,00,,,,,,,,,7*75
$GPRMC,062820.20,A,3046.9743784,N,10357.5038393,E,0.07,90.61,260319,0.0,E,D*0E
$GPGGA,062820.20,3046.9743784,N,10357.5038393,E,4,23,1.0,532.106,M,-40.962,M,2.2,*68
$GPGSA,A,3,07,08,09,16,23,27,,,,,,,6.9,2.7,6.3,1*25
$GAGSA,A,3,02,03,08,11,25,36,,,,,,,6.0,1.3,5.9,3*3F
$GPGSV,2,1,06,07,30,316,44,08,69,180,47,09,49,284,48,16,40,040,45,1*6C
$GPGSV,2,2,06,23,56,225,45,27,67,066,48,,,,,,,,,1*6C
$GAGSV,2,1,06,02,44,310,42,03,37,225,41,08,31,289,40,11,37,082,39,7*7E
$GAGSV,2,2,06,25,51,038,43,36,34,148,00,,,,,,,,,7*75
$GPRMC,062820.40,A,3046.9743781,N,10357.5038396,E,0.07,90.61,260319,0.0,E,D*08
$GPGGA,062820.40,3046.9743781,N,10357.5038396,E,4,23,1.0,532.107,M,-40.962,M,2.4,*69
$GPGSA,A,3,07,08,09,16,23,27,,,,,,,6.9,2.7,6.3,1*25
$GAGSA,A,3,02,03,08,11,25,36,,,,,,,6.0,1.3,5.9,3*3F
$GPGSV,2,1,06,07,30,316,44,08,69,180,47,09,49,284,48,16,40,040,45,1*6C
$GPGSV,2,2,06,23,56,225,45,27,67,066,48,,,,,,,,,1*6C
$GAGSV,2,1,06,02,44,310,42,03,37,225,41,08,31,289,40,11,37,082,39,7*7E
$GAGSV,2,2,06,25,51,038,43,36,34,148,00,,,,,,,,,7*75
$GPRMC,062820.60,A,3046.9743786,N,10357.5038391,E,0.12,90.61,260319,0.0,E,D*0E
$GPGGA,062820.60,3046.9743786,N,10357.5038391,E,4,23,1.0,532.110,M,-40.962,M,2.6,*6F
$GPGSA,A,3,07,08,09,16,23,27,,,,,,,6.9,2.7,6.3,1*25
$GAGSA,A,3,02,03,08,11,25,36,,,,,,,6.0,1.3,5.9,3*3F
$GPGSV,2,1,06,07,30,316,44,08,69,180,47,09,49,284,48,16,40,040,45,1*6C
$GPGSV,2,2,06,23,56,225,45,27,67,066,48,,,,,,,,,1*6C
$GAGSV,2,1,06,02,44,310,42,03,37,225,41,08,31,289,40,11,37,082,39,7*7E
$GAGSV,2,2,06,25,51,038,43,36,34,148,00,,,,,,,,,7*75
$GPRMC,062820.80,A,3046.9743788,N,10357.5038394,E,0.05,90.61,260319,0.0,E,D*0D
$GPGGA,062820.80,3046.9743788,N,10357.5038394,E,4,23,1.0,532.107,M,-40.962,M,2.8,*62
$GPGSA,A,3,07,08,09,16,23,27,,,,,,,6.9,2.7,6.3,1*25
$GAGSA,A,3,02,03,08,11,25,36,,,,,,,6.0,1.3,5.9,3*3F
$GPGSV,2,1,06,07,30,316,44,08,69,180,47,09,49,284,48,16,40,040,45,1*6C
$GPGSV,2,2,06,23,56,225,45,27,67,066,48,,,,,,,,,1*6C
$GAGSV,2,1,06,02,44,310,42,03,37,225,41,08,31,289,40,11,37,082,39,7*7E
$GAGSV,2,2,06,25,51,038,43,36,34,148,00,,,,,,,,,7*75
$GPRMC,062821.00,A,3046.9743793,N,10357.5038408,E,0.12,90.61,260319,0.0,E,D*0A
$GPGGA,062821.00,3046.9743793,N,10357.5038408,E,4,23,1.0,532.103,M,-40.962,M,1.0,*6C
$GPGSA,A,3,07,08,09,16,23,27,,,,,,,6.9,2.7,6.3,1*25
$GAGSA,A,3,02,03,08,11,25,36,,,,,,,6.0,1.3,5.9,3*3F
$GPGSV,2,1,06,07,30,316,44,08,69,180,47,09,49,284,48,16,40,040,45,1*6C
$GPGSV,2,2,06,23,56,225,45,27,67,066,48,,,,,,,,,1*6C
$GAGSV,2,1,06,02,44,310,42,03,37,225,41,08,31,289,40,11,37,082,39,7*7E
$GAGSV,2,2,06,25,51,038,43,36,34,148,00,,,,,,,,,7*75
$GPRMC,062821.20,A,3046.9743791,N,10357.5038399,E,0.05,90.61,260319,0.0,E,D*03
$GPGGA,062821.20,3046.9743791,N,10357.5038399,E,4,23,1.0,532.104,M,-40.962,M,1.2,*66
$GPGSA,A,3,07,08,09,16,23,27,,,,,,,6.9,2.7,6.3,1*25
$GAGSA,A,3,02,03,08,11,25,36,,,,,,,6.0,1.3,5.9,3*3F
$GPGSV,2,1,06,07,30,316,44,08,69,180,47,09,49,284,48,16,40,040,45,1*6C
$GPGSV,2,2,06,23,56,225,45,27,67,066,48,,,,,,,,,1*6C
$GAGSV,2,1,06,02,44,310,42,03,37,225,41,08,31,289,40,11,37,082,39,7*7E
$GAGSV,2,2,06,25,51,038,43,36,34,148,00,,,,,,,,,7*75
$GPRMC,062821.40,A,3046.9743789,N,10357.5038404,E,0.08,90.61,260319,0.0,E,D*02
$GPGGA,062821.40,3046.9743789,N,10357.5038404,E,4,23,1.0,532.103,M,-40.962,M,1.4,*6B
$GPGSA,A,3,07,08,09,16,23,27,,,,,,,6.9,2.7,6.3,1*25
$GAGSA,A,3,02,03,08,11,25,36,,,,,,,6.0,1.3,5.9,3*3F
$GPGSV,2,1,06,07,30,316,44,08,69,180,47,09,49,284,48,16,40,040,45,1*6C
$GPGSV,2,2,06,23,56,225,45,27,67,066,48,,,,,,,,,1*6C
$GAGSV,2,1,06,02,44,310,42,03,37,225,41,08,31,289,40,11,37,082,39,7*7E
$GAGSV,2,2,06,25,51,038,43,36,34,148,00,,,,,,,,,7*75
$GPRMC,062821.60,A,3046.9743790,N,10357.5038397,E,0.07,90.61,260319,0.0,E,D*0A
$GPGGA,062821.60,3046.9743790,N,10357.5038397,E,4,23,1.0,532.103,M,-40.962,M,1.6,*6E
$GPGSA,A,3,07,08,09,16,23,27,,,,,,,6.9,2.7,6.3,1*25
$GAGSA,A,3,02,03,08,11,25,36,,,,,,,6.0,1.3,5.9,3*3F
$GPGSV,2,1,06,07,30,316,44,08,69,180,47,09,49,284,48,16,40,040,45,1*6C
$GPGSV,2,2,06,23,56,225,45,27,67,066,48,,,,,,,,,1*6C
$GAGSV,2,1,06,02,44,310,42,03,37,225,41,08,31,289,40,11,37,082,39,7*7E
$GAGSV,2,2,06,25,51,038,43,36,34,148,00,,,,,,,,,7*75
$GPRMC,062821.80,A,3046.9743790,N,10357.5038400,E,0.03,90.61,260319,0.0,E,D*09
$GPGGA,062821.80,3046.9743790,N,10357.5038400,E,4,23,1.0,532.102,M,-40.962,M,1.8,*66
$GPGSA,A,3,07,08,09,16,23,27,,,,,,,6.9,2.7,6.3,1*25
$GAGSA,A,3,02,03,08,11,25,36,,,,,,,6.0,1.3,5.9,3*3F
$GPGSV,2,1,06,07,30,316,44,08,69,180,47,09,49,284,48,16,40,040,45,1*6C
$GPGSV,2,2,06,23,56,225,45,27,67,066,48,,,,,,,,,1*6C
$GAGSV,2,1,06,02,44,310,42,03,37,225,41,08,31,289,40,11,37,082,39,7*7E
$GAGSV,2,2,06,25,51,038,43,36,34,148,00,,,,,,,,,7*75
$GPRMC,062822.00,A,3046.9743790,N,10357.5038405,E,0.05,90.61,260319,0.0,E,D*01
$GPGGA,062822.00,3046.9743790,N,10357.5038405,E,4,23,1.0,532.102,M,-40.962,M,2.0,*63
$GPGSA,A,3,07,08,09,16,23,27,,,,,,,6.9,2.7,6.3,1*25
$GAGSA,A,3,02,03,08,11,25,36,,,,,,,6.0,1.3,5.9,3*3F
$GPGSV,2,1,06,07,30,316,44,08,69,180,47,09,49,284,48,16,40,040,45,1*6C
$GPGSV,2,2,06,23,56,225,45,27,67,066,48,,,,,,,,,1*6C
$GAGSV,2,1,06,02,44,310,42,03,37,225,41,08,31,289,40,11,37,082,39,7*7E
$GAGSV,2,2,06,25,51,038,43,36,34,148,00,,,,,,,,,7*75
$GPRMC,062822.20,A,3046.9743787,N,10357.5038396,E,0.06,90.61,260319,0.0,E,D*0B
$GPGGA,062822.20,3046.9743787,N,10357.5038396,E,4,23,1.0,532.103,M,-40.962,M,2.2,*69
$GPGSA,A,3,07,08,09,16,23,27,,,,,,,6.9,2.6,6.3,1*24
$GAGSA,A,3,02,03,08,11,25,36,,,,,,,6.0,1.3,5.9,3*3F
$GPGSV,2,1,06,07,30,316,44,08,69,180,47,09,49,284,48,16,40,040,45,1*6C
$GPGSV,2,2,06,23,56,225,45,27,67,066,48,,,,,,,,,1*6C
$GAGSV,2,1,06,02,44,310,42,03,37,225,41,08,31,289,40,11,37,082,39,7*7E
$GAGSV,2,2,06,25,51,038,43,36,34,148,00,,,,,,,,,7*75
$GPRMC,062822.40,A,3046.9743792,N,10357.5038393,E,0.11,90.61,260319,0.0,E,D*0A
$GPGGA,062822.40,3046.9743792,N,10357.5038393,E,4,23,1.0,532.101,M,-40.962,M,2.4,*6A
$GPGSA,A,3,07,08,09,16,23,27,,,,,,,6.9,2.6,6.3,1*24
$GAGSA,A,3,02,03,08,11,25,36,,,,,,,6.0,1.3,5.9,3*3F
$GPGSV,2,1,06,07,30,316,44,08,69,180,47,09,49,284,48,16,40,040,45,1*6C
$GPGSV,2,2,06,23,56,225,45,27,67,066,48,,,,,,,,,1*6C
$GAGSV,2,1,06,02,44,310,42,03,37,225,41,08,31,289,40,11,37,082,39,7*7E
$GAGSV,2,2,06,25,51,038,43,36,34,148,00,,,,,,,,,7*75
$GPRMC,062822.60,A,3046.9743796,N,10357.5038389,E,0.15,90.61,260319,0.0,E,D*03
$GPGGA,062822.60,3046.9743796,N,10357.5038389,E,4,23,1.0,532.103,M,-40.962,M,2.6,*67
$GPGSA,A,3,07,08,09,16,23,27,,,,,,,6.9,2.6,6.3,1*24
$GAGSA,A,3,02,03,08,11,25,36,,,,,,,6.0,1.3,5.9,3*3F
$GPGSV,2,1,06,07,30,316,44,08,69,180,47,09,49,284,48,16,40,040,45,1*6C
$GPGSV,2,2,06,23,56,225,45,27,67,066,48,,,,,,,,,1*6C
$GAGSV,2,1,06,02,44,310,42,03,37,225,41,08,31,289,40,11,37,082,39,7*7E
$GAGSV,2,2,06,25,51,038,43,36,34,148,00,,,,,,,,,7*75
$GPRMC,062822.80,A,3046.9743799,N,10357.5038393,E,0.04,90.61,260319,0.0,E,D*09
$GPGGA,062822.80,3046.9743799,N,10357.5038393,E,4,23,1.0,532.104,M,-40.962,M,2.8,*64
$GPGSA,A,3,07,08,09,16,23,27,,,,,,,6.9,2.6,6.3,1*24
$GAGSA,A,3,02,03,08,11,25,36,,,,,,,6.0,1.3,5.9,3*3F
$GPGSV,2,1,06,07,30,316,44,08,69,180,47,09,49,284,48,16,40,040,45,1*6C
$GPGSV,2,2,06,23,56,225,45,27,67,066,48,,,,,,,,,1*6C
$GAGSV,2,1,06,02,44,310,42,03,37,225,41,08,31,289,40,11,37,082,39,7*7E
$GAGSV,2,2,06,25,51,038,43,36,34,148,00,,,,,,,,,7*75
$GPRMC,062823.00,A,3046.9743796,N,10357.5038388,E,0.05,90.61,260319,0.0,E,D*04
$GPGGA,062823.00,3046.9743796,N,10357.5038388,E,4,23,1.0,532.102,M,-40.962,M,3.0,*67
$GPGSA,A,3,07,08,09,16,23,27,,,,,,,6.9,2.6,6.3,1*24
$GAGSA,A,3,02,03,08,11,25,36,,,,,,,6.0,1.3,5.9,3*3F
$GPGSV,2,1,06,07,30,316,44,08,69,180,47,09,49,284,48,16,40,040,45,1*6C
$GPGSV,2,2,06,23,56,225,45,27,67,066,48,,,,,,,,,1*6C
$GAGSV,2,1,06,02,44,310,42,03,37,225,41,08,31,289,40,11,37,082,39,7*7E
$GAGSV,2,2,06,25,51,038,43,36,34,148,00,,,,,,,,,7*75
$GPRMC,062823.20,A,3046.9743782,N,10357.5038387,E,0.06,90.61,260319,0.0,E,D*0F
$GPGGA,062823.20,3046.9743782,N,10357.5038387,E,4,23,1.0,532.105,M,-40.962,M,1.2,*68
$GPGSA,A,3,07,08,09,16,23,27,,,,,,,6.9,2.6,6.3,1*24
$GAGSA,A,3,02,03,08,11,25,36,,,,,,,6.0,1.3,5.9,3*3F
$GPGSV,2,1,06,07,30,316,45,08,69,180,47,09,49,284,48,16,40,040,45,1*6D
$GPGSV,2,2,06,23,56,225,45,27,67,066,48,,,,,,,,,1*6C
$GAGSV,2,1,06,02,44,310,42,03,37,225,41,08,31,289,40,11,37,082,39,7*7E
$GAGSV,2,2,06,25,51,038,43,36,34,148,00,,,,,,,,,7*75
$GPRMC,062823.40,A,3046.9743775,N,10357.5038391,E,0.08,90.61,260319,0.0,E,D*08
$GPGGA,062823.40,3046.9743775,N,10357.5038391,E,4,23,1.0,532.103,M,-40.962,M,1.4,*61
$GPGSA,A,3,07,08,09,16,23,27,,,,,,,6.9,2.6,6.3,1*24
$GAGSA,A,3,02,03,08,11,25,36,,,,,,,6.0,1.3,5.9,3*3F
$GPGSV,2,1,06,07,30,316,45,08,69,180,47,09,49,284,48,16,40,040,45,1*6D
$GPGSV,2,2,06,23,56,225,45,27,67,066,48,,,,,,,,,1*6C
$GAGSV,2,1,06,02,44,310,42,03,37,225,41,08,31,289,40,11,37,082,39,7*7E
$GAGSV,2,2,06,25,51,038,43,36,34,148,00,,,,,,,,,7*75
$GPRMC,062823.60,A,3046.9743786,N,10357.5038384,E,0.09,90.61,260319,0.0,E,D*03
$GPGGA,062823.60,3046.9743786,N,10357.5038384,E,4,23,1.0,532.104,M,-40.962,M,1.6,*6E
$GPGSA,A,3,07,08,09,16,23,27,,,,,,,6.9,2.6,6.3,1*24
$GAGSA,A,3,02,03,08,11,25,36,,,,,,,6.0,1.3,5.9,3*3F
$GPGSV,2,1,06,07,31,316,44,08,69,180,46,09,49,284,48,16,40,040,45,1*6C
$GPGSV,2,2,06,23,56,225,45,27,67,066,48,,,,,,,,,1*6C
$GAGSV,2,1,06,02,44,310,42,03,37,225,41,08,31,289,40,11,37,082,39,7*7E
$GAGSV,2,2,06,25,51,038,43,36,34,148,00,,,,,,,,,7*75
$GPRMC,062823.80,A,3046.9743781,N,10357.5038383,E,0.05,90.61,260319,0.0,E,D*01
$GPGGA,062823.80,3046.9743781,N,10357.5038383,E,4,23,1.0,532.103,M,-40.962,M,1.8,*69
$GPGSA,A,3,07,08,09,16,23,27,,,,,,,6.9,2.6,6.3,1*24
$GAGSA,A,3,02,03,08,11,25,36,,,,,,,6.0,1.3,5.9,3*3F
$GPGSV,2,1,06,07,31,316,44,08,69,180,46,09,49,284,48,16,40,040,45,1*6C
$GPGSV,2,2,06,23,56,225,45,27,67,066,48,,,,,,,,,1*6C
$GAGSV,2,1,06,02,44,310,42,03,37,225,41,08,31,289,40,11,37,082,39,7*7E
$GAGSV,2,2,06,25,51,038,43,36,34,148,00,,,,,,,,,7*75
$GPRMC,062824.00,A,3046.9743785,N,10357.5038389,E,0.06,90.61,260319,0.0,E,D*03
$GPGGA,062824.00,3046.9743785,N,10357.5038389,E,4,23,1.0,532.103,M,-40.962,M,2.0,*63
$GPGSA,A,3,07,08,09,16,23,27,,,,,,,6.9,2.6,6.3,1*24
$GAGSA,A,3,02,03,08,11,25,36,,,,,,,6.0,1.3,5.9,3*3F
$GPGSV,2,1,06,07,31,316,44,08,69,180,46,09,49,284,48,16,40,040,45,1*6C
$GPGSV,2,2,06,23,56,225,45,27,67,066,48,,,,,,,,,1*6C
$GAGSV,2,1,06,02,44,310,42,03,37,225,41,08,31,289,40,11,37,082,39,7*7E
$GAGSV,2,2,06,25,51,038,43,36,34,148,00,,,,,,,,,7*75
$GPRMC,062824.20,A,3046.9743785,N,10357.5038388,E,0.07,90.61,260319,0.0,E,D*01
$GPGGA,062824.20,3046.9743785,N,10357.5038388,E,4,23,1.0,532.104,M,-40.962,M,2.2,*65
$GPGSA,A,3,07,08,09,16,23,27,,,,,,,6.9,2.6,6.3,1*24
$GAGSA,A,3,02,03,08,11,25,36,,,,,,,6.0,1.3,5.9,3*3F
$GPGSV,2,1,06,07,31,316,44,08,69,180,46,09,49,284,48,16,40,040,45,1*6C
$GPGSV,2,2,06,23,56,225,45,27,67,066,48,,,,,,,,,1*6C
$GAGSV,2,1,06,02,44,310,42,03,37,225,41,08,31,289,40,11,37,082,39,7*7E
$GAGSV,2,2,06,25,51,038,43,36,34,148,00,,,,,,,,,7*75
$GPRMC,062824.40,A,3046.9743778,N,10357.5038392,E,0.06,90.61,260319,0.0,E,D*0F
$GPGGA,062824.40,3046.9743778,N,10357.5038392,E,4,23,1.0,532.103,M,-40.962,M,2.4,*6B
$GPGSA,A,3,07,08,09,16,23,27,,,,,,,6.9,2.6,6.3,1*24
$GAGSA,A,3,02,03,08,11,25,36,,,,,,,6.0,1.3,5.9,3*3F
$GPGSV,2,1,06,07,31,316,44,08,69,180,46,09,49,284,48,16,40,040,45,1*6C
$GPGSV,2,2,06,23,56,225,45,27,67,066,48,,,,,,,,,1*6C
$GAGSV,2,1,06,02,44,310,42,03,37,225,41,08,31,289,40,11,37,082,39,7*7E
$GAGSV,2,2,06,25,51,038,43,36,34,148,00,,,,,,,,,7*75
$GPRMC,062824.60,A,3046.9743779,N,10357.5038387,E,0.11,90.61,260319,0.0,E,D*0E
$GPGGA,062824.60,3046.9743779,N,10357.5038387,E,4,23,1.0,532.101,M,-40.962,M,2.6,*6C
$GPGSA,A,3,07,08,09,16,23,27,,,,,,,6.9,2.6,6.3,1*24
$GAGSA,A,3,02,03,08,11,25,36,,,,,,,6.0,1.3,5.9,3*3F
$GPGSV,2,1,06,07,31,316,44,08,69,180,46,09,49,284,48,16,40,040,45,1*6C
$GPGSV,2,2,06,23,56,225,45,27,67,066,48,,,,,,,,,1*6C
$GAGSV,2,1,06,02,44,310,42,03,37,225,41,08,31,289,40,11,37,082,39,7*7E
$GAGSV,2,2,06,25,51,038,43,36,34,148,00,,,,,,,,,7*75
$GPRMC,062824.80,A,3046.9743783,N,10357.5038382,E,0.10,90.61,260319,0.0,E,D*01
$GPGGA,062824.80,3046.9743783,N,10357.5038382,E,4,23,1.0,532.102,M,-40.962,M,2.8,*6F
$GPGSA,A,3,07,08,09,16,23,27,,,,,,,6.9,2.6,6.3,1*24
$GAGSA,A,3,02,03,08,11,25,36,,,,,,,6.0,1.3,5.9,3*3F
$GPGSV,2,1,06,07,31,316,44,08,69,180,47,09,49,284,48,16,40,040,45,1*6D
$GPGSV,2,2,06,23,56,225,45,27,67,066,48,,,,,,,,,1*6C
$GAGSV,2,1,06,02,44,310,42,03,37,225,41,08,31,289,40,11,37,082,39,7*7E
$GAGSV,2,2,06,25,51,038,43,36,34,148,00,,,,,,,,,7*75
$GPRMC,062825.00,A,3046.9743783,N,10357.5038387,E,0.09,90.61,260319,0.0,E,D*05
$GPGGA,062825.00,3046.9743783,N,10357.5038387,E,4,23,1.0,532.101,M,-40.962,M,3.0,*69
$GPGSA,A,3,07,08,09,16,23,27,,,,,,,6.9,2.6,6.3,1*24
$GAGSA,A,3,02,03,08,11,25,36,,,,,,,6.0,1.3,5.9,3*3F
$GPGSV,2,1,06,07,31,316,44,08,69,180,47,09,49,284,48,16,40,040,45,1*6D
$GPGSV,2,2,06,23,56,225,45,27,67,066,48,,,,,,,,,1*6C
$GAGSV,2,1,06,02,44,310,42,03,37,225,41,08,31,289,40,11,37,082,39,7*7E
$GAGSV,2,2,06,25,51,038,43,36,34,148,00,,,,,,,,,7*75
$GPRMC,062825.20,A,3046.9743784,N,10357.5038406,E,0.06,90.61,260319,0.0,E,D*01
$GPGGA,062825.20,3046.9743784,N,10357.5038406,E,4,23,1.0,532.103,M,-40.962,M,1.2,*60
$GPGSA,A,3,07,08,09,16,23,27,,,,,,,6.9,2.6,6.3,1*24
$GAGSA,A,3,02,03,08,11,25,36,,,,,,,6.0,1.3,5.9,3*3F
$GPGSV,2,1,06,07,31,316,44,08,69,180,46,09,49,284,48,16,40,040,45,1*6C
$GPGSV,2,2,06,23,56,225,45,27,67,066,48,,,,,,,,,1*6C
$GAGSV,2,1,06,02,44,310,42,03,37,225,41,08,31,289,40,11,37,082,39,7*7E
$GAGSV,2,2,06,25,51,038,43,36,34,148,00,,,,,,,,,7*75
$GPRMC,062825.40,A,3046.9743789,N,10357.5038405,E,0.04,90.61,260319,0.0,E,D*0B
$GPGGA,062825.40,3046.9743789,N,10357.5038405,E,4,23,1.0,532.103,M,-40.962,M,1.4,*6E
$GPGSA,A,3,07,08,09,16,23,27,,,,,,,6.9,2.6,6.3,1*24
$GAGSA,A,3,02,03,08,11,25,36,,,,,,,6.0,1.3,5.9,3*3F
$GPGSV,2,1,06,07,31,316,44,08,69,180,46,09,49,284,48,16,40,040,45,1*6C
$GPGSV,2,2,06,23,56,225,45,27,67,066,48,,,,,,,,,1*6C
$GAGSV,2,1,06,02,44,310,42,03,37,225,41,08,31,289,40,11,37,082,39,7*7E
$GAGSV,2,2,06,25,51,038,43,36,34,148,00,,,,,,,,,7*75
$GPRMC,062825.60,A,3046.9743789,N,10357.5038405,E,0.05,90.61,260319,0.0,E,D*08
$GPGGA,062825.60,3046.9743789,N,10357.5038405,E,4,23,1.0,532.104,M,-40.962,M,1.6,*69
$GPGSA,A,3,07,08,09,16,23,27,,,,,,,6.9,2.6,6.3,1*24
$GAGSA,A,3,02,03,08,11,25,36,,,,,,,6.0,1.3,5.9,3*3F
$GPGSV,2,1,06,07,31,316,45,08,69,180,46,09,49,284,48,16,40,040,45,1*6D
$GPGSV,2,2,06,23,56,225,45,27,67,066,48,,,,,,,,,1*6C
$GAGSV,2,1,06,02,44,310,42,03,37,225,41,08,31,289,40,11,37,082,39,7*7E
$GAGSV,2,2,06,25,51,038,43,36,34,148,00,,,,,,,,,7*75
$GPRMC,062825.80,A,3046.9743788,N,10357.5038406,E,0.09,90.61,260319,0.0,E,D*08
$GPGGA,062825.80,3046.9743788,N,10357.5038406,E,4,23,1.0,532.101,M,-40.962,M,1.8,*6E
$GPGSA,A,3,07,08,09,16,23,27,,,,,,,6.9,2.6,6.3,1*24
$GAGSA,A,3,02,03,08,11,25,36,,,,,,,6.0,1.3,5.9,3*3F
$GPGSV,2,1,06,07,31,316,44,08,69,180,46,09,49,284,48,16,40,040,45,1*6C
$GPGSV,2,2,06,23,56,225,45,27,67,066,48,,,,,,,,,1*6C
$GAGSV,2,1,06,02,44,310,42,03,37,225,41,08,31,289,40,11,37,082,39,7*7E
$GAGSV,2,2,06,25,51,038,43,36,34,148,00,,,,,,,,,7*75
$GPRMC,062826.00,A,3046.9743784,N,10357.5038406,E,0.11,90.61,260319,0.0,E,D*06
$GPGGA,062826.00,3046.9743784,N,10357.5038406,E,4,23,1.0,532.099,M,-40.962,M,2.0,*62
$GPGSA,A,3,07,08,09,16,23,27,,,,,,,6.9,2.6,6.3,1*24
$GAGSA,A,3,02,03,08,11,25,36,,,,,,,6.0,1.3,5.9,3*3F
$GPGSV,2,1,06,07,31,316,45,08,69,180,46,09,49,284,48,16,40,040,45,1*6D
$GPGSV,2,2,06,23,56,225,45,27,67,066,48,,,,,,,,,1*6C
$GAGSV,2,1,06,02,44,310,42,03,37,225,41,08,31,289,40,11,37,082,39,7*7E
$GAGSV,2,2,06,25,51,038,43,36,34,148,00,,,,,,,,,7*75
$GPRMC,062826.20,A,3046.9743790,N,10357.5038402,E,0.14,90.61,260319,0.0,E,D*00
$GPGGA,062826.20,3046.9743790,N,10357.5038402,E,4,23,1.0,532.103,M,-40.962,M,2.2,*61
$GPGSA,A,3,07,08,09,16,23,27,,,,,,,6.9,2.6,6.3,1*24
$GAGSA,A,3,02,03,08,11,25,36,,,,,,,6.0,1.3,5.9,3*3F
$GPGSV,2,1,06,07,31,316,45,08,69,180,46,09,49,284,48,16,40,040,45,1*6D
$GPGSV,2,2,06,23,56,225,45,27,67,066,48,,,,,,,,,1*6C
$GAGSV,2,1,06,02,44,310,42,03,37,225,41,08,31,289,40,11,37,082,39,7*7E
$GAGSV,2,2,06,25,51,038,43,36,34,148,00,,,,,,,,,7*75
$GPRMC,062826.40,A,3046.9743792,N,10357.5038400,E,0.14,90.61,260319,0.0,E,D*06
$GPGGA,062826.40,3046.9743792,N,10357.5038400,E,4,23,1.0,532.104,M,-40.962,M,2.4,*66
$GPGSA,A,3,07,08,09,16,23,27,,,,,,,6.9,2.6,6.3,1*24
$GAGSA,A,3,02,03,08,11,25,36,,,,,,,6.0,1.3,5.9,3*3F
$GPGSV,2,1,06,07,31,316,45,08,69,180,46,09,49,284,48,16,40,040,45,1*6D
$GPGSV,2,2,06,23,56,225,45,27,67,066,48,,,,,,,,,1*6C
$GAGSV,2,1,06,02,44,310,42,03,37,225,41,08,31,289,40,11,37,082,39,7*7E
$GAGSV,2,2,06,25,51,038,43,36,34,148,00,,,,,,,,,7*75
$GPRMC,062826.60,A,3046.9743789,N,10357.5038395,E,0.09,90.61,260319,0.0,E,D*09
$GPGGA,062826.60,3046.9743789,N,10357.5038395,E,4,23,1.0,532.103,M,-40.962,M,2.6,*60
$GPGSA,A,3,07,08,09,16,23,27,,,,,,,6.9,2.6,6.3,1*24
$GAGSA,A,3,02,03,08,11,25,36,,,,,,,6.0,1.3,5.9,3*3F
$GPGSV,2,1,06,07,31,316,45,08,69,180,46,09,49,284,48,16,40,040,45,1*6D
$GPGSV,2,2,06,23,56,225,45,27,67,066,48,,,,,,,,,1*6C
$GAGSV,2,1,06,02,44,310,42,03,37,225,41,08,31,289,40,11,37,082,39,7*7E
$GAGSV,2,2,06,25,51,038,43,36,34,148,00,,,,,,,,,7*75
$GPRMC,062826.80,A,3046.9743795,N,10357.5038394,E,0.04,90.61,260319,0.0,E,D*06
$GPGGA,062826.80,3046.9743795,N,10357.5038394,E,4,23,1.0,532.101,M,-40.962,M,2.8,*6E
$GPGSA,A,3,07,08,09,16,23,27,,,,,,,6.9,2.6,6.3,1*24
$GAGSA,A,3,02,03,08,11,25,36,,,,,,,6.0,1.3,5.9,3*3F
$GPGSV,2,1,06,07,31,316,45,08,69,180,46,09,49,284,48,16,40,040,45,1*6D
$GPGSV,2,2,06,23,56,225,45,27,67,066,48,,,,,,,,,1*6C
$GAGSV,2,1,06,02,44,310,42,03,37,225,41,08,31,289,40,11,37,082,39,7*7E
$GAGSV,2,2,06,25,51,038,43,36,34,148,00,,,,,,,,,7*75
$GPRMC,062827.00,A,3046.9743794,N,10357.5038398,E,0.02,90.61,260319,0.0,E,D*04
$GPGGA,062827.00,3046.9743794,N,10357.5038398,E,4,23,1.0,532.100,M,-40.962,M,3.0,*62
$GPGSA,A,3,07,08,09,16,23,27,,,,,,,6.9,2.6,6.3,1*24
$GAGSA,A,3,02,03,08,11,25,36,,,,,,,6.0,1.3,5.9,3*3F
$GPGSV,2,1,06,07,31,316,45,08,69,180,46,09,49,284,48,16,40,040,45,1*6D
$GPGSV,2,2,06,23,56,225,45,27,67,066,48,,,,,,,,,1*6C
$GAGSV,2,1,06,02,44,310,42,03,37,225,41,08,31,289,40,11,37,082,39,7*7E
$GAGSV,2,2,06,25,51,038,43,36,34,148,00,,,,,,,,,7*75
$GPRMC,062827.20,A,3046.9743783,N,10357.5038399,E,0.03,90.61,260319,0.0,E,D*00
$GPGGA,062827.20,3046.9743783,N,10357.5038399,E,4,23,1.0,532.104,M,-40.962,M,1.2,*63
$GPGSA,A,3,07,08,09,16,23,27,,,,,,,6.9,2.6,6.3,1*24
$GAGSA,A,3,02,03,08,11,25,36,,,,,,,6.0,1.3,5.9,3*3F
$GPGSV,2,1,06,07,31,316,45,08,69,180,46,09,49,284,48,16,40,040,45,1*6D
$GPGSV,2,2,06,23,56,225,45,27,67,066,48,,,,,,,,,1*6C
$GAGSV,2,1,06,02,44,310,42,03,37,225,41,08,31,289,40,11,37,082,39,7*7E
$GAGSV,2,2,06,25,51,038,43,36,34,148,00,,,,,,,,,7*75
$GPRMC,062827.40,A,3046.9743789,N,10357.5038394,E,0.05,90.61,260319,0.0,E,D*07
$GPGGA,062827.40,3046.9743789,N,10357.5038394,E,4,23,1.0,532.103,M,-40.962,M,1.4,*63
$GPGSA,A,3,07,08,09,16,23,27,,,,,,,6.9,2.6,6.3,1*24
$GAGSA,A,3,02,03,08,11,25,36,,,,,,,6.0,1.3,5.9,3*3F
$GPGSV,2,1,06,07,31,316,45,08,69,180,46,09,49,284,48,16,40,040,45,1*6D
$GPGSV,2,2,06,23,56,225,45,27,67,066,48,,,,,,,,,1*6C
$GAGSV,2,1,06,02,44,310,42,03,37,225,41,08,31,289,40,11,37,082,39,7*7E
$GAGSV,2,2,06,25,51,038,43,36,34,148,00,,,,,,,,,7*75
$GPRMC,062827.60,A,3046.9743792,N,10357.5038393,E,0.02,90.61,260319,0.0,E,D*0F
$GPGGA,062827.60,3046.9743792,N,10357.5038393,E,4,23,1.0,532.103,M,-40.962,M,1.6,*6E
$GPGSA,A,3,07,08,09,16,23,27,,,,,,,6.9,2.6,6.3,1*24
$GAGSA,A,3,02,03,08,11,25,36,,,,,,,6.0,1.3,5.9,3*3F
$GPGSV,2,1,06,07,31,316,45,08,69,180,46,09,49,284,48,16,40,040,45,1*6D
$GPGSV,2,2,06,23,56,225,45,27,67,066,48,,,,,,,,,1*6C
$GAGSV,2,1,06,02,44,310,42,03,37,225,41,08,31,289,40,11,37,082,39,7*7E
$GAGSV,2,2,06,25,51,038,43,36,34,148,00,,,,,,,,,7*75
$GPRMC,062827.80,A,3046.9743794,N,10357.5038394,E,0.06,90.61,260319,0.0,E,D*04
$GPGGA,062827.80,3046.9743794,N,10357.5038394,E,4,23,1.0,532.103,M,-40.962,M,1.8,*6F
$GPGSA,A,3,07,08,09,16,23,27,,,,,,,6.9,2.6,6.3,1*24
$GAGSA,A,3,02,03,08,11,25,36,,,,,,,6.0,1.3,5.9,3*3F
$GPGSV,2,1,06,07,31,316,45,08,69,180,46,09,49,284,48,16,40,040,45,1*6D
$GPGSV,2,2,06,23,56,225,45,27,67,066,48,,,,,,,,,1*6C
$GAGSV,2,1,06,02,44,310,42,03,37,225,41,08,31,289,40,11,37,082,39,7*7E
$GAGSV,2,2,06,25,51,038,43,36,34,148,00,,,,,,,,,7*75
$GPRMC,062828.00,A,3046.9743790,N,10357.5038400,E,0.08,90.61,260319,0.0,E,D*03
$GPGGA,062828.00,3046.9743790,N,10357.5038400,E,4,23,1.0,532.104,M,-40.962,M,2.0,*6A
$GPGSA,A,3,07,08,09,16,23,27,,,,,,,6.9,2.6,6.3,1*24
$GAGSA,A,3,02,03,08,11,25,36,,,,,,,6.0,1.3,5.9,3*3F
$GPGSV,2,1,06,07,31,316,45,08,69,180,46,09,49,284,48,16,40,040,45,1*6D
$GPGSV,2,2,06,23,56,225,45,27,67,066,48,,,,,,,,,1*6C
$GAGSV,2,1,06,02,44,310,42,03,37,225,41,08,31,289,40,11,37,082,39,7*7E
$GAGSV,2,2,06,25,51,038,43,36,34,148,00,,,,,,,,,7*75
$GPRMC,062828.20,A,3046.9743792,N,10357.5038392,E,0.05,90.61,260319,0.0,E,D*02
$GPGGA,062828.20,3046.9743792,N,10357.5038392,E,4,23,1.0,532.104,M,-40.962,M,2.2,*64
$GPGSA,A,3,07,08,09,16,23,27,,,,,,,6.9,2.6,6.3,1*24
$GAGSA,A,3,02,03,08,11,25,36,,,,,,,6.0,1.3,5.9,3*3F
$GPGSV,2,1,06,07,31,316,45,08,69,180,46,09,49,284,48,16,40,040,45,1*6D
$GPGSV,2,2,06,23,56,225,45,27,67,066,48,,,,,,,,,1*6C
$GAGSV,2,1,06,02,44,310,42,03,37,225,41,08,31,289,40,11,37,082,39,7*7E
$GAGSV,2,2,06,25,51,038,43,36,34,148,00,,,,,,,,,7*75
$GPRMC,062828.40,A,3046.9743784,N,10357.5038398,E,0.04,90.61,260319,0.0,E,D*08
$GPGGA,062828.40,3046.9743784,N,10357.5038398,E,4,23,1.0,532.102,M,-40.962,M,2.4,*6F
$GPGSA,A,3,07,08,09,16,23,27,,,,,,,6.9,2.6,6.3,1*24
$GAGSA,A,3,02,03,08,11,25,36,,,,,,,6.0,1.3,5.9,3*3F
$GPGSV,2,1,06,07,31,316,45,08,69,180,47,09,49,284,48,16,40,040,45,1*6C
$GPGSV,2,2,06,23,56,225,45,27,67,066,48,,,,,,,,,1*6C
$GAGSV,2,1,06,02,44,310,42,03,37,225,41,08,31,289,40,11,37,082,39,7*7E
$GAGSV,2,2,06,25,51,038,43,36,34,148,00,,,,,,,,,7*75
$GPRMC,062828.60,A,3046.9743789,N,10357.5038393,E,0.04,90.61,260319,0.0,E,D*0C
$GPGGA,062828.60,3046.9743789,N,10357.5038393,E,4,23,1.0,532.100,M,-40.962,M,2.6,*6B
$GPGSA,A,3,07,08,09,16,23,27,,,,,,,6.9,2.6,6.3,1*24
$GAGSA,A,3,02,03,08,11,25,36,,,,,,,6.0,1.3,5.9,3*3F
$GPGSV,2,1,06,07,31,316,45,08,69,180,47,09,49,284,48,16,40,040,45,1*6C
$GPGSV,2,2,06,23,56,225,45,27,67,066,48,,,,,,,,,1*6C
$GAGSV,2,1,06,02,44,310,42,03,37,225,41,08,31,289,40,11,37,082,39,7*7E
$GAGSV,2,2,06,25,51,038,43,36,34,148,00,,,,,,,,,7*75
$GPRMC,062828.80,A,3046.9743798,N,10357.5038392,E,0.07,90.61,260319,0.0,E,D*00
$GPGGA,062828.80,3046.9743798,N,10357.5038392,E,4,23,1.0,532.099,M,-40.962,M,2.8,*6B
$GPGSA,A,3,07,08,09,16,23,27,,,,,,,6.9,2.6,6.3,1*24
$GAGSA,A,3,02,03,08,11,25,36,,,,,,,6.0,1.3,5.9,3*3F
$GPGSV,2,1,06,07,31,316,45,08,69,180,47,09,49,284,48,16,40,040,45,1*6C
$GPGSV,2,2,06,23,56,225,45,27,67,066,48,,,,,,,,,1*6C
$GAGSV,2,1,06,02,44,310,42,03,37,225,41,08,31,289,40,11,37,082,39,7*7E
$GAGSV,2,2,06,25,51,038,43,36,34,148,00,,,,,,,,,7*75
$GPRMC,062829.00,A,3046.9743790,N,10357.5038393,E,0.04,90.61,260319,0.0,E,D*03
$GPGGA,062829.00,3046.9743790,N,10357.5038393,E,4,23,1.0,532.102,M,-40.962,M,3.0,*61
$GPGSA,A,3,07,08,09,16,23,27,,,,,,,6.9,2.6,6.3,1*24
$GAGSA,A,3,02,03,08,11,25,36,,,,,,,6.0,1.3,5.9,3*3F
$GPGSV,2,1,06,07,31,316,45,08,69,180,47,09,49,284,48,16,40,040,45,1*6C
$GPGSV,2,2,06,23,56,225,45,27,67,066,48,,,,,,,,,1*6C
$GAGSV,2,1,06,02,44,310,42,03,37,225,41,08,31,289,40,11,37,082,39,7*7E
$GAGSV,2,2,06,25,51,038,43,36,34,148,00,,,,,,,,,7*75
$GPRMC,062829.20,A,3046.9743779,N,10357.5038407,E,0.03,90.61,260319,0.0,E,D*0B
$GPGGA,062829.20,3046.9743779,N,10357.5038407,E,4,23,1.0,532.102,M,-40.962,M,1.2,*6E
$GPGSA,A,3,07,08,09,16,23,27,,,,,,,6.9,2.6,6.3,1*24
$GAGSA,A,3,02,03,08,11,25,36,,,,,,,6.0,1.3,5.9,3*3F
$GPGSV,2,1,06,07,31,316,45,08,69,180,47,09,49,284,48,16,40,040,45,1*6C
$GPGSV,2,2,06,23,56,225,45,27,67,066,48,,,,,,,,,1*6C
$GAGSV,2,1,06,02,44,310,42,03,37,225,41,08,31,289,40,11,37,082,39,7*7E
$GAGSV,2,2,06,25,51,038,43,36,34,148,00,,,,,,,,,7*75
$GPRMC,062829.40,A,3046.9743777,N,10357.5038411,E,0.05,90.61,260319,0.0,E,D*02
$GPGGA,062829.40,3046.9743777,N,10357.5038411,E,4,23,1.0,532.103,M,-40.962,M,1.4,*66
$GPGSA,A,3,07,08,09,16,23,27,,,,,,,6.9,2.6,6.3,1*24
$GAGSA,A,3,02,03,08,11,25,36,,,,,,,6.0,1.3,5.9,3*3F
$GPGSV,2,1,06,07,31,316,45,08,69,180,47,09,49,284,48,16,40,040,45,1*6C
$GPGSV,2,2,06,23,56,225,45,27,67,066,48,,,,,,,,,1*6C
$GAGSV,2,1,06,02,44,310,42,03,37,225,41,08,31,289,40,11,37,082,38,7*7F
$GAGSV,2,2,06,25,51,038,43,36,34,148,00,,,,,,,,,7*75
$GPRMC,062829.60,A,3046.9743776,N,10357.5038408,E,0.03,90.61,260319,0.0,E,D*0F
$GPGGA,062829.60,3046.9743776,N,10357.5038408,E,4,23,1.0,532.103,M,-40.962,M,1.6,*6F
$GPGSA,A,3,07,08,09,16,23,27,,,,,,,6.9,2.6,6.3,1*24
$GAGSA,A,3,02,03,08,11,25,36,,,,,,,6.0,1.3,5.9,3*3F
$GPGSV,2,1,06,07,31,316,45,08,69,180,47,09,49,284,48,16,40,040,45,1*6C
$GPGSV,2,2,06,23,56,225,45,27,67,066,48,,,,,,,,,1*6C
$GAGSV,2,1,06,02,44,310,42,03,37,225,41,08,31,289,40,11,37,082,38,7*7F
$GAGSV,2,2,06,25,51,038,43,36,34,148,00,,,,,,,,,7*75
$GPRMC,062829.80,A,3046.9743774,N,10357.5038413,E,0.04,90.61,260319,0.0,E,D*0E
$GPGGA,062829.80,3046.9743774,N,10357.5038413,E,4,23,1.0,532.102,M,-40.962,M,1.8,*66
$GPGSA,A,3,07,08,09,16,23,27,,,,,,,6.9,2.6,6.3,1*24
$GAGSA,A,3,02,03,08,11,25,36,,,,,,,6.0,1.3,5.9,3*3F
$GPGSV,2,1,06,07,31,316,45,08,69,180,47,09,49,284,48,16,40,040,45,1*6C
$GPGSV,2,2,06,23,56,225,45,27,67,066,48,,,,,,,,,1*6C
$GAGSV,2,1,06,02,44,310,42,03,37,225,41,08,31,289,40,11,37,082,39,7*7E
$GAGSV,2,2,06,25,51,038,43,36,34,148,00,,,,,,,,,7*75
$GPRMC,062830.00,A,3046.9743779,N,10357.5038407,E,0.07,90.61,260319,0.0,E,D*05
$GPGGA,062830.00,3046.9743779,N,10357.5038407,E,4,23,1.0,532.102,M,-40.962,M,2.0,*65
$GPGSA,A,3,07,08,09,16,23,27,,,,,,,6.9,2.6,6.3,1*24
$GAGSA,A,3,02,03,08,11,25,36,,,,,,,6.0,1.3,5.9,3*3F
$GPGSV,2,1,06,07,31,316,45,08,69,180,47,09,49,284,48,16,40,040,45,1*6C
$GPGSV,2,2,06,23,56,225,45,27,67,066,48,,,,,,,,,1*6C
$GAGSV,2,1,06,02,44,310,42,03,37,225,41,08,31,289,40,11,37,082,39,7*7E
$GAGSV,2,2,06,25,51,038,43,36,34,148,00,,,,,,,,,7*75
$GPRMC,062830.20,A,3046.9743779,N,10357.5038410,E,0.04,90.61,260319,0.0,E,D*02
$GPGGA,062830.20,3046.9743779,N,10357.5038410,E,4,23,1.0,532.101,M,-40.962,M,2.2,*60
$GPGSA,A,3,07,08,09,16,23,27,,,,,,,6.9,2.6,6.3,1*24
$GAGSA,A,3,02,03,08,11,25,36,,,,,,,6.0,1.3,5.9,3*3F
$GPGSV,2,1,06,07,31,316,45,08,69,180,47,09,49,284,48,16,40,040,45,1*6C
$GPGSV,2,2,06,23,56,225,45,27,67,066,48,,,,,,,,,1*6C
$GAGSV,2,1,06,02,44,310,42,03,37,225,41,08,31,289,40,11,37,082,39,7*7E
$GAGSV,2,2,06,25,51,038,43,36,34,148,00,,,,,,,,,7*75
$GPRMC,062830.40,A,3046.9743781,N,10357.5038403,E,0.06,90.61,260319,0.0,E,D*03
$GPGGA,062830.40,3046.9743781,N,10357.5038403,E,4,23,1.0,532.099,M,-40.962,M,2.4,*65
$GPGSA,A,3,07,08,09,11,16,23,27,,,,,,2.1,1.2,1.8,1*23
$GAGSA,A,3,02,03,08,11,25,36,,,,,,,6.0,1.3,5.9,3*3F
$GPGSV,2,1,07,07,31,316,45,08,69,180,47,09,49,284,48,11,16,181,00,1*64
$GPGSV,2,2,07,16,40,040,45,23,56,225,45,27,67,066,48,,,,,1*5B
$GAGSV,2,1,06,02,44,310,42,03,37,225,41,08,31,289,40,11,37,082,38,7*7F
$GAGSV,2,2,06,25,51,038,43,36,34,148,00,,,,,,,,,7*75
$GPRMC,062830.60,A,3046.9743778,N,10357.5038409,E,0.06,90.61,260319,0.0,E,D*0D
$GPGGA,062830.60,3046.9743778,N,10357.5038409,E,4,23,1.0,532.099,M,-40.962,M,2.6,*69
$GPGSA,A,3,07,08,09,11,16,23,27,,,,,,2.1,1.2,1.8,1*23
$GAGSA,A,3,02,03,08,11,25,36,,,,,,,6.0,1.3,5.9,3*3F
$GPGSV,2,1,07,07,31,316,45,08,69,180,47,09,49,284,48,11,16,181,00,1*64
$GPGSV,2,2,07,16,40,040,45,23,56,225,45,27,67,066,48,,,,,1*5B
$GAGSV,2,1,06,02,44,310,42,03,37,225,41,08,31,289,40,11,37,082,38,7*7F
$GAGSV,2,2,06,25,51,038,43,36,34,148,00,,,,,,,,,7*75
$GPRMC,062830.80,A,3046.9743786,N,10357.5038394,E,0.02,90.61,260319,0.0,E,D*05
$GPGGA,062830.80,3046.9743786,N,10357.5038394,E,4,23,1.0,532.100,M,-40.962,M,2.8,*6A
$GPGSA,A,3,07,08,09,11,16,23,27,,,,,,2.1,1.2,1.8,1*23
$GAGSA,A,3,02,03,08,11,25,36,,,,,,,6.0,1.3,5.9,3*3F
$GPGSV,2,1,07,07,31,316,45,08,69,180,47,09,49,284,48,11,16,181,00,1*64
$GPGSV,2,2,07,16,40,040,45,23,56,225,45,27,67,066,48,,,,,1*5B
$GAGSV,2,1,06,02,44,310,42,03,37,225,41,08,31,289,40,11,37,082,38,7*7F
$GAGSV,2,2,06,25,51,038,43,36,34,148,00,,,,,,,,,7*75
$GPRMC,062831.00,A,3046.9743774,N,10357.5038400,E,0.09,90.61,260319,0.0,E,D*00
$GPGGA,062831.00,3046.9743774,N,10357.5038400,E,4,23,1.0,532.099,M,-40.962,M,3.0,*6C
$GPGSA,A,3,07,08,09,11,16,23,27,,,,,,2.1,1.2,1.8,1*23
$GAGSA,A,3,02,03,08,11,25,36,,,,,,,6.0,1.3,5.9,3*3F
$GPGSV,2,1,07,07,31,316,45,08,69,180,47,09,49,284,48,11,16,181,00,1*64
$GPGSV,2,2,07,16,40,040,45,23,56,225,45,27,67,066,48,,,,,1*5B
$GAGSV,2,1,06,02,44,310,42,03,37,225,41,08,31,289,40,11,37,082,38,7*7F
$GAGSV,2,2,06,25,51,038,43,36,34,148,00,,,,,,,,,7*75
$GPRMC,062831.20,A,3046.9743788,N,10357.5038395,E,0.11,90.61,260319,0.0,E,D*03
$GPGGA,062831.20,3046.9743788,N,10357.5038395,E,4,23,1.0,532.108,M,-40.962,M,1.2,*6F
$GPGSA,A,3,07,08,09,11,16,23,27,,,,,,2.1,1.2,1.8,1*23
$GAGSA,A,3,02,03,08,11,25,36,,,,,,,6.0,1.3,5.9,3*3F
$GPGSV,2,1,07,07,31,316,45,08,69,180,47,09,49,284,48,11,16,181,00,1*64
$GPGSV,2,2,07,16,40,040,45,23,56,225,45,27,67,066,48,,,,,1*5B
$GAGSV,2,1,06,02,44,310,42,03,37,225,41,08,31,289,40,11,37,082,38,7*7F
$GAGSV,2,2,06,25,51,038,43,36,34,148,00,,,,,,,,,7*75
$GPRMC,062831.40,A,3046.9743781,N,10357.5038401,E,0.05,90.61,260319,0.0,E,D*03
$GPGGA,062831.40,3046.9743781,N,10357.5038401,E,4,23,1.0,532.108,M,-40.962,M,1.4,*6C
$GPGSA,A,3,07,08,09,11,16,23,27,,,,,,2.1,1.2,1.8,1*23
$GAGSA,A,3,02,03,08,11,25,36,,,,,,,6.0,1.3,5.9,3*3F
$GPGSV,2,1,07,07,31,316,45,08,69,180,47,09,49,284,48,11,16,181,00,1*64
$GPGSV,2,2,07,16,40,040,45,23,56,225,45,27,67,066,48,,,,,1*5B
$GAGSV,2,1,06,02,44,310,42,03,37,225,41,08,31,289,40,11,37,082,38,7*7F
$GAGSV,2,2,06,25,51,038,43,36,34,148,00,,,,,,,,,7*75
$GPRMC,062831.60,A,3046.9743781,N,10357.5038401,E,0.06,90.61,260319,0.0,E,D*02
$GPGGA,062831.60,3046.9743781,N,10357.5038401,E,4,23,1.0,532.108,M,-40.962,M,1.6,*6C
$GPGSA,A,3,07,08,09,11,16,23,27,,,,,,2.1,1.2,1.8,1*23
$GAGSA,A,3,02,03,08,11,25,36,,,,,,,6.0,1.3,5.9,3*3F
$GPGSV,2,1,07,07,31,316,45,08,69,180,47,09,49,284,48,11,16,181,00,1*64
$GPGSV,2,2,07,16,40,040,45,23,56,225,45,27,67,066,48,,,,,1*5B
$GAGSV,2,1,06,02,44,310,42,03,37,225,41,08,31,289,40,11,37,082,38,7*7F
$GAGSV,2,2,06,25,51,038,43,36,34,148,00,,,,,,,,,7*75
$GPRMC,062831.80,A,3046.9743787,N,10357.5038394,E,0.12,90.61,260319,0.0,E,D*04
$GPGGA,062831.80,3046.9743787,N,10357.5038394,E,4,23,1.0,532.106,M,-40.962,M,1.8,*6F
$GPGSA,A,3,07,08,09,11,16,23,27,,,,,,2.1,1.2,1.8,1*23
$GAGSA,A,3,02,03,08,11,25,36,,,,,,,6.0,1.3,5.9,3*3F
$GPGSV,2,1,07,07,31,316,45,08,69,180,47,09,49,284,48,11,16,181,00,1*64
$GPGSV,2,2,07,16,40,040,45,23,56,225,45,27,67,066,48,,,,,1*5B
$GAGSV,2,1,06,02,44,310,42,03,37,225,41,08,31,289,40,11,37,082,38,7*7F
$GAGSV,2,2,06,25,51,038,43,36,34,148,00,,,,,,,,,7*75
$GPRMC,062832.00,A,3046.9743782,N,10357.5038403,E,0.05,90.61,260319,0.0,E,D*05
$GPGGA,062832.00,3046.9743782,N,10357.5038403,E,4,23,1.0,532.106,M,-40.962,M,2.0,*63
$GPGSA,A,3,07,08,09,11,16,23,27,,,,,,2.1,1.2,1.8,1*23
$GAGSA,A,3,02,03,08,11,25,36,,,,,,,6.0,1.3,5.9,3*3F
$GPGSV,2,1,07,07,31,316,45,08,69,180,47,09,49,284,48,11,16,181,00,1*64
$GPGSV,2,2,07,16,40,040,45,23,56,225,45,27,67,066,48,,,,,1*5B
$GAGSV,2,1,06,02,44,310,42,03,37,225,41,08,31,289,40,11,37,082,38,7*7F
$GAGSV,2,2,06,25,51,038,43,36,34,148,00,,,,,,,,,7*75
$GPRMC,062832.20,A,3046.9743787,N,10357.5038402,E,0.15,90.61,260319,0.0,E,D*02
$GPGGA,062832.20,3046.9743787,N,10357.5038402,E,4,23,1.0,532.104,M,-40.962,M,2.2,*65
$GPGSA,A,3,07,08,09,11,16,23,27,,,,,,2.1,1.2,1.8,1*23
$GAGSA,A,3,02,03,08,11,25,36,,,,,,,6.0,1.3,5.9,3*3F
$GPGSV,2,1,07,07,31,316,45,08,69,180,47,09,49,284,48,11,16,181,00,1*64
$GPGSV,2,2,07,16,40,040,45,23,56,225,45,27,67,066,48,,,,,1*5B
$GAGSV,2,1,06,02,44,310,42,03,37,225,41,08,31,289,40,11,37,082,38,7*7F
$GAGSV,2,2,06,25,51,038,43,36,34,148,00,,,,,,,,,7*75
$GPRMC,062832.40,A,3046.9743778,N,10357.5038399,E,0.07,90.61,260319,0.0,E,D*02
$GPGGA,062832.40,3046.9743778,N,10357.5038399,E,4,23,1.0,532.105,M,-40.962,M,2.4,*61
$GPGSA,A,3,07,08,09,16,23,27,,,,,,,6.8,2.6,6.3,1*25
$GAGSA,A,3,02,03,08,11,25,36,,,,,,,6.0,1.3,5.9,3*3F
$GPGSV,2,1,06,07,31,316,45,08,69,180,47,09,49,284,48,16,40,040,45,1*6C
$GPGSV,2,2,06,23,56,225,45,27,67,066,48,,,,,,,,,1*6C
$GAGSV,2,1,06,02,44,310,42,03,37,225,41,08,31,289,40,11,37,082,38,7*7F
$GAGSV,2,2,06,25,51,038,43,36,34,148,00,,,,,,,,,7*75
$GPRMC,062832.60,A,3046.9743781,N,10357.5038399,E,0.13,90.61,260319,0.0,E,D*03
$GPGGA,062832.60,3046.9743781,N,10357.5038399,E,4,23,1.0,532.107,M,-40.962,M,2.6,*65
$GPGSA,A,3,07,08,09,16,23,27,,,,,,,6.8,2.6,6.3,1*25
$GAGSA,A,3,02,03,08,11,25,36,,,,,,,6.0,1.3,5.9,3*3F
$GPGSV,2,1,06,07,31,316,45,08,69,180,47,09,49,284,48,16,40,040,45,1*6C
$GPGSV,2,2,06,23,56,225,45,27,67,066,48,,,,,,,,,1*6C
$GAGSV,2,1,06,02,44,310,42,03,37,225,41,08,31,289,40,11,37,082,38,7*7F
$GAGSV,2,2,06,25,51,038,43,36,34,148,00,,,,,,,,,7*75
$GPRMC,062832.80,A,3046.9743786,N,10357.5038401,E,0.06,90.61,260319,0.0,E,D*08
$GPGGA,062832.80,3046.9743786,N,10357.5038401,E,4,23,1.0,532.107,M,-40.962,M,2.8,*64
$GPGSA,A,3,07,08,09,16,23,27,,,,,,,6.8,2.6,6.3,1*25
$GAGSA,A,3,02,03,08,11,25,36,,,,,,,6.0,1.3,5.9,3*3F
$GPGSV,2,1,06,07,31,316,45,08,69,180,47,09,49,284,48,16,40,040,45,1*6C
$GPGSV,2,2,06,23,56,225,45,27,67,066,48,,,,,,,,,1*6C
$GAGSV,2,1,06,02,44,310,42,03,37,225,41,08,31,289,40,11,37,082,38,7*7F
$GAGSV,2,2,06,25,51,038,43,36,34,148,00,,,,,,,,,7*75
$GPRMC,062833.00,A,3046.9743780,N,10357.5038407,E,0.07,90.61,260319,0.0,E,D*00
$GPGGA,062833.00,3046.9743780,N,10357.5038407,E,4,23,1.0,532.107,M,-40.962,M,3.0,*64
$GPGSA,A,3,07,08,09,16,23,27,,,,,,,6.8,2.6,6.3,1*25
$GAGSA,A,3,02,03,08,11,25,36,,,,,,,6.0,1.3,5.9,3*3F
$GPGSV,2,1,06,07,31,316,45,08,69,180,47,09,49,284,48,16,40,040,45,1*6C
$GPGSV,2,2,06,23,56,225,45,27,67,066,48,,,,,,,,,1*6C
$GAGSV,2,1,06,02,44,310,42,03,37,225,41,08,31,289,40,11,37,082,38,7*7F
$GAGSV,2,2,06,25,51,038,43,36,34,148,00,,,,,,,,,7*75
$GPRMC,062833.20,A,3046.9743784,N,10357.5038410,E,0.11,90.61,260319,0.0,E,D*07
$GPGGA,062833.20,3046.9743784,N,10357.5038410,E,4,23,1.0,532.106,M,-40.962,M,1.2,*65
$GPGSA,A,3,07,08,09,16,23,27,,,,,,,6.8,2.6,6.3,1*25
$GAGSA,A,3,02,03,08,11,25,36,,,,,,,6.0,1.3,5.9,3*3F
$GPGSV,2,1,06,07,31,316,45,08,69,180,47,09,49,284,48,16,40,040,45,1*6C
$GPGSV,2,2,06,23,56,225,45,27,67,066,48,,,,,,,,,1*6C
$GAGSV,2,1,06,02,44,310,42,03,37,225,41,08,31,289,40,11,37,082,38,7*7F
$GAGSV,2,2,06,25,51,038,43,36,34,148,00,,,,,,,,,7*75
$GPRMC,062833.40,A,3046.9743780,N,10357.5038418,E,0.16,90.61,260319,0.0,E,D*0A
$GPGGA,062833.40,3046.9743780,N,10357.5038418,E,4,23,1.0,532.106,M,-40.962,M,1.4,*69
$GPGSA,A,3,07,08,09,11,16,23,27,,,,,,2.1,1.2,1.8,1*23
$GAGSA,A,3,02,03,08,11,25,36,,,,,,,6.0,1.3,5.9,3*3F
$GPGSV,2,1,07,07,31,316,45,08,69,180,47,09,49,284,48,11,16,181,00,1*64
$GPGSV,2,2,07,16,40,040,45,23,56,225,45,27,67,066,48,,,,,1*5B
$GAGSV,2,1,06,02,44,310,42,03,37,225,41,08,31,289,40,11,37,082,38,7*7F
$GAGSV,2,2,06,25,51,038,43,36,34,148,00,,,,,,,,,7*75
$GPRMC,062833.60,A,3046.9743783,N,10357.5038410,E,0.03,90.61,260319,0.0,E,D*07
$GPGGA,062833.60,3046.9743783,N,10357.5038410,E,4,23,1.0,532.106,M,-40.962,M,1.6,*62
$GPGSA,A,3,07,08,09,11,16,23,27,,,,,,2.1,1.2,1.8,1*23
$GAGSA,A,3,02,03,08,11,25,36,,,,,,,6.0,1.3,5.9,3*3F
$GPGSV,2,1,07,07,31,316,45,08,69,180,47,09,49,284,48,11,16,181,00,1*64
$GPGSV,2,2,07,16,40,040,45,23,56,225,45,27,67,066,48,,,,,1*5B
$GAGSV,2,1,06,02,44,310,42,03,37,225,41,08,31,289,40,11,37,082,38,7*7F
$GAGSV,2,2,06,25,51,038,43,36,34,148,00,,,,,,,,,7*75
$GPRMC,062833.80,A,3046.9743783,N,10357.5038406,E,0.12,90.61,260319,0.0,E,D*0E
$GPGGA,062833.80,3046.9743783,N,10357.5038406,E,4,23,1.0,532.107,M,-40.962,M,1.8,*64
$GPGSA,A,3,07,08,09,11,16,23,27,,,,,,2.1,1.2,1.8,1*23
$GAGSA,A,3,02,03,08,11,25,36,,,,,,,6.0,1.3,5.9,3*3F
$GPGSV,2,1,07,07,31,316,45,08,69,180,47,09,49,284,48,11,16,181,00,1*64
$GPGSV,2,2,07,16,40,040,45,23,56,225,45,27,67,066,48,,,,,1*5B
$GAGSV,2,1,06,02,44,310,42,03,37,225,41,08,31,289,40,11,37,082,38,7*7F
$GAGSV,2,2,06,25,51,038,43,36,34,148,00,,,,,,,,,7*75
$GPRMC,062834.00,A,3046.9743789,N,10357.5038410,E,0.03,90.61,260319,0.0,E,D*0C
$GPGGA,062834.00,3046.9743789,N,10357.5038410,E,4,23,1.0,532.107,M,-40.962,M,2.0,*6D
$GPGSA,A,3,07,08,09,11,16,23,27,,,,,,2.1,1.2,1.8,1*23
$GAGSA,A,3,02,03,08,11,25,36,,,,,,,6.0,1.3,5.9,3*3F
$GPGSV,2,1,07,07,31,316,45,08,69,180,47,09,49,284,48,11,16,181,00,1*64
$GPGSV,2,2,07,16,40,040,45,23,56,225,45,27,67,066,48,,,,,1*5B
$GAGSV,2,1,06,02,44,310,42,03,37,225,41,08,31,289,40,11,37,082,38,7*7F
$GAGSV,2,2,06,25,51,038,43,36,34,148,00,,,,,,,,,7*75
$GPRMC,062834.20,A,3046.9743784,N,10357.5038411,E,0.11,90.61,260319,0.0,E,D*01
$GPGGA,062834.20,3046.9743784,N,10357.5038411,E,4,23,1.0,532.106,M,-40.962,M,2.2,*60
$GPGSA,A,3,07,08,09,11,16,23,27,,,,,,2.1,1.2,1.8,1*23
$GAGSA,A,3,02,03,08,11,25,36,,,,,,,6.0,1.3,5.9,3*3F
$GPGSV,2,1,07,07,31,316,45,08,69,180,47,09,49,284,48,11,16,181,00,1*64
$GPGSV,2,2,07,16,40,040,45,23,56,225,45,27,67,066,48,,,,,1*5B
$GAGSV,2,1,06,02,44,310,42,03,37,225,41,08,31,289,40,11,37,082,38,7*7F
$GAGSV,2,2,06,25,51,038,43,36,34,148,00,,,,,,,,,7*75
$GPRMC,062834.40,A,3046.9743780,N,10357.5038412,E,0.05,90.61,260319,0.0,E,D*05
$GPGGA,062834.40,3046.9743780,N,10357.5038412,E,4,23,1.0,532.107,M,-40.962,M,2.4,*66
$GPGSA,A,3,07,08,09,11,16,23,27,,,,,,2.1,1.2,1.8,1*23
$GAGSA,A,3,02,03,08,11,25,36,,,,,,,6.0,1.3,5.9,3*3F
$GPGSV,2,1,07,07,31,316,45,08,69,180,47,09,49,284,48,11,16,181,00,1*64
$GPGSV,2,2,07,16,40,040,45,23,56,225,45,27,67,066,48,,,,,1*5B
$GAGSV,2,1,06,02,44,310,42,03,37,225,41,08,31,289,40,11,37,082,38,7*7F
$GAGSV,2,2,06,25,51,038,43,36,34,148,00,,,,,,,,,7*75
$GPRMC,062834.60,A,3046.9743784,N,10357.5038409,E,0.07,90.61,260319,0.0,E,D*0B
$GPGGA,062834.60,3046.9743784,N,10357.5038409,E,4,23,1.0,532.106,M,-40.962,M,2.6,*69
$GPGSA,A,3,07,08,09,11,16,23,27,,,,,,2.1,1.2,1.8,1*23
$GAGSA,A,3,02,03,08,11,25,36,,,,,,,6.0,1.3,5.9,3*3F
$GPGSV,2,1,07,07,31,316,45,08,69,180,47,09,49,284,48,11,16,181,00,1*64
$GPGSV,2,2,07,16,40,040,45,23,56,225,45,27,67,066,48,,,,,1*5B
$GAGSV,2,1,06,02,44,310,42,03,37,225,41,08,31,289,40,11,37,082,38,7*7F
$GAGSV,2,2,06,25,51,038,43,36,34,148,00,,,,,,,,,7*75
$GPRMC,062834.80,A,3046.9743788,N,10357.5038400,E,0.07,90.61,260319,0.0,E,D*00
$GPGGA,062834.80,3046.9743788,N,10357.5038400,E,4,23,1.0,532.106,M,-40.962,M,2.8,*6C
$GPGSA,A,3,07,08,09,11,16,23,27,,,,,,2.1,1.2,1.8,1*23
$GAGSA,A,3,02,03,08,11,25,36,,,,,,,6.0,1.3,5.9,3*3F
$GPGSV,2,1,07,07,31,316,45,08,69,180,47,09,49,284,48,11,16,181,00,1*64
$GPGSV,2,2,07,16,40,040,45,23,56,225,45,27,67,066,48,,,,,1*5B
$GAGSV,2,1,06,02,44,310,42,03,37,225,41,08,31,289,40,11,37,082,38,7*7F
$GAGSV,2,2,06,25,51,038,43,36,34,148,00,,,,,,,,,7*75
$GPRMC,062835.00,A,3046.9743781,N,10357.5038405,E,0.16,90.61,260319,0.0,E,D*05
$GPGGA,062835.00,3046.9743781,N,10357.5038405,E,4,23,1.0,532.108,M,-40.962,M,3.0,*6E
$GPGSA,A,3,07,08,09,11,16,23,27,,,,,,2.1,1.2,1.8,1*23
$GAGSA,A,3,02,03,08,11,25,36,,,,,,,6.0,1.3,5.9,3*3F
$GPGSV,2,1,07,07,31,316,45,08,69,180,47,09,49,284,48,11,16,181,00,1*64
$GPGSV,2,2,07,16,40,040,45,23,56,225,45,27,67,066,48,,,,,1*5B
$GAGSV,2,1,06,02,44,310,42,03,37,225,41,08,31,289,40,11,37,082,38,7*7F
$GAGSV,2,2,06,25,51,038,43,36,34,148,00,,,,,,,,,7*75
$GPRMC,062835.20,A,3046.9743781,N,10357.5038405,E,0.05,90.61,260319,0.0,E,D*05
$GPGGA,062835.20,3046.9743781,N,10357.5038405,E,4,23,1.0,532.109,M,-40.962,M,1.2,*6D
$GPGSA,A,3,07,08,09,11,16,23,27,,,,,,2.1,1.2,1.8,1*23
$GAGSA,A,3,02,03,08,11,25,36,,,,,,,6.0,1.3,5.9,3*3F
$GPGSV,2,1,07,07,31,316,45,08,69,180,47,09,49,284,48,11,16,181,00,1*64
$GPGSV,2,2,07,16,40,040,45,23,56,225,45,27,67,066,48,,,,,1*5B
$GAGSV,2,1,06,02,44,310,42,03,37,225,41,08,31,289,40,11,37,082,38,7*7F
$GAGSV,2,2,06,25,51,038,43,36,34,148,00,,,,,,,,,7*75
$GPRMC,062835.40,A,3046.9743777,N,10357.5038402,E,0.11,90.61,260319,0.0,E,D*08
$GPGGA,062835.40,3046.9743777,N,10357.5038402,E,4,23,1.0,532.106,M,-40.962,M,1.4,*6C
$GPGSA,A,3,07,08,09,11,16,23,27,,,,,,2.1,1.2,1.8,1*23
$GAGSA,A,3,02,03,08,11,25,36,,,,,,,6.0,1.3,5.9,3*3F
$GPGSV,2,1,07,07,31,316,45,08,69,180,47,09,49,284,48,11,16,181,00,1*64
$GPGSV,2,2,07,16,40,040,45,23,56,225,45,27,67,066,48,,,,,1*5B
$GAGSV,2,1,06,02,44,310,42,03,37,225,41,08,31,289,40,11,37,082,38,7*7F
$GAGSV,2,2,06,25,51,038,43,36,34,148,00,,,,,,,,,7*75
$GPRMC,062835.60,A,3046.9743769,N,10357.5038410,E,0.03,90.61,260319,0.0,E,D*05
$GPGGA,062835.60,3046.9743769,N,10357.5038410,E,4,23,1.0,532.106,M,-40.962,M,1.6,*60
$GPGSA,A,3,07,08,09,11,16,23,27,,,,,,2.1,1.2,1.8,1*23
$GAGSA,A,3,02,03,08,11,25,36,,,,,,,6.0,1.3,5.9,3*3F
$GPGSV,2,1,07,07,31,316,45,08,69,180,47,09,49,284,48,11,16,181,00,1*64
$GPGSV,2,2,07,16,40,040,45,23,56,225,45,27,67,066,48,,,,,1*5B
$GAGSV,2,1,06,02,44,310,42,03,37,225,41,08,31,289,40,11,37,082,38,7*7F
$GAGSV,2,2,06,25,51,038,43,36,34,148,00,,,,,,,,,7*75
$GPRMC,062835.80,A,3046.9743773,N,10357.5038402,E,0.09,90.61,260319,0.0,E,D*09
$GPGGA,062835.80,3046.9743773,N,10357.5038402,E,4,23,1.0,532.106,M,-40.962,M,1.8,*68
$GPGSA,A,3,07,08,09,11,16,23,27,,,,,,2.1,1.2,1.8,1*23
$GAGSA,A,3,02,03,08,11,25,36,,,,,,,6.0,1.3,5.9,3*3F
$GPGSV,2,1,07,07,31,316,45,08,69,180,47,09,49,284,48,11,16,181,00,1*64
$GPGSV,2,2,07,16,40,040,45,23,56,225,45,27,67,066,48,,,,,1*5B
$GAGSV,2,1,06,02,44,310,42,03,37,225,41,08,31,289,40,11,37,082,38,7*7F
$GAGSV,2,2,06,25,51,038,43,36,34,148,00,,,,,,,,,7*75
$GPRMC,062836.00,A,3046.9743777,N,10357.5038399,E,0.03,90.61,260319,0.0,E,D*09
$GPGGA,062836.00,3046.9743777,N,10357.5038399,E,4,23,1.0,532.106,M,-40.962,M,2.0,*69
$GPGSA,A,3,07,08,09,11,16,23,27,,,,,,2.1,1.2,1.8,1*23
$GAGSA,A,3,02,03,08,11,25,36,,,,,,,6.0,1.3,5.9,3*3F
$GPGSV,2,1,07,07,31,316,45,08,69,180,47,09,49,284,48,11,16,181,00,1*64
$GPGSV,2,2,07,16,40,040,45,23,56,225,45,27,67,065,48,,,,,1*58
$GAGSV,2,1,06,02,44,310,42,03,37,225,41,08,31,289,40,11,37,082,38,7*7F
$GAGSV,2,2,06,25,51,038,43,36,34,148,00,,,,,,,,,7*75
$GPRMC,062836.20,A,3046.9743770,N,10357.5038406,E,0.07,90.61,260319,0.0,E,D*09
$GPGGA,062836.20,3046.9743770,N,10357.5038406,E,4,23,1.0,532.107,M,-40.962,M,2.2,*6E
$GPGSA,A,3,07,08,09,11,16,23,27,,,,,,2.1,1.2,1.8,1*23
$GAGSA,A,3,02,03,08,11,25,36,,,,,,,6.0,1.3,5.9,3*3F
$GPGSV,2,1,07,07,31,316,45,08,69,180,47,09,49,284,48,11,16,181,00,1*64
$GPGSV,2,2,07,16,40,040,45,23,56,225,46,27,67,065,48,,,,,1*5B
$GAGSV,2,1,06,02,44,310,42,03,37,225,41,08,31,289,40,11,37,082,38,7*7F
$GAGSV,2,2,06,25,51,038,43,36,34,148,00,,,,,,,,,7*75
$GPRMC,062836.40,A,3046.9743773,N,10357.5038403,E,0.06,90.61,260319,0.0,E,D*08
$GPGGA,062836.40,3046.9743773,N,10357.5038403,E,4,23,1.0,532.106,M,-40.962,M,2.4,*69
$GPGSA,A,3,07,08,09,11,16,23,27,,,,,,2.1,1.2,1.8,1*23
$GAGSA,A,3,02,03,08,11,25,36,,,,,,,6.0,1.3,5.9,3*3F
$GPGSV,2,1,07,07,31,316,45,08,69,180,47,09,49,284,48,11,16,181,00,1*64
$GPGSV,2,2,07,16,40,040,45,23,56,225,46,27,67,065,48,,,,,1*5B
$GAGSV,2,1,06,02,44,310,42,03,37,225,41,08,31,289,40,11,37,082,38,7*7F
$GAGSV,2,2,06,25,51,038,43,36,34,148,00,,,,,,,,,7*75
$GPRMC,062836.60,A,3046.9743775,N,10357.5038401,E,0.02,90.61,260319,0.0,E,D*0A
$GPGGA,062836.60,3046.9743775,N,10357.5038401,E,4,23,1.0,532.105,M,-40.962,M,2.6,*6E
$GPGSA,A,3,07,08,09,11,16,23,27,,,,,,2.1,1.2,1.8,1*23
$GAGSA,A,3,02,03,08,11,25,36,,,,,,,6.0,1.3,5.9,3*3F
$GPGSV,2,1,07,07,31,316,45,08,69,180,47,09,49,284,48,11,16,181,00,1*64
$GPGSV,2,2,07,16,40,040,45,23,56,225,46,27,67,065,48,,,,,1*5B
$GAGSV,2,1,06,02,44,310,42,03,37,225,41,08,31,289,40,11,37,082,38,7*7F
$GAGSV,2,2,06,25,51,038,43,36,34,148,00,,,,,,,,,7*75
$GPRMC,062836.80,A,3046.9743772,N,10357.5038403,E,0.05,90.61,260319,0.0,E,D*06
$GPGGA,062836.80,3046.9743772,N,10357.5038403,E,4,23,1.0,532.106,M,-40.962,M,2.8,*68
$GPGSA,A,3,07,08,09,11,16,23,27,,,,,,2.1,1.2,1.8,1*23
$GAGSA,A,3,02,03,08,11,25,36,,,,,,,6.0,1.3,5.9,3*3F
$GPGSV,2,1,07,07,31,316,45,08,69,180,47,09,49,284,48,11,16,181,00,1*64
$GPGSV,2,2,07,16,40,040,45,23,56,225,46,27,67,065,48,,,,,1*5B
$GAGSV,2,1,06,02,44,310,42,03,37,225,41,08,31,289,40,11,37,082,38,7*7F
$GAGSV,2,2,06,25,51,038,43,36,34,148,00,,,,,,,,,7*75
$GPRMC,062837.00,A,3046.9743772,N,10357.5038408,E,0.10,90.61,260319,0.0,E,D*00
$GPGGA,062837.00,3046.9743772,N,10357.5038408,E,4,23,1.0,532.106,M,-40.962,M,3.0,*63
$GPGSA,A,3,07,08,09,11,16,23,27,,,,,,2.1,1.2,1.8,1*23
$GAGSA,A,3,02,03,08,11,25,36,,,,,,,6.0,1.3,5.9,3*3F
$GPGSV,2,1,07,07,31,316,45,08,69,180,47,09,49,284,48,11,16,181,00,1*64
$GPGSV,2,2,07,16,40,040,45,23,56,225,46,27,67,065,48,,,,,1*5B
$GAGSV,2,1,06,02,44,310,42,03,37,225,41,08,31,289,40,11,37,082,38,7*7F
$GAGSV,2,2,06,25,51,038,43,36,34,148,00,,,,,,,,,7*75
$GPRMC,062837.20,A,3046.9743788,N,10357.5038391,E,0.07,90.61,260319,0.0,E,D*06
$GPGGA,062837.20,3046.9743788,N,10357.5038391,E,4,23,1.0,532.108,M,-40.962,M,1.2,*6D
$GPGSA,A,3,07,08,09,11,16,23,27,,,,,,2.1,1.2,1.8,1*23
$GAGSA,A,3,02,03,08,11,25,36,,,,,,,6.0,1.3,5.9,3*3F
$GPGSV,2,1,07,07,31,316,45,08,69,180,47,09,49,284,48,11,16,181,00,1*64
$GPGSV,2,2,07,16,40,040,45,23,56,225,46,27,67,065,48,,,,,1*5B
$GAGSV,2,1,06,02,44,310,42,03,37,225,41,08,31,289,40,11,37,082,38,7*7F
$GAGSV,2,2,06,25,51,038,43,36,34,148,00,,,,,,,,,7*75
$GPRMC,062837.40,A,3046.9743789,N,10357.5038397,E,0.09,90.61,260319,0.0,E,D*09
$GPGGA,062837.40,3046.9743789,N,10357.5038397,E,4,23,1.0,532.107,M,-40.962,M,1.4,*65
$GPGSA,A,3,07,08,09,11,16,23,27,,,,,,2.1,1.2,1.8,1*23
$GAGSA,A,3,02,03,08,11,25,36,,,,,,,6.0,1.3,5.9,3*3F
$GPGSV,2,1,07,07,31,316,45,08,69,180,47,09,49,284,48,11,16,181,00,1*64
$GPGSV,2,2,07,16,40,040,45,23,56,225,46,27,67,065,48,,,,,1*5B
$GAGSV,2,1,06,02,44,310,42,03,37,225,41,08,31,289,40,11,37,082,38,7*7F
$GAGSV,2,2,06,25,51,038,43,36,34,148,00,,,,,,,,,7*75
$GPRMC,062837.60,A,3046.9743783,N,10357.5038400,E,0.12,90.61,260319,0.0,E,D*02
$GPGGA,062837.60,3046.9743783,N,10357.5038400,E,4,23,1.0,532.107,M,-40.962,M,1.6,*66
$GPGSA,A,3,07,08,09,11,16,23,27,,,,,,2.1,1.2,1.8,1*23
$GAGSA,A,3,02,03,08,11,25,36,,,,,,,6.0,1.3,5.9,3*3F
$GPGSV,2,1,07,07,31,316,45,08,69,180,47,09,49,284,48,11,16,181,00,1*64
$GPGSV,2,2,07,16,40,040,44,23,56,225,46,27,67,065,48,,,,,1*5A
$GAGSV,2,1,06,02,44,310,42,03,37,225,41,08,31,289,40,11,37,082,38,7*7F
$GAGSV,2,2,06,25,51,038,43,36,34,148,00,,,,,,,,,7*75
$GPRMC,062837.80,A,3046.9743780,N,10357.5038405,E,0.03,90.61,260319,0.0,E,D*0A
$GPGGA,062837.80,3046.9743780,N,10357.5038405,E,4,23,1.0,532.106,M,-40.962,M,1.8,*61
$GPGSA,A,3,07,08,09,11,16,23,27,,,,,,2.1,1.2,1.8,1*23
$GAGSA,A,3,02,03,08,11,25,36,,,,,,,6.0,1.3,5.9,3*3F
$GPGSV,2,1,07,07,31,316,45,08,69,180,47,09,49,284,48,11,16,181,00,1*64
$GPGSV,2,2,07,16,40,040,44,23,56,225,46,27,67,065,48,,,,,1*5A
$GAGSV,2,1,06,02,44,310,42,03,37,225,41,08,31,289,40,11,37,082,38,7*7F
$GAGSV,2,2,06,25,51,038,43,36,34,148,00,,,,,,,,,7*75
$GPRMC,062838.00,A,3046.9743781,N,10357.5038408,E,0.07,90.61,260319,0.0,E,D*05
$GPGGA,062838.00,3046.9743781,N,10357.5038408,E,4,23,1.0,532.104,M,-40.962,M,2.0,*63
$GPGSA,A,3,07,08,09,11,16,23,27,,,,,,2.1,1.2,1.8,1*23
$GAGSA,A,3,02,03,08,11,25,36,,,,,,,6.0,1.3,5.9,3*3F
$GPGSV,2,1,07,07,31,316,45,08,69,180,47,09,49,284,47,11,16,181,00,1*6B
$GPGSV,2,2,07,16,40,040,44,23,56,225,46,27,67,065,48,,,,,1*5A
$GAGSV,2,1,06,02,44,310,42,03,37,225,40,08,31,289,40,11,37,082,38,7*7E
$GAGSV,2,2,06,25,51,038,43,36,34,148,00,,,,,,,,,7*75
$GPRMC,062838.20,A,3046.9743779,N,10357.5038402,E,0.05,90.61,260319,0.0,E,D*08
$GPGGA,062838.20,3046.9743779,N,10357.5038402,E,4,23,1.0,532.105,M,-40.962,M,2.2,*6F
$GPGSA,A,3,07,08,09,11,16,23,27,,,,,,2.1,1.2,1.8,1*23
$GAGSA,A,3,02,03,08,11,25,36,,,,,,,6.0,1.3,5.9,3*3F
$GPGSV,2,1,07,07,31,316,45,08,69,180,47,09,49,284,47,11,16,181,00,1*6B
$GPGSV,2,2,07,16,40,040,44,23,56,225,46,27,67,065,48,,,,,1*5A
$GAGSV,2,1,06,02,44,310,42,03,37,225,41,08,31,289,40,11,37,082,38,7*7F
$GAGSV,2,2,06,25,51,038,43,36,34,148,00,,,,,,,,,7*75
$GPRMC,062838.40,A,3046.9743779,N,10357.5038398,E,0.18,90.61,260319,0.0,E,D*06
$GPGGA,062838.40,3046.9743779,N,10357.5038398,E,4,23,1.0,532.108,M,-40.962,M,2.4,*66
$GPGSA,A,3,07,08,09,11,16,23,27,,,,,,2.1,1.2,1.8,1*23
$GAGSA,A,3,02,03,08,11,25,36,,,,,,,6.0,1.3,5.9,3*3F
$GPGSV,2,1,07,07,31,316,45,08,69,180,47,09,49,284,47,11,16,181,00,1*6B
$GPGSV,2,2,07,16,40,040,44,23,56,225,46,27,67,065,48,,,,,1*5A
$GAGSV,2,1,06,02,44,310,42,03,37,225,40,08,31,289,40,11,37,082,38,7*7E
$GAGSV,2,2,06,25,51,038,43,36,34,148,00,,,,,,,,,7*75
$GPRMC,062838.60,A,3046.9743778,N,10357.5038399,E,0.02,90.61,260319,0.0,E,D*0F
$GPGGA,062838.60,3046.9743778,N,10357.5038399,E,4,23,1.0,532.106,M,-40.962,M,2.6,*68
$GPGSA,A,3,07,08,09,11,16,23,27,,,,,,2.1,1.2,1.8,1*23
$GAGSA,A,3,02,03,08,11,25,36,,,,,,,6.0,1.3,5.9,3*3F
$GPGSV,2,1,07,07,31,316,45,08,69,180,47,09,49,284,47,11,16,181,00,1*6B
$GPGSV,2,2,07,16,40,040,44,23,56,225,45,27,67,065,48,,,,,1*59
$GAGSV,2,1,06,02,44,310,42,03,37,225,40,08,31,289,40,11,37,082,38,7*7E
$GAGSV,2,2,06,25,51,038,43,36,34,148,00,,,,,,,,,7*75
$GPRMC,062838.80,A,3046.9743775,N,10357.5038396,E,0.04,90.61,260319,0.0,E,D*05
$GPGGA,062838.80,3046.9743775,N,10357.5038396,E,4,23,1.0,532.106,M,-40.962,M,2.8,*6A
$GPGSA,A,3,07,08,09,11,16,23,27,,,,,,2.1,1.2,1.8,1*23
$GAGSA,A,3,02,03,08,11,25,36,,,,,,,6.0,1.3,5.9,3*3F
$GPGSV,2,1,07,07,31,316,45,08,69,180,47,09,49,284,47,11,16,181,00,1*6B
$GPGSV,2,2,07,16,40,040,44,23,56,225,45,27,67,065,48,,,,,1*59
$GAGSV,2,1,06,02,44,310,42,03,37,225,40,08,31,289,40,11,37,082,38,7*7E
$GAGSV,2,2,06,25,51,038,43,36,34,148,00,,,,,,,,,7*75
$GPRMC,062839.00,A,3046.9743774,N,10357.5038400,E,0.14,90.61,260319,0.0,E,D*04
$GPGGA,062839.00,3046.9743774,N,10357.5038400,E,4,23,1.0,532.105,M,-40.962,M,3.0,*60
$GPGSA,A,3,07,08,09,11,16,23,27,,,,,,2.1,1.2,1.8,1*23
$GAGSA,A,3,02,03,08,11,25,36,,,,,,,6.0,1.3,5.9,3*3F
$GPGSV,2,1,07,07,31,316,45,08,69,180,47,09,49,284,47,11,16,181,00,1*6B
$GPGSV,2,2,07,16,40,040,44,23,56,225,45,27,67,065,48,,,,,1*59
$GAGSV,2,1,06,02,44,310,42,03,37,225,40,08,31,289,40,11,37,082,38,7*7E
$GAGSV,2,2,06,25,51,038,43,36,34,148,00,,,,,,,,,7*75
$GPRMC,062839.20,A,3046.9743780,N,10357.5038411,E,0.10,90.61,260319,0.0,E,D*09
$GPGGA,062839.20,3046.9743780,N,10357.5038411,E,4,23,1.0,532.105,M,-40.962,M,1.2,*69
$GPGSA,A,3,07,08,09,11,16,23,27,,,,,,2.1,1.2,1.8,1*23
$GAGSA,A,3,02,03,08,11,25,36,,,,,,,6.0,1.3,5.9,3*3F
$GPGSV,2,1,07,07,31,316,45,08,69,180,47,09,49,284,47,11,16,181,00,1*6B
$GPGSV,2,2,07,16,40,040,44,23,56,225,45,27,67,065,48,,,,,1*59
$GAGSV,2,1,06,02,44,310,42,03,37,225,41,08,31,289,40,11,37,082,38,7*7F
$GAGSV,2,2,06,25,51,038,43,36,34,148,00,,,,,,,,,7*75
$GPRMC,062839.40,A,3046.9743775,N,10357.5038409,E,0.13,90.61,260319,0.0,E,D*0F
$GPGGA,062839.40,3046.9743775,N,10357.5038409,E,4,23,1.0,532.104,M,-40.962,M,1.4,*6B
$GPGSA,A,3,07,08,09,11,16,23,27,,,,,,2.1,1.2,1.8,1*23
$GAGSA,A,3,02,03,08,11,25,36,,,,,,,6.0,1.3,5.9,3*3F
$GPGSV,2,1,07,07,31,316,45,08,69,180,47,09,49,284,47,11,16,181,00,1*6B
$GPGSV,2,2,07,16,40,040,44,23,56,225,45,27,67,065,48,,,,,1*59
$GAGSV,2,1,06,02,44,310,42,03,37,225,41,08,31,289,40,11,37,082,38,7*7F
$GAGSV,2,2,06,25,51,038,43,36,34,148,00,,,,,,,,,7*75
$GPRMC,062839.60,A,3046.9743776,N,10357.5038402,E,0.08,90.61,260319,0.0,E,D*0F
$GPGGA,062839.60,3046.9743776,N,10357.5038402,E,4,23,1.0,532.105,M,-40.962,M,1.6,*62
$GPGSA,A,3,07,08,09,11,16,23,27,,,,,,2.1,1.2,1.8,1*23
$GAGSA,A,3,02,03,08,11,25,36,,,,,,,6.0,1.3,5.9,3*3F
$GPGSV,2,1,07,07,31,316,45,08,69,180,47,09,49,284,47,11,16,181,00,1*6B
$GPGSV,2,2,07,16,40,040,44,23,56,225,45,27,67,065,48,,,,,1*59
$GAGSV,2,1,06,02,44,310,42,03,37,225,41,08,31,289,40,11,37,082,38,7*7F
$GAGSV,2,2,06,25,51,038,43,36,34,148,00,,,,,,,,,7*75
$GPRMC,062839.80,A,3046.9743774,N,10357.5038406,E,0.02,90.61,260319,0.0,E,D*0D
$GPGGA,062839.80,3046.9743774,N,10357.5038406,E,4,23,1.0,532.106,M,-40.962,M,1.8,*67
$GPGSA,A,3,07,08,09,11,16,23,27,,,,,,2.1,1.2,1.8,1*23
$GAGSA,A,3,02,03,08,11,25,36,,,,,,,6.0,1.3,5.9,3*3F
$GPGSV,2,1,07,07,31,316,45,08,69,180,47,09,49,284,47,11,16,181,00,1*6B
$GPGSV,2,2,07,16,40,040,44,23,56,225,45,27,67,065,48,,,,,1*59
$GAGSV,2,1,06,02,44,310,42,03,37,225,41,08,31,289,40,11,37,082,38,7*7F
$GAGSV,2,2,06,25,51,038,43,36,34,148,00,,,,,,,,,7*75
$GPRMC,062840.00,A,3046.9743773,N,10357.5038394,E,0.19,90.61,260319,0.0,E,D*0A
$GPGGA,062840.00,3046.9743773,N,10357.5038394,E,4,23,1.0,532.107,M,-40.962,M,2.0,*60
$GPGSA,A,3,07,08,09,11,16,23,27,,,,,,2.1,1.2,1.8,1*23
$GAGSA,A,3,02,03,08,11,25,36,,,,,,,6.0,1.3,5.9,3*3F
$GPGSV,2,1,07,07,31,316,45,08,69,180,47,09,49,284,47,11,16,181,00,1*6B
$GPGSV,2,2,07,16,40,040,44,23,56,225,45,27,67,065,48,,,,,1*59
$GAGSV,2,1,06,02,44,310,42,03,37,225,41,08,31,289,40,11,37,082,38,7*7F
$GAGSV,2,2,06,25,51,038,43,36,34,148,00,,,,,,,,,7*75
$GPRMC,062840.20,A,3046.9743770,N,10357.5038401,E,0.07,90.61,260319,0.0,E,D*0F
$GPGGA,062840.20,3046.9743770,N,10357.5038401,E,4,23,1.0,532.108,M,-40.962,M,2.2,*67
$GPGSA,A,3,07,08,09,11,16,23,27,,,,,,2.1,1.2,1.8,1*23
$GAGSA,A,3,02,03,08,11,25,36,,,,,,,6.0,1.3,5.9,3*3F
$GPGSV,2,1,07,07,31,316,45,08,69,180,47,09,49,284,47,11,16,181,00,1*6B
$GPGSV,2,2,07,16,40,040,44,23,56,225,45,27,67,065,48,,,,,1*59
$GAGSV,2,1,06,02,44,310,42,03,37,225,41,08,31,289,40,11,37,082,38,7*7F
$GAGSV,2,2,06,25,51,038,43,36,34,148,00,,,,,,,,,7*75
$GPRMC,062840.40,A,3046.9743767,N,10357.5038407,E,0.02,90.61,260319,0.0,E,D*0C
$GPGGA,062840.40,3046.9743767,N,10357.5038407,E,4,23,1.0,532.104,M,-40.962,M,2.4,*6B
$GPGSA,A,3,07,08,09,11,16,23,27,,,,,,2.1,1.2,1.8,1*23
$GAGSA,A,3,02,03,08,11,25,36,,,,,,,6.0,1.3,5.9,3*3F
$GPGSV,2,1,07,07,31,316,45,08,69,180,47,09,49,284,47,11,16,181,00,1*6B
$GPGSV,2,2,07,16,40,040,44,23,56,225,45,27,67,065,48,,,,,1*59
$GAGSV,2,1,06,02,44,310,42,03,37,225,41,08,31,289,40,11,37,082,38,7*7F
$GAGSV,2,2,06,25,51,038,43,36,34,148,00,,,,,,,,,7*75
$GPRMC,062840.60,A,3046.9743762,N,10357.5038404,E,0.08,90.61,260319,0.0,E,D*02
