$GPRMC,063510.80,A,3046.9744281,N,10357.5037065,E,0.05,90.00,260319,0.0,E,D*0C
$GPGGA,063510.80,3046.9744281,N,10357.5037065,E,4,24,1.0,532.107,M,-40.962,M,2.8,*63
$GPGSA,A,3,07,08,09,16,23,26,27,,,,,,2.8,1.5,2.3,1*21
$GAGSA,A,3,02,03,08,11,25,36,,,,,,,6.5,1.3,6.4,3*34
$GPGSV,2,1,07,07,33,317,46,08,73,179,48,09,49,279,49,16,37,042,45,1*6E
$GPGSV,2,2,07,23,53,221,46,26,15,062,40,27,65,059,48,,,,,1*51
$GAGSV,2,1,06,02,45,313,43,03,35,223,41,08,31,286,41,11,38,079,38,7*7D
$GAGSV,2,2,06,25,50,041,43,36,36,147,00,,,,,,,,,7*77
$GPRMC,063511.00,A,3046.9744281,N,10357.5037061,E,0.02,90.00,260319,0.0,E,D*06
$GPGGA,063511.00,3046.9744281,N,10357.5037061,E,4,24,1.0,532.109,M,-40.962,M,3.0,*69
$GPGSA,A,3,07,08,09,16,23,26,27,,,,,,2.8,1.5,2.3,1*21
$GAGSA,A,3,02,03,08,11,25,36,,,,,,,6.5,1.3,6.4,3*34
$GPGSV,2,1,07,07,33,317,46,08,73,179,48,09,49,279,49,16,37,042,45,1*6E
$GPGSV,2,2,07,23,53,221,46,26,15,062,40,27,65,059,48,,,,,1*51
$GAGSV,2,1,06,02,45,313,43,03,35,223,41,08,31,286,41,11,38,079,38,7*7D
$GAGSV,2,2,06,25,50,041,43,36,36,147,00,,,,,,,,,7*77
$GPRMC,063511.20,A,3046.9744285,N,10357.5037063,E,0.05,90.00,260319,0.0,E,D*05
$GPGGA,063511.20,3046.9744285,N,10357.5037063,E,4,24,1.0,532.111,M,-40.962,M,1.2,*64
$GPGSA,A,3,07,08,09,16,23,26,27,,,,,,2.8,1.5,2.3,1*21
$GAGSA,A,3,02,03,08,11,25,36,,,,,,,6.5,1.3,6.4,3*34
$GPGSV,2,1,07,07,33,317,46,08,73,179,48,09,49,279,49,16,37,042,45,1*6E
$GPGSV,2,2,07,23,53,221,46,26,15,062,40,27,65,059,48,,,,,1*51
$GAGSV,2,1,06,02,45,313,43,03,35,223,41,08,31,286,41,11,38,079,38,7*7D
$GAGSV,2,2,06,25,50,041,43,36,36,147,00,,,,,,,,,7*77
$GPRMC,063511.40,A,3046.9744290,N,10357.5037067,E,0.07,90.00,260319,0.0,E,D*01
$GPGGA,063511.40,3046.9744290,N,10357.5037067,E,4,24,1.0,532.110,M,-40.962,M,1.4,*65
$GPGSA,A,3,07,08,09,16,23,26,27,,,,,,2.8,1.5,2.3,1*21
$GAGSA,A,3,02,03,08,11,25,36,,,,,,,6.5,1.3,6.4,3*34
$GPGSV,2,1,07,07,33,317,46,08,73,179,48,09,49,279,49,16,37,042,45,1*6E
$GPGSV,2,2,07,23,53,221,46,26,15,062,40,27,65,059,48,,,,,1*51
$GAGSV,2,1,06,02,45,313,43,03,35,223,41,08,31,286,41,11,38,079,38,7*7D
$GAGSV,2,2,06,25,50,041,43,36,36,147,00,,,,,,,,,7*77
$GPRMC,063511.60,A,3046.9744278,N,10357.5037068,E,0.01,90.00,260319,0.0,E,D*0C
$GPGGA,063511.60,3046.9744278,N,10357.5037068,E,4,24,1.0,532.110,M,-40.962,M,1.6,*6C
$GPGSA,A,3,07,08,09,16,23,26,27,,,,,,2.8,1.5,2.3,1*21
$GAGSA,A,3,02,03,08,11,25,36,,,,,,,6.5,1.3,6.4,3*34
$GPGSV,2,1,07,07,33,317,46,08,73,179,48,09,49,279,49,16,37,042,45,1*6E
$GPGSV,2,2,07,23,53,221,46,26,15,062,40,27,65,059,48,,,,,1*51
$GAGSV,2,1,06,02,45,313,43,03,35,223,41,08,31,286,41,11,38,079,38,7*7D
$GAGSV,2,2,06,25,50,041,43,36,36,147,00,,,,,,,,,7*77
$GPRMC,063511.80,A,3046.9744278,N,10357.5037064,E,0.10,90.00,260319,0.0,E,D*0E
$GPGGA,063511.80,3046.9744278,N,10357.5037064,E,4,24,1.0,532.111,M,-40.962,M,1.8,*61
$GPGSA,A,3,07,08,09,16,23,26,27,,,,,,2.8,1.5,2.3,1*21
$GAGSA,A,3,02,03,08,11,25,36,,,,,,,6.5,1.3,6.4,3*34
$GPGSV,2,1,07,07,33,317,46,08,73,179,48,09,49,279,49,16,37,042,45,1*6E
$GPGSV,2,2,07,23,53,221,46,26,15,062,40,27,65,059,48,,,,,1*51
$GAGSV,2,1,06,02,45,313,43,03,35,223,41,08,31,286,41,11,38,079,38,7*7D
$GAGSV,2,2,06,25,50,041,43,36,36,147,00,,,,,,,,,7*77
$GPRMC,063512.00,A,3046.9744279,N,10357.5037060,E,0.06,90.00,260319,0.0,E,D*07
$GPGGA,063512.00,3046.9744279,N,10357.5037060,E,4,24,1.0,532.109,M,-40.962,M,2.0,*6D
$GPGSA,A,3,07,08,09,16,23,26,27,,,,,,2.8,1.5,2.3,1*21
$GAGSA,A,3,02,03,08,11,25,36,,,,,,,6.5,1.3,6.4,3*34
$GPGSV,2,1,07,07,33,317,46,08,73,179,48,09,49,279,49,16,37,042,45,1*6E
$GPGSV,2,2,07,23,53,221,46,26,15,062,40,27,65,059,48,,,,,1*51
$GAGSV,2,1,06,02,45,313,43,03,35,223,41,08,31,286,41,11,38,079,38,7*7D
$GAGSV,2,2,06,25,50,041,43,36,36,147,00,,,,,,,,,7*77
$GPRMC,063512.20,A,3046.9744278,N,10357.5037065,E,0.08,90.00,260319,0.0,E,D*0F
$GPGGA,063512.20,3046.9744278,N,10357.5037065,E,4,24,1.0,532.108,M,-40.962,M,2.2,*68
$GPGSA,A,3,07,08,09,16,23,26,27,,,,,,2.8,1.5,2.3,1*21
$GAGSA,A,3,02,03,08,11,25,36,,,,,,,6.5,1.3,6.4,3*34
$GPGSV,2,1,07,07,33,317,46,08,73,179,48,09,49,279,49,16,37,042,45,1*6E
$GPGSV,2,2,07,23,53,221,46,26,15,062,40,27,65,059,48,,,,,1*51
$GAGSV,2,1,06,02,45,313,43,03,35,223,41,08,31,286,41,11,38,079,38,7*7D
$GAGSV,2,2,06,25,50,041,43,36,36,147,00,,,,,,,,,7*77
$GPRMC,063512.40,A,3046.9744276,N,10357.5037066,E,0.03,90.00,260319,0.0,E,D*0F
$GPGGA,063512.40,3046.9744276,N,10357.5037066,E,4,24,1.0,532.108,M,-40.962,M,2.4,*65
$GPGSA,A,3,07,08,09,16,23,26,27,,,,,,2.8,1.5,2.3,1*21
$GAGSA,A,3,02,03,08,11,25,36,,,,,,,6.5,1.3,6.4,3*34
$GPGSV,2,1,07,07,33,317,46,08,73,179,48,09,49,279,49,16,37,042,45,1*6E
$GPGSV,2,2,07,23,53,221,46,26,15,062,40,27,65,059,48,,,,,1*51
$GAGSV,2,1,06,02,45,313,43,03,35,223,41,08,31,286,41,11,38,079,38,7*7D
$GAGSV,2,2,06,25,50,041,43,36,36,147,00,,,,,,,,,7*77
$GPRMC,063512.60,A,3046.9744274,N,10357.5037064,E,0.05,90.00,260319,0.0,E,D*0B
$GPGGA,063512.60,3046.9744274,N,10357.5037064,E,4,24,1.0,532.107,M,-40.962,M,2.6,*6A
$GPGSA,A,3,07,08,09,16,23,26,27,,,,,,2.8,1.5,2.3,1*21
$GAGSA,A,3,02,03,08,11,25,36,,,,,,,6.5,1.3,6.4,3*34
$GPGSV,2,1,07,07,33,317,46,08,73,179,48,09,49,279,49,16,37,042,45,1*6E
$GPGSV,2,2,07,23,53,221,46,26,15,062,40,27,65,059,48,,,,,1*51
$GAGSV,2,1,06,02,45,313,43,03,35,223,41,08,31,286,41,11,38,079,38,7*7D
$GAGSV,2,2,06,25,50,041,43,36,36,147,00,,,,,,,,,7*77
$GPRMC,063512.80,A,3046.9744276,N,10357.5037063,E,0.06,90.00,260319,0.0,E,D*03
$GPGGA,063512.80,3046.9744276,N,10357.5037063,E,4,24,1.0,532.107,M,-40.962,M,2.8,*6F
$GPGSA,A,3,07,08,09,16,23,26,27,,,,,,2.8,1.5,2.3,1*21
$GAGSA,A,3,02,03,08,11,25,36,,,,,,,6.5,1.3,6.4,3*34
$GPGSV,2,1,07,07,33,317,46,08,73,179,48,09,49,279,49,16,37,042,45,1*6E
$GPGSV,2,2,07,23,53,221,46,26,15,062,40,27,65,059,48,,,,,1*51
$GAGSV,2,1,06,02,45,313,43,03,35,223,41,08,31,286,41,11,38,079,38,7*7D
$GAGSV,2,2,06,25,50,041,43,36,36,147,00,,,,,,,,,7*77
$GPRMC,063513.00,A,3046.9744274,N,10357.5037065,E,0.06,90.00,260319,0.0,E,D*0E
$GPGGA,063513.00,3046.9744274,N,10357.5037065,E,4,24,1.0,532.105,M,-40.962,M,3.0,*69
$GPGSA,A,3,07,08,09,16,23,26,27,,,,,,2.8,1.5,2.3,1*21
$GAGSA,A,3,02,03,08,11,25,36,,,,,,,6.5,1.3,6.4,3*34
$GPGSV,2,1,07,07,33,317,46,08,73,179,48,09,49,279,49,16,37,042,45,1*6E
$GPGSV,2,2,07,23,53,221,46,26,15,062,40,27,65,059,48,,,,,1*51
$GAGSV,2,1,06,02,45,313,43,03,35,223,41,08,31,286,41,11,38,079,38,7*7D
$GAGSV,2,2,06,25,50,041,43,36,36,147,00,,,,,,,,,7*77
$GPRMC,063513.20,A,3046.9744280,N,10357.5037071,E,0.11,90.00,260319,0.0,E,D*04
$GPGGA,063513.20,3046.9744280,N,10357.5037071,E,4,24,1.0,532.105,M,-40.962,M,1.2,*65
$GPGSA,A,3,07,08,09,16,23,26,27,,,,,,2.8,1.5,2.3,1*21
$GAGSA,A,3,02,03,08,11,25,36,,,,,,,6.5,1.3,6.4,3*34
$GPGSV,2,1,07,07,33,317,46,08,73,179,48,09,49,279,49,16,37,042,45,1*6E
$GPGSV,2,2,07,23,53,221,46,26,15,062,40,27,65,059,48,,,,,1*51
$GAGSV,2,1,06,02,45,313,43,03,35,223,41,08,31,286,41,11,38,079,38,7*7D
$GAGSV,2,2,06,25,50,041,43,36,36,147,00,,,,,,,,,7*77
$GPRMC,063513.40,A,3046.9744280,N,10357.5037074,E,0.04,90.00,260319,0.0,E,D*03
$GPGGA,063513.40,3046.9744280,N,10357.5037074,E,4,24,1.0,532.106,M,-40.962,M,1.4,*63
$GPGSA,A,3,07,08,09,16,23,26,27,,,,,,2.8,1.5,2.3,1*21
$GAGSA,A,3,02,03,08,11,25,36,,,,,,,6.5,1.3,6.4,3*34
$GPGSV,2,1,07,07,33,317,46,08,73,179,48,09,49,279,49,16,37,042,45,1*6E
$GPGSV,2,2,07,23,53,221,46,26,15,062,40,27,65,059,48,,,,,1*51
$GAGSV,2,1,06,02,45,313,43,03,35,223,41,08,31,286,41,11,38,079,38,7*7D
$GAGSV,2,2,06,25,50,041,43,36,36,147,00,,,,,,,,,7*77
$GPRMC,063513.60,A,3046.9744279,N,10357.5037075,E,0.04,90.00,260319,0.0,E,D*06
$GPGGA,063513.60,3046.9744279,N,10357.5037075,E,4,24,1.0,532.106,M,-40.962,M,1.6,*64
$GPGSA,A,3,07,08,09,16,23,26,27,,,,,,2.8,1.5,2.3,1*21
$GAGSA,A,3,02,03,08,11,25,36,,,,,,,6.5,1.3,6.4,3*34
$GPGSV,2,1,07,07,33,317,46,08,73,179,48,09,49,279,49,16,37,042,45,1*6E
$GPGSV,2,2,07,23,53,221,46,26,15,062,40,27,65,059,48,,,,,1*51
$GAGSV,2,1,06,02,45,313,43,03,35,223,41,08,31,286,41,11,38,079,38,7*7D
$GAGSV,2,2,06,25,50,041,43,36,36,147,00,,,,,,,,,7*77
$GPRMC,063513.80,A,3046.9744285,N,10357.5037067,E,0.06,90.00,260319,0.0,E,D*0A
$GPGGA,063513.80,3046.9744285,N,10357.5037067,E,4,24,1.0,532.108,M,-40.962,M,1.8,*6A
$GPGSA,A,3,07,08,09,16,23,26,27,,,,,,2.8,1.5,2.3,1*21
$GAGSA,A,3,02,03,08,11,25,36,,,,,,,6.5,1.3,6.4,3*34
$GPGSV,2,1,07,07,33,317,46,08,73,179,48,09,49,279,49,16,37,042,45,1*6E
$GPGSV,2,2,07,23,53,221,46,26,15,062,40,27,65,059,48,,,,,1*51
$GAGSV,2,1,06,02,45,313,43,03,35,223,41,08,31,286,41,11,38,079,38,7*7D
$GAGSV,2,2,06,25,50,041,43,36,36,147,00,,,,,,,,,7*77
$GPRMC,063514.00,A,3046.9744283,N,10357.5037070,E,0.03,90.00,260319,0.0,E,D*00
$GPGGA,063514.00,3046.9744283,N,10357.5037070,E,4,24,1.0,532.107,M,-40.962,M,2.0,*61
$GPGSA,A,3,07,08,09,16,23,26,27,,,,,,2.8,1.5,2.3,1*21
$GAGSA,A,3,02,03,08,11,25,36,,,,,,,6.5,1.3,6.4,3*34
$GPGSV,2,1,07,07,33,317,46,08,73,179,48,09,49,279,49,16,37,042,45,1*6E
$GPGSV,2,2,07,23,53,221,46,26,15,062,40,27,65,059,48,,,,,1*51
$GAGSV,2,1,06,02,45,313,43,03,35,223,41,08,31,286,41,11,38,079,38,7*7D
$GAGSV,2,2,06,25,50,041,43,36,36,147,00,,,,,,,,,7*77
$GPRMC,063514.20,A,3046.9744282,N,10357.5037074,E,0.05,90.00,260319,0.0,E,D*01
$GPGGA,063514.20,3046.9744282,N,10357.5037074,E,4,24,1.0,532.104,M,-40.962,M,2.2,*67
$GPGSA,A,3,07,08,09,16,23,26,27,,,,,,2.8,1.5,2.3,1*21
$GAGSA,A,3,02,03,08,11,25,36,,,,,,,6.5,1.3,6.4,3*34
$GPGSV,2,1,07,07,33,317,46,08,73,179,48,09,49,279,49,16,37,042,45,1*6E
$GPGSV,2,2,07,23,53,221,46,26,15,062,40,27,65,059,48,,,,,1*51
$GAGSV,2,1,06,02,45,313,43,03,35,223,41,08,31,286,41,11,38,079,38,7*7D
$GAGSV,2,2,06,25,50,041,43,36,36,147,00,,,,,,,,,7*77
$GPRMC,063514.40,A,3046.9744284,N,10357.5037075,E,0.04,90.00,260319,0.0,E,D*01
$GPGGA,063514.40,3046.9744284,N,10357.5037075,E,4,24,1.0,532.102,M,-40.962,M,2.4,*66
$GPGSA,A,3,07,08,09,16,23,26,27,,,,,,2.8,1.5,2.3,1*21
$GAGSA,A,3,02,03,08,11,25,36,,,,,,,6.5,1.3,6.4,3*34
$GPGSV,2,1,07,07,33,317,46,08,73,179,48,09,49,279,49,16,37,042,45,1*6E
$GPGSV,2,2,07,23,53,221,46,26,15,062,40,27,65,059,48,,,,,1*51
$GAGSV,2,1,06,02,45,313,43,03,35,223,41,08,31,286,41,11,38,079,38,7*7D
$GAGSV,2,2,06,25,50,041,43,36,36,147,00,,,,,,,,,7*77
$GPRMC,063514.60,A,3046.9744281,N,10357.5037070,E,0.02,90.00,260319,0.0,E,D*05
$GPGGA,063514.60,3046.9744281,N,10357.5037070,E,4,24,1.0,532.103,M,-40.962,M,2.6,*67
$GPGSA,A,3,07,08,09,16,23,26,27,,,,,,2.8,1.5,2.3,1*21
$GAGSA,A,3,02,03,08,11,25,36,,,,,,,6.5,1.3,6.4,3*34
$GPGSV,2,1,07,07,33,317,46,08,73,179,48,09,49,279,49,16,37,042,45,1*6E
$GPGSV,2,2,07,23,53,221,46,26,15,062,40,27,65,059,48,,,,,1*51
$GAGSV,2,1,06,02,45,313,43,03,35,223,41,08,31,286,41,11,38,079,38,7*7D
$GAGSV,2,2,06,25,50,041,43,36,36,147,00,,,,,,,,,7*77
$GPRMC,063514.80,A,3046.9744287,N,10357.5037068,E,0.07,90.00,260319,0.0,E,D*01
$GPGGA,063514.80,3046.9744287,N,10357.5037068,E,4,24,1.0,532.104,M,-40.962,M,2.8,*6F
$GPGSA,A,3,07,08,09,16,23,26,27,,,,,,2.8,1.5,2.3,1*21
$GAGSA,A,3,02,03,08,11,25,36,,,,,,,6.5,1.3,6.4,3*34
$GPGSV,2,1,07,07,33,317,46,08,73,179,48,09,49,279,49,16,37,042,45,1*6E
$GPGSV,2,2,07,23,53,221,46,26,15,062,40,27,65,059,48,,,,,1*51
$GAGSV,2,1,06,02,45,313,43,03,35,223,41,08,31,286,41,11,38,079,38,7*7D
$GAGSV,2,2,06,25,50,041,43,36,36,147,00,,,,,,,,,7*77
$GPRMC,063515.00,A,3046.9744285,N,10357.5037066,E,0.05,90.00,260319,0.0,E,D*06
$GPGGA,063515.00,3046.9744285,N,10357.5037066,E,4,24,1.0,532.104,M,-40.962,M,3.0,*63
$GPGSA,A,3,07,08,09,16,23,26,27,,,,,,2.8,1.5,2.3,1*21
$GAGSA,A,3,02,03,08,11,25,36,,,,,,,6.5,1.3,6.4,3*34
$GPGSV,2,1,07,07,33,317,46,08,73,179,48,09,49,279,49,16,37,042,45,1*6E
$GPGSV,2,2,07,23,53,221,46,26,15,062,40,27,65,059,48,,,,,1*51
$GAGSV,2,1,06,02,45,313,43,03,35,223,41,08,31,286,41,11,38,079,38,7*7D
$GAGSV,2,2,06,25,50,041,43,36,36,147,00,,,,,,,,,7*77
$GPRMC,063515.20,A,3046.9744279,N,10357.5037061,E,0.09,90.00,260319,0.0,E,D*0C
$GPGGA,063515.20,3046.9744279,N,10357.5037061,E,4,24,1.0,532.109,M,-40.962,M,1.2,*68
$GPGSA,A,3,07,08,09,16,23,26,27,,,,,,2.8,1.5,2.3,1*21
$GAGSA,A,3,02,03,08,11,25,36,,,,,,,6.5,1.3,6.4,3*34
$GPGSV,2,1,07,07,33,317,46,08,73,179,48,09,49,279,49,16,37,042,45,1*6E
$GPGSV,2,2,07,23,53,221,46,26,15,062,40,27,65,059,48,,,,,1*51
$GAGSV,2,1,06,02,45,313,43,03,35,223,41,08,31,286,41,11,38,079,38,7*7D
$GAGSV,2,2,06,25,50,041,43,36,36,147,00,,,,,,,,,7*77
$GPRMC,063515.40,A,3046.9744282,N,10357.5037070,E,0.12,90.00,260319,0.0,E,D*04
$GPGGA,063515.40,3046.9744282,N,10357.5037070,E,4,24,1.0,532.111,M,-40.962,M,1.4,*65
$GPGSA,A,3,07,08,09,16,23,26,27,,,,,,2.8,1.5,2.3,1*21
$GAGSA,A,3,02,03,08,11,25,36,,,,,,,6.5,1.3,6.4,3*34
$GPGSV,2,1,07,07,33,317,46,08,73,179,48,09,49,279,49,16,37,042,45,1*6E
$GPGSV,2,2,07,23,53,221,46,26,15,062,40,27,65,059,48,,,,,1*51
$GAGSV,2,1,06,02,45,313,43,03,35,223,41,08,31,286,41,11,38,079,38,7*7D
$GAGSV,2,2,06,25,50,041,43,36,36,147,00,,,,,,,,,7*77
$GPRMC,063515.60,A,3046.9744279,N,10357.5037075,E,0.04,90.00,260319,0.0,E,D*00
$GPGGA,063515.60,3046.9744279,N,10357.5037075,E,4,24,1.0,532.110,M,-40.962,M,1.6,*65
$GPGSA,A,3,07,08,09,16,23,26,27,,,,,,2.8,1.5,2.3,1*21
$GAGSA,A,3,02,03,08,11,25,36,,,,,,,6.5,1.3,6.4,3*34
$GPGSV,2,1,07,07,33,317,46,08,73,179,48,09,49,279,49,16,37,042,45,1*6E
$GPGSV,2,2,07,23,53,221,46,26,15,062,40,27,65,059,48,,,,,1*51
$GAGSV,2,1,06,02,45,313,43,03,35,223,41,08,31,286,41,11,38,079,38,7*7D
$GAGSV,2,2,06,25,50,041,43,36,36,147,00,,,,,,,,,7*77
$GPRMC,063515.80,A,3046.9744282,N,10357.5037070,E,0.14,90.00,260319,0.0,E,D*0E
$GPGGA,063515.80,3046.9744282,N,10357.5037070,E,4,24,1.0,532.111,M,-40.962,M,1.8,*65
$GPGSA,A,3,07,08,09,16,23,26,27,,,,,,2.8,1.5,2.3,1*21
$GAGSA,A,3,02,03,08,11,25,36,,,,,,,6.5,1.3,6.4,3*34
$GPGSV,2,1,07,07,33,317,46,08,73,179,48,09,49,279,49,16,37,042,45,1*6E
$GPGSV,2,2,07,23,53,221,46,26,15,062,40,27,65,059,48,,,,,1*51
$GAGSV,2,1,06,02,45,313,43,03,35,223,41,08,31,286,41,11,38,079,38,7*7D
$GAGSV,2,2,06,25,50,041,43,36,36,147,00,,,,,,,,,7*77
$GPRMC,063516.00,A,3046.9744287,N,10357.5037066,E,0.04,90.00,260319,0.0,E,D*06
$GPGGA,063516.00,3046.9744287,N,10357.5037066,E,4,24,1.0,532.110,M,-40.962,M,2.0,*66
$GPGSA,A,3,07,08,09,16,23,26,27,,,,,,2.8,1.5,2.3,1*21
$GAGSA,A,3,02,03,08,11,25,36,,,,,,,6.5,1.3,6.4,3*34
$GPGSV,2,1,07,07,33,317,46,08,73,179,48,09,49,279,49,16,37,042,45,1*6E
$GPGSV,2,2,07,23,53,221,46,26,15,062,40,27,65,059,48,,,,,1*51
$GAGSV,2,1,06,02,45,313,43,03,35,223,41,08,31,286,41,11,38,079,38,7*7D
$GAGSV,2,2,06,25,50,041,43,36,36,147,00,,,,,,,,,7*77
$GPRMC,063516.20,A,3046.9744289,N,10357.5037068,E,0.03,90.00,260319,0.0,E,D*03
$GPGGA,063516.20,3046.9744289,N,10357.5037068,E,4,24,1.0,532.109,M,-40.962,M,2.2,*6E
$GPGSA,A,3,07,08,09,16,23,26,27,,,,,,2.8,1.5,2.3,1*21
$GAGSA,A,3,02,03,08,11,25,36,,,,,,,6.5,1.3,6.4,3*34
$GPGSV,2,1,07,07,33,317,46,08,73,179,48,09,49,279,49,16,37,042,45,1*6E
$GPGSV,2,2,07,23,53,221,46,26,15,062,40,27,65,059,48,,,,,1*51
$GAGSV,2,1,06,02,45,313,43,03,35,223,41,08,31,286,41,11,38,079,38,7*7D
$GAGSV,2,2,06,25,50,041,43,36,36,147,00,,,,,,,,,7*77
$GPRMC,063516.40,A,3046.9744286,N,10357.5037065,E,0.11,90.00,260319,0.0,E,D*04
$GPGGA,063516.40,3046.9744286,N,10357.5037065,E,4,24,1.0,532.109,M,-40.962,M,2.4,*6C
$GPGSA,A,3,07,08,09,16,23,26,27,,,,,,2.8,1.5,2.3,1*21
$GAGSA,A,3,02,03,08,11,25,36,,,,,,,6.5,1.3,6.4,3*34
$GPGSV,2,1,07,07,33,317,46,08,73,179,48,09,49,279,49,16,37,042,45,1*6E
$GPGSV,2,2,07,23,53,221,46,26,15,062,40,27,65,059,48,,,,,1*51
$GAGSV,2,1,06,02,45,313,43,03,35,223,41,08,31,286,41,11,38,079,38,7*7D
$GAGSV,2,2,06,25,50,041,43,36,36,147,00,,,,,,,,,7*77
$GPRMC,063516.60,A,3046.9744279,N,10357.5037072,E,0.05,90.00,260319,0.0,E,D*05
$GPGGA,063516.60,3046.9744279,N,10357.5037072,E,4,24,1.0,532.108,M,-40.962,M,2.6,*6B
$GPGSA,A,3,07,08,09,16,23,26,27,,,,,,2.8,1.5,2.3,1*21
$GAGSA,A,3,02,03,08,11,25,36,,,,,,,6.5,1.3,6.4,3*34
$GPGSV,2,1,07,07,33,317,46,08,73,179,48,09,49,279,49,16,37,042,45,1*6E
$GPGSV,2,2,07,23,53,221,46,26,15,062,40,27,65,059,48,,,,,1*51
$GAGSV,2,1,06,02,45,313,43,03,35,223,41,08,31,286,41,11,38,079,38,7*7D
$GAGSV,2,2,06,25,50,041,43,36,36,147,00,,,,,,,,,7*77
$GPRMC,063516.80,A,3046.9744278,N,10357.5037072,E,0.02,90.00,260319,0.0,E,D*0D
$GPGGA,063516.80,3046.9744278,N,10357.5037072,E,4,23,1.0,532.108,M,-40.962,M,2.8,*6D
$GPGSA,A,3,07,08,09,16,23,27,,,,,,,5.6,2.2,5.1,1*2D
$GAGSA,A,3,02,03,08,11,25,36,,,,,,,6.5,1.3,6.4,3*34
$GPGSV,2,1,06,07,33,317,46,08,73,179,48,09,49,279,49,16,37,042,45,1*6F
$GPGSV,2,2,06,23,53,221,46,27,65,059,48,,,,,,,,,1*60
$GAGSV,2,1,06,02,45,313,43,03,35,223,41,08,31,286,41,11,38,079,38,7*7D
$GAGSV,2,2,06,25,50,041,43,36,36,147,00,,,,,,,,,7*77
$GPRMC,063517.00,A,3046.9744283,N,10357.5037073,E,0.04,90.00,260319,0.0,E,D*07
$GPGGA,063517.00,3046.9744283,N,10357.5037073,E,4,23,1.0,532.109,M,-40.962,M,3.0,*69
$GPGSA,A,3,07,08,09,16,23,27,,,,,,,5.6,2.2,5.1,1*2D
$GAGSA,A,3,02,03,08,11,25,36,,,,,,,6.5,1.3,6.4,3*34
$GPGSV,2,1,06,07,33,317,46,08,73,179,48,09,49,279,49,16,37,042,45,1*6F
$GPGSV,2,2,06,23,53,221,46,27,65,059,48,,,,,,,,,1*60
$GAGSV,2,1,06,02,45,313,43,03,35,223,41,08,31,286,41,11,38,079,38,7*7D
$GAGSV,2,2,06,25,50,041,43,36,36,147,00,,,,,,,,,7*77
$GPRMC,063517.20,A,3046.9744271,N,10357.5037072,E,0.02,90.00,260319,0.0,E,D*0F
$GPGGA,063517.20,3046.9744271,N,10357.5037072,E,4,23,1.0,532.110,M,-40.962,M,1.2,*6F
$GPGSA,A,3,07,08,09,16,23,27,,,,,,,5.6,2.2,5.1,1*2D
$GAGSA,A,3,02,03,08,11,25,36,,,,,,,6.5,1.3,6.4,3*34
$GPGSV,2,1,06,07,33,317,46,08,73,179,48,09,49,279,49,16,37,042,45,1*6F
$GPGSV,2,2,06,23,53,221,46,27,65,059,48,,,,,,,,,1*60
$GAGSV,2,1,06,02,45,313,43,03,35,223,41,08,31,286,41,11,38,079,38,7*7D
$GAGSV,2,2,06,25,50,041,43,36,36,147,00,,,,,,,,,7*77
$GPRMC,063517.40,A,3046.9744272,N,10357.5037073,E,0.02,90.00,260319,0.0,E,D*0B
$GPGGA,063517.40,3046.9744272,N,10357.5037073,E,4,23,1.0,532.112,M,-40.962,M,1.4,*6F
$GPGSA,A,3,07,08,09,16,23,27,,,,,,,5.6,2.2,5.1,1*2D
$GAGSA,A,3,02,03,08,11,25,36,,,,,,,6.5,1.3,6.4,3*34
$GPGSV,2,1,06,07,33,317,46,08,73,179,48,09,49,279,49,16,37,042,45,1*6F
$GPGSV,2,2,06,23,53,221,46,27,65,059,48,,,,,,,,,1*60
$GAGSV,2,1,06,02,45,313,43,03,35,223,41,08,31,286,40,11,38,079,38,7*7C
$GAGSV,2,2,06,25,50,041,43,36,36,147,00,,,,,,,,,7*77
$GPRMC,063517.60,A,3046.9744272,N,10357.5037073,E,0.10,90.00,260319,0.0,E,D*0A
$GPGGA,063517.60,3046.9744272,N,10357.5037073,E,4,23,1.0,532.113,M,-40.962,M,1.6,*6E
$GPGSA,A,3,07,08,09,16,23,27,,,,,,,5.6,2.2,5.1,1*2D
$GAGSA,A,3,02,03,08,11,25,36,,,,,,,6.5,1.3,6.4,3*34
$GPGSV,2,1,06,07,33,317,46,08,73,179,48,09,49,279,49,16,37,042,45,1*6F
$GPGSV,2,2,06,23,53,221,46,27,65,059,48,,,,,,,,,1*60
$GAGSV,2,1,06,02,45,314,43,03,35,223,41,08,31,286,41,11,38,079,38,7*7A
$GAGSV,2,2,06,25,50,041,43,36,36,147,00,,,,,,,,,7*77
$GPRMC,063517.80,A,3046.9744269,N,10357.5037078,E,0.07,90.00,260319,0.0,E,D*03
$GPGGA,063517.80,3046.9744269,N,10357.5037078,E,4,23,1.0,532.112,M,-40.962,M,1.8,*6E
$GPGSA,A,3,07,08,09,16,23,27,,,,,,,5.6,2.2,5.1,1*2D
$GAGSA,A,3,02,03,08,11,25,36,,,,,,,6.5,1.3,6.4,3*34
$GPGSV,2,1,06,07,33,317,46,08,73,179,48,09,49,279,49,16,37,042,45,1*6F
$GPGSV,2,2,06,23,53,221,46,27,65,059,48,,,,,,,,,1*60
$GAGSV,2,1,06,02,45,314,43,03,35,223,42,08,31,286,41,11,38,079,38,7*79
$GAGSV,2,2,06,25,50,041,43,36,36,147,00,,,,,,,,,7*77
$GPRMC,063518.00,A,3046.9744260,N,10357.5037086,E,0.04,90.00,260319,0.0,E,D*0F
$GPGGA,063518.00,3046.9744260,N,10357.5037086,E,4,23,1.0,532.109,M,-40.962,M,2.0,*60
$GPGSA,A,3,07,08,09,16,23,27,,,,,,,5.6,2.2,5.1,1*2D
$GAGSA,A,3,02,03,08,11,25,36,,,,,,,6.5,1.3,6.4,3*34
$GPGSV,2,1,06,07,33,317,46,08,73,179,48,09,49,279,49,16,37,042,45,1*6F
$GPGSV,2,2,06,23,53,221,46,27,65,059,48,,,,,,,,,1*60
$GAGSV,2,1,06,02,45,314,43,03,35,223,42,08,31,286,41,11,38,079,38,7*79
$GAGSV,2,2,06,25,50,041,43,36,36,147,00,,,,,,,,,7*77
$GPRMC,063518.20,A,3046.9744261,N,10357.5037081,E,0.06,90.00,260319,0.0,E,D*09
$GPGGA,063518.20,3046.9744261,N,10357.5037081,E,4,23,1.0,532.107,M,-40.962,M,2.2,*68
$GPGSA,A,3,07,08,09,16,23,27,,,,,,,5.6,2.2,5.1,1*2D
$GAGSA,A,3,02,03,08,11,25,36,,,,,,,6.5,1.3,6.4,3*34
$GPGSV,2,1,06,07,33,317,46,08,73,179,48,09,49,279,49,16,37,042,45,1*6F
$GPGSV,2,2,06,23,53,221,46,27,65,059,48,,,,,,,,,1*60
$GAGSV,2,1,06,02,45,314,43,03,35,223,42,08,31,286,41,11,38,079,38,7*79
$GAGSV,2,2,06,25,50,041,43,36,36,147,00,,,,,,,,,7*77
$GPRMC,063518.40,A,3046.9744269,N,10357.5037075,E,0.06,90.00,260319,0.0,E,D*0C
$GPGGA,063518.40,3046.9744269,N,10357.5037075,E,4,23,1.0,532.107,M,-40.962,M,2.4,*6B
$GPGSA,A,3,07,08,09,16,23,27,,,,,,,5.6,2.2,5.1,1*2D
$GAGSA,A,3,02,03,08,11,25,36,,,,,,,6.5,1.3,6.4,3*34
$GPGSV,2,1,06,07,33,317,46,08,73,179,48,09,49,279,49,16,37,042,45,1*6F
$GPGSV,2,2,06,23,53,221,46,27,65,059,48,,,,,,,,,1*60
$GAGSV,2,1,06,02,45,314,43,03,35,223,42,08,31,286,41,11,38,079,38,7*79
$GAGSV,2,2,06,25,50,041,43,36,36,147,00,,,,,,,,,7*77
$GPRMC,063518.60,A,3046.9744268,N,10357.5037075,E,0.02,90.00,260319,0.0,E,D*0B
$GPGGA,063518.60,3046.9744268,N,10357.5037075,E,4,23,1.0,532.107,M,-40.962,M,2.6,*6A
$GPGSA,A,3,07,08,09,16,23,27,,,,,,,5.6,2.2,5.1,1*2D
$GAGSA,A,3,02,03,08,11,25,36,,,,,,,6.5,1.3,6.4,3*34
$GPGSV,2,1,06,07,33,317,46,08,73,179,48,09,49,279,49,16,37,042,45,1*6F
$GPGSV,2,2,06,23,53,221,46,27,65,059,48,,,,,,,,,1*60
$GAGSV,2,1,06,02,45,314,43,03,35,223,42,08,31,286,40,11,38,079,38,7*78
$GAGSV,2,2,06,25,50,041,43,36,36,147,00,,,,,,,,,7*77
$GPRMC,063518.80,A,3046.9744265,N,10357.5037064,E,0.10,90.00,260319,0.0,E,D*0B
$GPGGA,063518.80,3046.9744265,N,10357.5037064,E,4,23,1.0,532.109,M,-40.962,M,2.8,*69
$GPGSA,A,3,07,08,09,16,23,27,,,,,,,5.6,2.2,5.1,1*2D
$GAGSA,A,3,02,03,08,11,25,36,,,,,,,6.5,1.3,6.4,3*34
$GPGSV,2,1,06,07,33,317,46,08,73,179,48,09,49,279,49,16,37,042,45,1*6F
$GPGSV,2,2,06,23,53,221,46,27,65,059,48,,,,,,,,,1*60
$GAGSV,2,1,06,02,45,314,43,03,35,223,42,08,31,286,40,11,38,079,38,7*78
$GAGSV,2,2,06,25,50,041,42,36,36,147,00,,,,,,,,,7*76
$GPRMC,063519.00,A,3046.9744263,N,10357.5037075,E,0.09,90.00,260319,0.0,E,D*0C
$GPGGA,063519.00,3046.9744263,N,10357.5037075,E,4,23,1.0,532.109,M,-40.962,M,3.0,*6F
$GPGSA,A,3,07,08,09,16,23,27,,,,,,,5.6,2.2,5.1,1*2D
$GAGSA,A,3,02,03,08,11,25,36,,,,,,,6.5,1.3,6.4,3*34
$GPGSV,2,1,06,07,33,317,46,08,73,179,48,09,49,279,49,16,37,042,45,1*6F
$GPGSV,2,2,06,23,53,221,46,27,65,059,48,,,,,,,,,1*60
$GAGSV,2,1,06,02,45,314,43,03,35,223,42,08,31,286,40,11,38,079,38,7*78
$GAGSV,2,2,06,25,50,041,42,36,36,147,00,,,,,,,,,7*76
$GPRMC,063519.20,A,3046.9744277,N,10357.5037072,E,0.11,90.00,260319,0.0,E,D*05
$GPGGA,063519.20,3046.9744277,N,10357.5037072,E,4,23,1.0,532.110,M,-40.962,M,1.2,*67
$GPGSA,A,3,07,08,09,16,23,27,,,,,,,5.6,2.2,5.1,1*2D
$GAGSA,A,3,02,03,08,11,25,36,,,,,,,6.5,1.3,6.4,3*34
$GPGSV,2,1,06,07,33,317,46,08,73,179,48,09,49,279,49,16,37,042,45,1*6F
$GPGSV,2,2,06,23,53,221,46,27,65,059,48,,,,,,,,,1*60
$GAGSV,2,1,06,02,45,314,43,03,35,223,41,08,31,286,40,11,38,079,38,7*7B
$GAGSV,2,2,06,25,50,041,42,36,36,147,00,,,,,,,,,7*76
$GPRMC,063519.40,A,3046.9744278,N,10357.5037071,E,0.04,90.00,260319,0.0,E,D*0B
$GPGGA,063519.40,3046.9744278,N,10357.5037071,E,4,23,1.0,532.112,M,-40.962,M,1.4,*69
$GPGSA,A,3,07,08,09,16,23,27,,,,,,,5.6,2.2,5.1,1*2D
$GAGSA,A,3,02,03,08,11,25,36,,,,,,,6.5,1.3,6.4,3*34
$GPGSV,2,1,06,07,33,317,46,08,73,179,48,09,49,279,49,16,37,042,45,1*6F
$GPGSV,2,2,06,23,53,221,46,27,65,059,48,,,,,,,,,1*60
$GAGSV,2,1,06,02,45,314,43,03,35,223,41,08,31,286,40,11,38,079,38,7*7B
$GAGSV,2,2,06,25,50,041,42,36,36,147,00,,,,,,,,,7*76
$GPRMC,063519.60,A,3046.9744272,N,10357.5037072,E,0.03,90.00,260319,0.0,E,D*07
$GPGGA,063519.60,3046.9744272,N,10357.5037072,E,4,23,1.0,532.112,M,-40.962,M,1.6,*60
$GPGSA,A,3,07,08,09,16,23,27,,,,,,,5.6,2.2,5.1,1*2D
$GAGSA,A,3,02,03,08,11,25,36,,,,,,,6.5,1.3,6.4,3*34
$GPGSV,2,1,06,07,33,317,46,08,73,179,48,09,49,279,49,16,37,042,45,1*6F
$GPGSV,2,2,06,23,53,221,46,27,65,059,48,,,,,,,,,1*60
$GAGSV,2,1,06,02,45,314,43,03,35,223,41,08,31,286,40,11,38,079,38,7*7B
$GAGSV,2,2,06,25,50,041,42,36,36,147,00,,,,,,,,,7*76
$GPRMC,063519.80,A,3046.9744273,N,10357.5037069,E,0.04,90.00,260319,0.0,E,D*05
$GPGGA,063519.80,3046.9744273,N,10357.5037069,E,4,23,1.0,532.111,M,-40.962,M,1.8,*68
$GPGSA,A,3,07,08,09,16,23,27,,,,,,,5.6,2.2,5.1,1*2D
$GAGSA,A,3,02,03,08,11,25,36,,,,,,,6.5,1.3,6.4,3*34
$GPGSV,2,1,06,07,33,317,46,08,73,179,48,09,49,279,49,16,37,042,45,1*6F
$GPGSV,2,2,06,23,53,221,46,27,65,059,48,,,,,,,,,1*60
$GAGSV,2,1,06,02,45,314,43,03,35,223,42,08,31,286,40,11,38,079,38,7*78
$GAGSV,2,2,06,25,50,041,42,36,36,147,00,,,,,,,,,7*76
$GPRMC,063520.00,A,3046.9744272,N,10357.5037070,E,0.09,90.00,260319,0.0,E,D*03
$GPGGA,063520.00,3046.9744272,N,10357.5037070,E,4,23,1.0,532.110,M,-40.962,M,2.0,*69
$GPGSA,A,3,07,08,09,16,23,27,,,,,,,5.6,2.2,5.1,1*2D
$GAGSA,A,3,02,03,08,11,25,36,,,,,,,6.5,1.3,6.4,3*34
$GPGSV,2,1,06,07,33,317,46,08,73,179,48,09,49,279,49,16,37,042,45,1*6F
$GPGSV,2,2,06,23,53,221,46,27,65,059,48,,,,,,,,,1*60
$GAGSV,2,1,06,02,45,314,43,03,35,223,42,08,31,286,40,11,38,079,38,7*78
$GAGSV,2,2,06,25,50,041,42,36,36,147,00,,,,,,,,,7*76
$GPRMC,063520.20,A,3046.9744276,N,10357.5037071,E,0.05,90.00,260319,0.0,E,D*08
$GPGGA,063520.20,3046.9744276,N,10357.5037071,E,4,23,1.0,532.110,M,-40.962,M,2.2,*6C
$GPGSA,A,3,07,08,09,16,23,27,,,,,,,5.6,2.2,5.1,1*2D
$GAGSA,A,3,02,03,08,11,25,36,,,,,,,6.5,1.3,6.4,3*34
$GPGSV,2,1,06,07,33,317,46,08,73,179,48,09,49,279,49,16,37,042,45,1*6F
$GPGSV,2,2,06,23,53,221,46,27,65,059,48,,,,,,,,,1*60
$GAGSV,2,1,06,02,45,314,43,03,35,223,42,08,31,286,40,11,38,079,38,7*78
$GAGSV,2,2,06,25,50,041,42,36,36,147,00,,,,,,,,,7*76
$GPRMC,063520.40,A,3046.9744277,N,10357.5037073,E,0.05,90.00,260319,0.0,E,D*0D
$GPGGA,063520.40,3046.9744277,N,10357.5037073,E,4,23,1.0,532.111,M,-40.962,M,2.4,*6E
$GPGSA,A,3,07,08,09,16,23,27,,,,,,,5.6,2.2,5.1,1*2D
$GAGSA,A,3,02,03,08,11,25,36,,,,,,,6.5,1.3,6.4,3*34
$GPGSV,2,1,06,07,33,317,46,08,73,179,48,09,49,279,49,16,37,042,45,1*6F
$GPGSV,2,2,06,23,53,221,46,27,65,059,48,,,,,,,,,1*60
$GAGSV,2,1,06,02,45,314,43,03,35,223,42,08,31,286,40,11,38,079,38,7*78
$GAGSV,2,2,06,25,50,041,43,36,36,147,00,,,,,,,,,7*77
$GPRMC,063520.60,A,3046.9744267,N,10357.5037071,E,0.07,90.00,260319,0.0,E,D*0E
$GPGGA,063520.60,3046.9744267,N,10357.5037071,E,4,23,1.0,532.110,M,-40.962,M,2.6,*6C
$GPGSA,A,3,07,08,09,16,23,27,,,,,,,5.6,2.2,5.1,1*2D
$GAGSA,A,3,02,03,08,11,25,36,,,,,,,6.5,1.3,6.4,3*34
$GPGSV,2,1,06,07,33,317,46,08,73,179,48,09,49,279,49,16,37,042,45,1*6F
$GPGSV,2,2,06,23,53,221,46,27,65,059,48,,,,,,,,,1*60
$GAGSV,2,1,06,02,45,314,43,03,35,223,42,08,31,286,40,11,38,079,38,7*78
$GAGSV,2,2,06,25,50,041,42,36,36,147,00,,,,,,,,,7*76
$GPRMC,063520.80,A,3046.9744268,N,10357.5037071,E,0.08,90.00,260319,0.0,E,D*00
$GPGGA,063520.80,3046.9744268,N,10357.5037071,E,4,23,1.0,532.108,M,-40.962,M,2.8,*6A
$GPGSA,A,3,07,08,09,16,23,27,,,,,,,5.6,2.2,5.1,1*2D
$GAGSA,A,3,02,03,08,11,25,36,,,,,,,6.5,1.3,6.4,3*34
$GPGSV,2,1,06,07,33,317,46,08,73,179,48,09,49,279,48,16,37,042,45,1*6E
$GPGSV,2,2,06,23,53,221,46,27,65,059,48,,,,,,,,,1*60
$GAGSV,2,1,06,02,45,314,43,03,35,223,42,08,31,286,40,11,38,079,38,7*78
$GAGSV,2,2,06,25,50,041,43,36,36,147,00,,,,,,,,,7*77
$GPRMC,063521.00,A,3046.9744274,N,10357.5037068,E,0.13,90.00,260319,0.0,E,D*06
$GPGGA,063521.00,3046.9744274,N,10357.5037068,E,4,23,1.0,532.107,M,-40.962,M,3.0,*60
$GPGSA,A,3,07,08,09,16,23,27,,,,,,,5.6,2.2,5.1,1*2D
$GAGSA,A,3,02,03,08,11,25,36,,,,,,,6.5,1.3,6.4,3*34
$GPGSV,2,1,06,07,33,317,46,08,73,179,48,09,49,279,48,16,37,042,45,1*6E
$GPGSV,2,2,06,23,53,221,46,27,65,059,48,,,,,,,,,1*60
$GAGSV,2,1,06,02,45,314,43,03,35,223,42,08,31,286,40,11,38,079,38,7*78
$GAGSV,2,2,06,25,50,041,43,36,36,147,00,,,,,,,,,7*77
$GPRMC,063521.20,A,3046.9744276,N,10357.5037073,E,0.02,90.00,260319,0.0,E,D*0C
$GPGGA,063521.20,3046.9744276,N,10357.5037073,E,4,23,1.0,532.111,M,-40.962,M,1.2,*6D
$GPGSA,A,3,07,08,09,16,23,27,,,,,,,5.6,2.2,5.1,1*2D
$GAGSA,A,3,02,03,08,11,25,36,,,,,,,6.5,1.3,6.4,3*34
$GPGSV,2,1,06,07,33,317,47,08,73,179,48,09,49,279,48,16,37,042,45,1*6F
$GPGSV,2,2,06,23,53,221,46,27,65,059,48,,,,,,,,,1*60
$GAGSV,2,1,06,02,45,314,43,03,35,223,42,08,31,286,40,11,38,079,38,7*78
$GAGSV,2,2,06,25,50,041,43,36,36,147,00,,,,,,,,,7*77
$GPRMC,063521.40,A,3046.9744279,N,10357.5037085,E,0.02,90.00,260319,0.0,E,D*0C
$GPGGA,063521.40,3046.9744279,N,10357.5037085,E,4,23,1.0,532.112,M,-40.962,M,1.4,*68
$GPGSA,A,3,07,08,09,16,23,27,,,,,,,5.6,2.2,5.1,1*2D
$GAGSA,A,3,02,03,08,11,25,36,,,,,,,6.5,1.3,6.4,3*34
$GPGSV,2,1,06,07,33,317,47,08,73,179,48,09,49,279,48,16,37,042,44,1*6E
$GPGSV,2,2,06,23,53,221,46,27,65,059,48,,,,,,,,,1*60
$GAGSV,2,1,06,02,45,314,43,03,35,223,42,08,31,286,40,11,38,079,38,7*78
$GAGSV,2,2,06,25,50,041,43,36,36,147,00,,,,,,,,,7*77
$GPRMC,063521.60,A,3046.9744276,N,10357.5037080,E,0.03,90.00,260319,0.0,E,D*05
$GPGGA,063521.60,3046.9744276,N,10357.5037080,E,4,23,1.0,532.111,M,-40.962,M,1.6,*61
$GPGSA,A,3,07,08,09,16,23,27,,,,,,,5.6,2.2,5.1,1*2D
$GAGSA,A,3,02,03,08,11,25,36,,,,,,,6.5,1.3,6.4,3*34
$GPGSV,2,1,06,07,33,317,47,08,73,179,48,09,49,279,48,16,37,042,44,1*6E
$GPGSV,2,2,06,23,53,221,46,27,65,059,48,,,,,,,,,1*60
$GAGSV,2,1,06,02,45,314,43,03,35,223,42,08,31,286,40,11,38,079,38,7*78
$GAGSV,2,2,06,25,50,041,42,36,36,147,00,,,,,,,,,7*76
$GPRMC,063521.80,A,3046.9744273,N,10357.5037086,E,0.03,90.00,260319,0.0,E,D*08
$GPGGA,063521.80,3046.9744273,N,10357.5037086,E,4,23,1.0,532.109,M,-40.962,M,1.8,*6B
$GPGSA,A,3,07,08,09,16,23,27,,,,,,,5.5,2.2,5.1,1*2E
$GAGSA,A,3,02,03,08,11,25,36,,,,,,,6.5,1.3,6.4,3*34
$GPGSV,2,1,06,07,33,317,47,08,73,179,48,09,49,279,48,16,37,042,45,1*6F
$GPGSV,2,2,06,23,53,221,46,27,65,059,48,,,,,,,,,1*60
$GAGSV,2,1,06,02,45,314,43,03,35,223,42,08,31,286,40,11,38,079,38,7*78
$GAGSV,2,2,06,25,50,041,42,36,36,147,00,,,,,,,,,7*76
$GPRMC,063522.00,A,3046.9744277,N,10357.5037085,E,0.02,90.00,260319,0.0,E,D*05
$GPGGA,063522.00,3046.9744277,N,10357.5037085,E,4,23,1.0,532.110,M,-40.962,M,2.0,*64
$GPGSA,A,3,07,08,09,16,23,27,,,,,,,5.5,2.2,5.1,1*2E
$GAGSA,A,3,02,03,08,11,25,36,,,,,,,6.5,1.3,6.4,3*34
$GPGSV,2,1,06,07,33,317,47,08,73,179,48,09,49,279,48,16,37,042,44,1*6E
$GPGSV,2,2,06,23,53,221,46,27,65,059,48,,,,,,,,,1*60
$GAGSV,2,1,06,02,45,314,43,03,35,223,42,08,31,286,40,11,38,079,38,7*78
$GAGSV,2,2,06,25,50,041,42,36,36,147,00,,,,,,,,,7*76
$GPRMC,063522.20,A,3046.9744273,N,10357.5037080,E,0.05,90.00,260319,0.0,E,D*01
$GPGGA,063522.20,3046.9744273,N,10357.5037080,E,4,23,1.0,532.109,M,-40.962,M,2.2,*6D
$GPGSA,A,3,07,08,09,16,23,27,,,,,,,5.5,2.2,5.1,1*2E
$GAGSA,A,3,02,03,08,11,25,36,,,,,,,6.5,1.3,6.4,3*34
$GPGSV,2,1,06,07,33,317,47,08,73,179,48,09,49,279,48,16,37,042,44,1*6E
$GPGSV,2,2,06,23,53,221,46,27,65,059,48,,,,,,,,,1*60
$GAGSV,2,1,06,02,45,314,43,03,35,223,42,08,31,286,40,11,38,079,38,7*78
$GAGSV,2,2,06,25,50,041,43,36,36,147,00,,,,,,,,,7*77
$GPRMC,063522.40,A,3046.9744266,N,10357.5037084,E,0.08,90.00,260319,0.0,E,D*0A
$GPGGA,063522.40,3046.9744266,N,10357.5037084,E,4,23,1.0,532.108,M,-40.962,M,2.4,*6C
$GPGSA,A,3,07,08,09,16,23,27,,,,,,,5.5,2.2,5.1,1*2E
$GAGSA,A,3,02,03,08,11,25,36,,,,,,,6.5,1.3,6.4,3*34
$GPGSV,2,1,06,07,33,317,47,08,73,179,48,09,49,279,48,16,37,042,44,1*6E
$GPGSV,2,2,06,23,53,221,46,27,65,059,48,,,,,,,,,1*60
$GAGSV,2,1,06,02,45,314,43,03,35,223,42,08,31,286,40,11,38,079,38,7*78
$GAGSV,2,2,06,25,50,041,43,36,36,147,00,,,,,,,,,7*77
$GPRMC,063522.60,A,3046.9744267,N,10357.5037088,E,0.05,90.00,260319,0.0,E,D*08
$GPGGA,063522.60,3046.9744267,N,10357.5037088,E,4,23,1.0,532.107,M,-40.962,M,2.6,*6E
$GPGSA,A,3,07,08,09,16,23,27,,,,,,,5.5,2.2,5.1,1*2E
$GAGSA,A,3,02,03,08,11,25,36,,,,,,,6.5,1.3,6.4,3*34
$GPGSV,2,1,06,07,33,317,47,08,73,179,48,09,49,279,48,16,37,042,44,1*6E
$GPGSV,2,2,06,23,53,221,45,27,65,059,48,,,,,,,,,1*63
$GAGSV,2,1,06,02,45,314,43,03,35,223,42,08,31,286,40,11,38,079,38,7*78
$GAGSV,2,2,06,25,50,041,43,36,36,147,00,,,,,,,,,7*77
$GPRMC,063522.80,A,3046.9744276,N,10357.5037084,E,0.13,90.00,260319,0.0,E,D*0D
$GPGGA,063522.80,3046.9744276,N,10357.5037084,E,4,23,1.0,532.105,M,-40.962,M,2.8,*60
$GPGSA,A,3,07,08,09,16,23,27,,,,,,,5.5,2.2,5.1,1*2E
$GAGSA,A,3,02,03,08,11,25,36,,,,,,,6.5,1.3,6.4,3*34
$GPGSV,2,1,06,07,33,317,47,08,73,179,48,09,49,279,48,16,37,042,44,1*6E
$GPGSV,2,2,06,23,53,221,45,27,65,059,48,,,,,,,,,1*63
$GAGSV,2,1,06,02,45,314,43,03,35,223,42,08,31,286,40,11,38,079,38,7*78
$GAGSV,2,2,06,25,50,041,43,36,36,147,00,,,,,,,,,7*77
$GPRMC,063523.00,A,3046.9744266,N,10357.5037086,E,0.05,90.00,260319,0.0,E,D*00
$GPGGA,063523.00,3046.9744266,N,10357.5037086,E,4,23,1.0,532.104,M,-40.962,M,3.0,*62
$GPGSA,A,3,07,08,09,16,23,27,,,,,,,5.5,2.2,5.1,1*2E
$GAGSA,A,3,02,03,08,11,25,36,,,,,,,6.5,1.3,6.4,3*34
$GPGSV,2,1,06,07,33,317,47,08,73,179,48,09,49,279,48,16,37,042,45,1*6F
$GPGSV,2,2,06,23,53,221,45,27,65,059,48,,,,,,,,,1*63
$GAGSV,2,1,06,02,45,314,43,03,35,223,42,08,31,286,40,11,38,079,38,7*78
$GAGSV,2,2,06,25,50,041,43,36,36,147,00,,,,,,,,,7*77
$GPRMC,063523.20,A,3046.9744271,N,10357.5037072,E,0.03,90.00,260319,0.0,E,D*09
$GPGGA,063523.20,3046.9744271,N,10357.5037072,E,4,23,1.0,532.110,M,-40.962,M,1.2,*68
$GPGSA,A,3,07,08,09,16,23,27,,,,,,,5.5,2.2,5.1,1*2E
$GAGSA,A,3,02,03,08,11,25,36,,,,,,,6.5,1.3,6.4,3*34
$GPGSV,2,1,06,07,33,317,47,08,73,179,48,09,49,279,48,16,37,042,45,1*6F
$GPGSV,2,2,06,23,53,221,45,27,65,059,48,,,,,,,,,1*63
$GAGSV,2,1,06,02,45,314,43,03,35,223,42,08,31,286,40,11,38,079,38,7*78
$GAGSV,2,2,06,25,50,041,43,36,36,147,00,,,,,,,,,7*77
$GPRMC,063523.40,A,3046.9744275,N,10357.5037067,E,0.08,90.00,260319,0.0,E,D*04
$GPGGA,063523.40,3046.9744275,N,10357.5037067,E,4,23,1.0,532.112,M,-40.962,M,1.4,*6A
$GPGSA,A,3,07,08,09,16,23,27,,,,,,,5.5,2.2,5.1,1*2E
$GAGSA,A,3,02,03,08,11,25,36,,,,,,,6.5,1.3,6.4,3*34
$GPGSV,2,1,06,07,33,317,47,08,73,179,48,09,49,279,48,16,37,042,45,1*6F
$GPGSV,2,2,06,23,53,221,45,27,65,059,48,,,,,,,,,1*63
$GAGSV,2,1,06,02,45,314,43,03,35,223,42,08,31,286,40,11,38,079,38,7*78
$GAGSV,2,2,06,25,50,041,43,36,36,147,00,,,,,,,,,7*77
$GPRMC,063523.60,A,3046.9744263,N,10357.5037079,E,0.03,90.00,260319,0.0,E,D*05
$GPGGA,063523.60,3046.9744263,N,10357.5037079,E,4,23,1.0,532.112,M,-40.962,M,1.6,*62
$GPGSA,A,3,07,08,09,16,23,27,,,,,,,5.5,2.2,5.1,1*2E
$GAGSA,A,3,02,03,08,11,25,36,,,,,,,6.5,1.3,6.4,3*34
$GPGSV,2,1,06,07,33,317,47,08,73,179,48,09,49,279,48,16,37,042,44,1*6E
$GPGSV,2,2,06,23,53,221,45,27,65,059,48,,,,,,,,,1*63
$GAGSV,2,1,06,02,45,314,43,03,35,223,42,08,31,286,40,11,38,079,38,7*78
$GAGSV,2,2,06,25,50,041,43,36,36,147,00,,,,,,,,,7*77
$GPRMC,063523.80,A,3046.9744264,N,10357.5037073,E,0.08,90.00,260319,0.0,E,D*0D
$GPGGA,063523.80,3046.9744264,N,10357.5037073,E,4,23,1.0,532.112,M,-40.962,M,1.8,*6F
$GPGSA,A,3,07,08,09,16,23,27,,,,,,,5.5,2.2,5.1,1*2E
$GAGSA,A,3,02,03,08,11,25,36,,,,,,,6.5,1.3,6.4,3*34
$GPGSV,2,1,06,07,33,317,47,08,73,179,48,09,49,279,48,16,37,042,44,1*6E
$GPGSV,2,2,06,23,53,221,45,27,65,059,48,,,,,,,,,1*63
$GAGSV,2,1,06,02,45,314,43,03,35,223,42,08,31,286,40,11,38,079,38,7*78
$GAGSV,2,2,06,25,50,041,43,36,36,147,00,,,,,,,,,7*77
$GPRMC,063524.00,A,3046.9744262,N,10357.5037079,E,0.05,90.00,260319,0.0,E,D*03
$GPGGA,063524.00,3046.9744262,N,10357.5037079,E,4,23,1.0,532.109,M,-40.962,M,2.0,*6D
$GPGSA,A,3,07,08,09,16,23,27,,,,,,,5.5,2.2,5.1,1*2E
$GAGSA,A,3,02,03,08,11,25,36,,,,,,,6.5,1.3,6.4,3*34
$GPGSV,2,1,06,07,33,317,47,08,73,179,48,09,49,279,48,16,37,042,44,1*6E
$GPGSV,2,2,06,23,53,221,45,27,65,059,48,,,,,,,,,1*63
$GAGSV,2,1,06,02,45,314,43,03,35,223,42,08,31,286,40,11,38,079,38,7*78
$GAGSV,2,2,06,25,50,041,43,36,36,147,00,,,,,,,,,7*77
$GPRMC,063524.20,A,3046.9744263,N,10357.5037081,E,0.11,90.00,260319,0.0,E,D*02
$GPGGA,063524.20,3046.9744263,N,10357.5037081,E,4,23,1.0,532.107,M,-40.962,M,2.2,*65
$GPGSA,A,3,07,08,09,16,23,27,,,,,,,5.5,2.2,5.1,1*2E
$GAGSA,A,3,02,03,08,11,25,36,,,,,,,6.5,1.3,6.4,3*34
$GPGSV,2,1,06,07,33,317,47,08,73,179,48,09,49,279,48,16,37,042,44,1*6E
$GPGSV,2,2,06,23,53,221,45,27,65,059,48,,,,,,,,,1*63
$GAGSV,2,1,06,02,45,314,43,03,35,223,42,08,31,286,40,11,38,079,38,7*78
$GAGSV,2,2,06,25,50,041,43,36,36,147,00,,,,,,,,,7*77
$GPRMC,063524.40,A,3046.9744259,N,10357.5037080,E,0.03,90.00,260319,0.0,E,D*0F
$GPGGA,063524.40,3046.9744259,N,10357.5037080,E,4,23,1.0,532.109,M,-40.962,M,2.4,*63
$GPGSA,A,3,07,08,09,16,23,27,,,,,,,5.5,2.2,5.1,1*2E
$GAGSA,A,3,02,03,08,11,25,36,,,,,,,6.5,1.3,6.4,3*34
$GPGSV,2,1,06,07,33,317,47,08,73,179,48,09,49,279,48,16,37,042,44,1*6E
$GPGSV,2,2,06,23,53,221,45,27,65,059,48,,,,,,,,,1*63
$GAGSV,2,1,06,02,45,314,43,03,35,223,42,08,31,286,40,11,38,079,38,7*78
$GAGSV,2,2,06,25,50,041,43,36,37,147,00,,,,,,,,,7*76
$GPRMC,063524.60,A,3046.9744265,N,10357.5037077,E,0.05,90.00,260319,0.0,E,D*0C
$GPGGA,063524.60,3046.9744265,N,10357.5037077,E,4,23,1.0,532.109,M,-40.962,M,2.6,*64
$GPGSA,A,3,07,08,09,16,23,27,,,,,,,5.5,2.2,5.1,1*2E
$GAGSA,A,3,02,03,08,11,25,36,,,,,,,6.5,1.3,6.4,3*34
$GPGSV,2,1,06,07,33,317,47,08,73,179,48,09,49,279,48,16,37,042,44,1*6E
$GPGSV,2,2,06,23,53,221,45,27,65,059,48,,,,,,,,,1*63
$GAGSV,2,1,06,02,45,314,43,03,35,223,42,08,31,286,40,11,38,079,38,7*78
$GAGSV,2,2,06,25,50,041,43,36,37,147,00,,,,,,,,,7*76
$GPRMC,063524.80,A,3046.9744262,N,10357.5037070,E,0.03,90.00,260319,0.0,E,D*04
$GPGGA,063524.80,3046.9744262,N,10357.5037070,E,4,23,1.0,532.109,M,-40.962,M,2.8,*64
$GPGSA,A,3,07,08,09,16,23,27,,,,,,,5.5,2.2,5.1,1*2E
$GAGSA,A,3,02,03,08,11,25,36,,,,,,,6.5,1.3,6.4,3*34
$GPGSV,2,1,06,07,33,317,47,08,73,179,48,09,49,279,48,16,37,042,44,1*6E
$GPGSV,2,2,06,23,53,221,45,27,65,059,48,,,,,,,,,1*63
$GAGSV,2,1,06,02,45,314,43,03,35,223,42,08,31,286,40,11,38,079,38,7*78
$GAGSV,2,2,06,25,50,041,43,36,37,147,00,,,,,,,,,7*76
$GPRMC,063525.00,A,3046.9744264,N,10357.5037070,E,0.10,90.00,260319,0.0,E,D*09
$GPGGA,063525.00,3046.9744264,N,10357.5037070,E,4,23,1.0,532.106,M,-40.962,M,3.0,*6D
$GPGSA,A,3,07,08,09,16,23,27,,,,,,,5.5,2.2,5.1,1*2E
$GAGSA,A,3,02,03,08,11,25,36,,,,,,,6.5,1.3,6.4,3*34
$GPGSV,2,1,06,07,33,317,47,08,73,179,48,09,49,279,48,16,37,042,44,1*6E
$GPGSV,2,2,06,23,53,221,45,27,65,059,48,,,,,,,,,1*63
$GAGSV,2,1,06,02,45,314,43,03,35,223,42,08,31,286,40,11,38,079,38,7*78
$GAGSV,2,2,06,25,50,041,43,36,37,147,00,,,,,,,,,7*76
$GPRMC,063525.20,A,3046.9744276,N,10357.5037073,E,0.04,90.00,260319,0.0,E,D*0E
$GPGGA,063525.20,3046.9744276,N,10357.5037073,E,4,23,1.0,532.113,M,-40.962,M,1.2,*6B
$GPGSA,A,3,07,08,09,16,23,27,,,,,,,5.5,2.2,5.1,1*2E
$GAGSA,A,3,02,03,08,11,25,36,,,,,,,6.5,1.3,6.4,3*34
$GPGSV,2,1,06,07,33,317,47,08,73,179,48,09,49,279,48,16,37,042,44,1*6E
$GPGSV,2,2,06,23,53,221,45,27,65,059,48,,,,,,,,,1*63
$GAGSV,2,1,06,02,45,314,43,03,35,223,42,08,31,286,40,11,38,079,38,7*78
$GAGSV,2,2,06,25,50,041,43,36,37,147,00,,,,,,,,,7*76
$GPRMC,063525.40,A,3046.9744284,N,10357.5037070,E,0.09,90.00,260319,0.0,E,D*0B
$GPGGA,063525.40,3046.9744284,N,10357.5037070,E,4,23,1.0,532.115,M,-40.962,M,1.4,*63
$GPGSA,A,3,07,08,09,16,23,27,,,,,,,5.5,2.2,5.1,1*2E
$GAGSA,A,3,02,03,08,11,25,36,,,,,,,6.5,1.3,6.4,3*34
$GPGSV,2,1,06,07,33,317,47,08,73,179,48,09,49,279,48,16,37,042,44,1*6E
$GPGSV,2,2,06,23,53,221,45,27,65,059,48,,,,,,,,,1*63
$GAGSV,2,1,06,02,45,314,43,03,35,223,42,08,31,286,40,11,38,079,38,7*78
$GAGSV,2,2,06,25,50,041,43,36,37,147,00,,,,,,,,,7*76
$GPRMC,063525.60,A,3046.9744276,N,10357.5037076,E,0.03,90.00,260319,0.0,E,D*08
$GPGGA,063525.60,3046.9744276,N,10357.5037076,E,4,23,1.0,532.115,M,-40.962,M,1.6,*68
$GPGSA,A,3,07,08,09,16,23,27,,,,,,,5.5,2.2,5.1,1*2E
$GAGSA,A,3,02,03,08,11,25,36,,,,,,,6.5,1.3,6.4,3*34
$GPGSV,2,1,06,07,33,317,47,08,73,179,48,09,49,279,48,16,37,042,44,1*6E
$GPGSV,2,2,06,23,53,221,45,27,65,059,48,,,,,,,,,1*63
$GAGSV,2,1,06,02,45,314,43,03,35,223,42,08,31,286,40,11,38,079,38,7*78
$GAGSV,2,2,06,25,50,041,42,36,37,147,00,,,,,,,,,7*77
$GPRMC,063525.80,A,3046.9744283,N,10357.5037068,E,0.11,90.00,260319,0.0,E,D*00
$GPGGA,063525.80,3046.9744283,N,10357.5037068,E,4,23,1.0,532.117,M,-40.962,M,1.8,*6F
$GPGSA,A,3,07,08,09,16,23,27,,,,,,,5.5,2.2,5.1,1*2E
$GAGSA,A,3,02,03,08,11,25,36,,,,,,,6.5,1.3,6.4,3*34
$GPGSV,2,1,06,07,33,317,47,08,73,179,48,09,49,279,48,16,37,042,44,1*6E
$GPGSV,2,2,06,23,53,221,45,27,65,059,48,,,,,,,,,1*63
$GAGSV,2,1,06,02,45,314,43,03,35,223,42,08,31,286,40,11,38,079,38,7*78
$GAGSV,2,2,06,25,50,041,43,36,37,147,00,,,,,,,,,7*76
$GPRMC,063526.00,A,3046.9744281,N,10357.5037073,E,0.04,90.00,260319,0.0,E,D*07
$GPGGA,063526.00,3046.9744281,N,10357.5037073,E,4,23,1.0,532.115,M,-40.962,M,2.0,*65
$GPGSA,A,3,07,08,09,16,23,27,,,,,,,5.5,2.2,5.1,1*2E
$GAGSA,A,3,02,03,08,11,25,36,,,,,,,6.5,1.3,6.4,3*34
$GPGSV,2,1,06,07,33,317,47,08,73,179,48,09,49,279,48,16,37,042,44,1*6E
$GPGSV,2,2,06,23,53,221,45,27,65,059,48,,,,,,,,,1*63
$GAGSV,2,1,06,02,45,314,43,03,35,223,42,08,31,286,40,11,38,079,38,7*78
$GAGSV,2,2,06,25,50,041,42,36,37,147,00,,,,,,,,,7*77
$GPRMC,063526.20,A,3046.9744274,N,10357.5037075,E,0.11,90.00,260319,0.0,E,D*0D
$GPGGA,063526.20,3046.9744274,N,10357.5037075,E,4,23,1.0,532.112,M,-40.962,M,2.2,*6E
$GPGSA,A,3,07,08,09,16,23,27,,,,,,,5.5,2.2,5.1,1*2E
$GAGSA,A,3,02,03,08,11,25,36,,,,,,,6.5,1.3,6.4,3*34
$GPGSV,2,1,06,07,33,317,47,08,73,179,48,09,49,279,48,16,37,042,44,1*6E
$GPGSV,2,2,06,23,53,221,45,27,65,059,48,,,,,,,,,1*63
$GAGSV,2,1,06,02,45,314,43,03,35,223,42,08,31,286,40,11,38,079,38,7*78
$GAGSV,2,2,06,25,50,041,43,36,37,147,00,,,,,,,,,7*76
$GPRMC,063526.40,A,3046.9744279,N,10357.5037073,E,0.04,90.00,260319,0.0,E,D*04
$GPGGA,063526.40,3046.9744279,N,10357.5037073,E,4,23,1.0,532.114,M,-40.962,M,2.4,*63
$GPGSA,A,3,07,08,09,16,23,27,,,,,,,5.5,2.2,5.1,1*2E
$GAGSA,A,3,02,03,08,11,25,36,,,,,,,6.5,1.3,6.4,3*34
$GPGSV,2,1,06,07,33,317,47,08,73,179,48,09,49,279,48,16,37,042,44,1*6E
$GPGSV,2,2,06,23,53,221,45,27,65,059,48,,,,,,,,,1*63
$GAGSV,2,1,06,02,45,314,43,03,35,223,42,08,31,286,40,11,38,079,38,7*78
$GAGSV,2,2,06,25,50,041,42,36,37,147,00,,,,,,,,,7*77
$GPRMC,063526.60,A,3046.9744278,N,10357.5037072,E,0.06,90.00,260319,0.0,E,D*04
$GPGGA,063526.60,3046.9744278,N,10357.5037072,E,4,23,1.0,532.112,M,-40.962,M,2.6,*65
$GPGSA,A,3,07,08,09,16,23,27,,,,,,,5.5,2.2,5.1,1*2E
$GAGSA,A,3,02,03,08,11,25,36,,,,,,,6.5,1.3,6.4,3*34
$GPGSV,2,1,06,07,33,317,47,08,73,179,48,09,49,279,48,16,37,042,44,1*6E
$GPGSV,2,2,06,23,53,221,45,27,65,059,48,,,,,,,,,1*63
$GAGSV,2,1,06,02,45,314,43,03,35,223,42,08,31,286,40,11,38,079,38,7*78
$GAGSV,2,2,06,25,50,041,42,36,37,147,00,,,,,,,,,7*77
$GPRMC,063526.80,A,3046.9744274,N,10357.5037078,E,0.03,90.00,260319,0.0,E,D*09
$GPGGA,063526.80,3046.9744274,N,10357.5037078,E,4,23,1.0,532.112,M,-40.962,M,2.8,*63
$GPGSA,A,3,07,08,09,16,23,27,,,,,,,5.5,2.2,5.1,1*2E
$GAGSA,A,3,02,03,08,11,25,36,,,,,,,6.5,1.3,6.4,3*34
$GPGSV,2,1,06,07,33,317,47,08,73,179,48,09,49,279,48,16,37,042,44,1*6E
$GPGSV,2,2,06,23,53,221,45,27,65,059,48,,,,,,,,,1*63
$GAGSV,2,1,06,02,45,314,43,03,35,223,42,08,31,286,40,11,38,079,38,7*78
$GAGSV,2,2,06,25,50,041,42,36,37,147,00,,,,,,,,,7*77
$GPRMC,063527.00,A,3046.9744272,N,10357.5037070,E,0.04,90.00,260319,0.0,E,D*09
$GPGGA,063527.00,3046.9744272,N,10357.5037070,E,4,23,1.0,532.112,M,-40.962,M,3.0,*6D
$GPGSA,A,3,07,08,09,16,23,27,,,,,,,5.5,2.2,5.1,1*2E
$GAGSA,A,3,02,03,08,11,25,36,,,,,,,6.5,1.3,6.4,3*34
$GPGSV,2,1,06,07,33,317,46,08,73,179,48,09,49,279,48,16,37,042,44,1*6F
$GPGSV,2,2,06,23,53,221,45,27,65,059,48,,,,,,,,,1*63
$GAGSV,2,1,06,02,45,314,43,03,35,223,42,08,31,286,40,11,38,079,38,7*78
$GAGSV,2,2,06,25,50,041,42,36,37,147,00,,,,,,,,,7*77
$GPRMC,063527.20,A,3046.9744266,N,10357.5037075,E,0.03,90.00,260319,0.0,E,D*0C
$GPGGA,063527.20,3046.9744266,N,10357.5037075,E,4,23,1.0,532.111,M,-40.962,M,1.2,*6C
$GPGSA,A,3,07,08,09,16,23,27,,,,,,,5.5,2.2,5.1,1*2E
$GAGSA,A,3,02,03,08,11,25,36,,,,,,,6.5,1.3,6.4,3*34
$GPGSV,2,1,06,07,33,317,46,08,73,179,48,09,49,279,48,16,37,042,44,1*6F
$GPGSV,2,2,06,23,53,221,45,27,65,059,48,,,,,,,,,1*63
$GAGSV,2,1,06,02,45,314,43,03,35,223,42,08,31,286,40,11,38,079,38,7*78
$GAGSV,2,2,06,25,50,041,43,36,37,147,00,,,,,,,,,7*76
$GPRMC,063527.40,A,3046.9744275,N,10357.5037078,E,0.08,90.00,260319,0.0,E,D*0E
$GPGGA,063527.40,3046.9744275,N,10357.5037078,E,4,23,1.0,532.112,M,-40.962,M,1.4,*60
$GPGSA,A,3,07,08,09,16,23,27,,,,,,,5.5,2.2,5.1,1*2E
$GAGSA,A,3,02,03,08,11,25,36,,,,,,,6.5,1.3,6.4,3*34
$GPGSV,2,1,06,07,33,317,46,08,73,179,48,09,49,279,48,16,37,042,45,1*6E
$GPGSV,2,2,06,23,53,221,45,27,65,059,48,,,,,,,,,1*63
$GAGSV,2,1,06,02,45,314,43,03,35,223,42,08,31,286,40,11,38,079,38,7*78
$GAGSV,2,2,06,25,50,041,43,36,37,147,00,,,,,,,,,7*76
$GPRMC,063527.60,A,3046.9744273,N,10357.5037079,E,0.04,90.00,260319,0.0,E,D*07
$GPGGA,063527.60,3046.9744273,N,10357.5037079,E,4,23,1.0,532.109,M,-40.962,M,1.6,*6D
$GPGSA,A,3,07,08,09,16,23,27,,,,,,,5.5,2.2,5.1,1*2E
$GAGSA,A,3,02,03,08,11,25,36,,,,,,,6.5,1.3,6.4,3*34
$GPGSV,2,1,06,07,33,317,46,08,73,179,48,09,49,279,48,16,37,042,45,1*6E
$GPGSV,2,2,06,23,53,221,45,27,65,059,48,,,,,,,,,1*63
$GAGSV,2,1,06,02,45,314,43,03,35,223,42,08,31,286,40,11,38,079,38,7*78
$GAGSV,2,2,06,25,50,041,43,36,37,147,00,,,,,,,,,7*76
$GPRMC,063527.80,A,3046.9744267,N,10357.5037083,E,0.06,90.00,260319,0.0,E,D*0B
$GPGGA,063527.80,3046.9744267,N,10357.5037083,E,4,23,1.0,532.109,M,-40.962,M,1.8,*6D
$GPGSA,A,3,07,08,09,16,23,27,,,,,,,5.5,2.2,5.1,1*2E
$GAGSA,A,3,02,03,08,11,25,36,,,,,,,6.5,1.3,6.4,3*34
$GPGSV,2,1,06,07,33,317,46,08,73,179,48,09,49,279,48,16,37,042,45,1*6E
$GPGSV,2,2,06,23,53,221,45,27,65,059,48,,,,,,,,,1*63
$GAGSV,2,1,06,02,45,314,43,03,35,223,42,08,31,286,40,11,38,079,38,7*78
$GAGSV,2,2,06,25,50,041,43,36,37,147,00,,,,,,,,,7*76
$GPRMC,063528.00,A,3046.9744273,N,10357.5037079,E,0.04,90.00,260319,0.0,E,D*0E
$GPGGA,063528.00,3046.9744273,N,10357.5037079,E,4,23,1.0,532.111,M,-40.962,M,2.0,*68
$GPGSA,A,3,07,08,09,16,23,27,,,,,,,5.5,2.2,5.1,1*2E
$GAGSA,A,3,02,03,08,11,25,36,,,,,,,6.5,1.3,6.4,3*34
$GPGSV,2,1,06,07,33,317,46,08,73,179,48,09,49,279,48,16,37,042,45,1*6E
$GPGSV,2,2,06,23,53,221,45,27,65,059,48,,,,,,,,,1*63
$GAGSV,2,1,06,02,45,314,43,03,35,223,42,08,31,286,40,11,38,079,38,7*78
$GAGSV,2,2,06,25,50,041,43,36,37,147,00,,,,,,,,,7*76
$GPRMC,063528.20,A,3046.9744268,N,10357.5037075,E,0.01,90.00,260319,0.0,E,D*0F
$GPGGA,063528.20,3046.9744268,N,10357.5037075,E,4,23,1.0,532.110,M,-40.962,M,2.2,*6F
$GPGSA,A,3,07,08,09,16,23,27,,,,,,,5.5,2.2,5.1,1*2E
$GAGSA,A,3,02,03,08,11,25,36,,,,,,,6.5,1.3,6.4,3*34
$GPGSV,2,1,06,07,33,317,46,08,73,179,48,09,49,279,48,16,37,042,45,1*6E
$GPGSV,2,2,06,23,53,221,45,27,65,059,48,,,,,,,,,1*63
$GAGSV,2,1,06,02,45,314,43,03,35,223,42,08,31,286,40,11,38,079,38,7*78
$GAGSV,2,2,06,25,50,041,42,36,37,147,00,,,,,,,,,7*77
$GPRMC,063528.40,A,3046.9744269,N,10357.5037076,E,0.02,90.00,260319,0.0,E,D*08
$GPGGA,063528.40,3046.9744269,N,10357.5037076,E,4,23,1.0,532.111,M,-40.962,M,2.4,*6C
$GPGSA,A,3,07,08,09,16,23,27,,,,,,,5.5,2.2,5.1,1*2E
$GAGSA,A,3,02,03,08,11,25,36,,,,,,,6.5,1.3,6.4,3*34
$GPGSV,2,1,06,07,33,317,46,08,73,179,48,09,49,279,48,16,37,042,45,1*6E
$GPGSV,2,2,06,23,53,221,45,27,65,059,48,,,,,,,,,1*63
$GAGSV,2,1,06,02,45,314,43,03,35,223,42,08,31,286,40,11,38,079,38,7*78
$GAGSV,2,2,06,25,50,041,42,36,37,147,00,,,,,,,,,7*77
$GPRMC,063528.60,A,3046.9744274,N,10357.5037069,E,0.03,90.00,260319,0.0,E,D*09
$GPGGA,063528.60,3046.9744274,N,10357.5037069,E,4,23,1.0,532.113,M,-40.962,M,2.6,*6C
$GPGSA,A,3,07,08,09,16,23,27,,,,,,,5.5,2.2,5.1,1*2E
$GAGSA,A,3,02,03,08,11,25,36,,,,,,,6.5,1.3,6.4,3*34
$GPGSV,2,1,06,07,33,317,46,08,73,179,48,09,49,279,48,16,37,042,45,1*6E
$GPGSV,2,2,06,23,53,221,45,27,65,059,48,,,,,,,,,1*63
$GAGSV,2,1,06,02,45,314,43,03,35,223,42,08,31,286,40,11,38,079,38,7*78
$GAGSV,2,2,06,25,50,041,42,36,37,147,00,,,,,,,,,7*77
$GPRMC,063528.80,A,3046.9744273,N,10357.5037072,E,0.05,90.00,260319,0.0,E,D*0C
$GPGGA,063528.80,3046.9744273,N,10357.5037072,E,4,23,1.0,532.113,M,-40.962,M,2.8,*61
$GPGSA,A,3,07,08,09,16,23,27,,,,,,,5.5,2.2,5.1,1*2E
$GAGSA,A,3,02,03,08,11,25,36,,,,,,,6.5,1.3,6.4,3*34
$GPGSV,2,1,06,07,33,317,46,08,73,179,48,09,49,279,48,16,37,042,45,1*6E
$GPGSV,2,2,06,23,53,221,45,27,65,059,48,,,,,,,,,1*63
$GAGSV,2,1,06,02,45,314,43,03,35,223,42,08,31,286,40,11,38,079,38,7*78
$GAGSV,2,2,06,25,50,041,42,36,37,147,00,,,,,,,,,7*77
$GPRMC,063529.00,A,3046.9744266,N,10357.5037068,E,0.09,90.00,260319,0.0,E,D*06
$GPGGA,063529.00,3046.9744266,N,10357.5037068,E,4,23,1.0,532.111,M,-40.962,M,3.0,*6C
$GPGSA,A,3,07,08,09,16,23,27,,,,,,,5.5,2.2,5.1,1*2E
$GAGSA,A,3,02,03,08,11,25,36,,,,,,,6.5,1.3,6.4,3*34
$GPGSV,2,1,06,07,33,317,46,08,73,179,48,09,49,279,48,16,37,042,45,1*6E
$GPGSV,2,2,06,23,53,221,45,27,65,059,48,,,,,,,,,1*63
$GAGSV,2,1,06,02,45,314,43,03,35,223,42,08,31,286,40,11,38,079,38,7*78
$GAGSV,2,2,06,25,50,041,42,36,37,147,00,,,,,,,,,7*77
$GPRMC,063529.20,A,3046.9744272,N,10357.5037076,E,0.09,90.00,260319,0.0,E,D*0E
$GPGGA,063529.20,3046.9744272,N,10357.5037076,E,4,23,1.0,532.111,M,-40.962,M,1.2,*64
$GPGSA,A,3,07,08,09,16,23,27,,,,,,,5.5,2.2,5.1,1*2E
$GAGSA,A,3,02,03,08,11,25,36,,,,,,,6.5,1.3,6.4,3*34
$GPGSV,2,1,06,07,33,317,46,08,73,179,48,09,49,279,48,16,37,042,45,1*6E
$GPGSV,2,2,06,23,53,221,45,27,65,059,48,,,,,,,,,1*63
$GAGSV,2,1,06,02,45,314,43,03,35,223,42,08,31,286,40,11,38,079,38,7*78
$GAGSV,2,2,06,25,50,041,42,36,37,147,00,,,,,,,,,7*77
$GPRMC,063529.40,A,3046.9744277,N,10357.5037068,E,0.04,90.00,260319,0.0,E,D*0F
$GPGGA,063529.40,3046.9744277,N,10357.5037068,E,4,23,1.0,532.111,M,-40.962,M,1.4,*6E
$GPGSA,A,3,07,08,09,16,23,27,,,,,,,5.5,2.2,5.1,1*2E
$GAGSA,A,3,02,03,08,11,25,36,,,,,,,6.5,1.3,6.4,3*34
$GPGSV,2,1,06,07,33,317,46,08,73,179,48,09,49,279,48,16,37,042,45,1*6E
$GPGSV,2,2,06,23,53,221,45,27,65,059,48,,,,,,,,,1*63
$GAGSV,2,1,06,02,45,314,43,03,35,223,42,08,31,286,40,11,38,079,38,7*78
$GAGSV,2,2,06,25,50,041,42,36,37,147,00,,,,,,,,,7*77
$GPRMC,063529.60,A,3046.9744276,N,10357.5037066,E,0.02,90.00,260319,0.0,E,D*04
$GPGGA,063529.60,3046.9744276,N,10357.5037066,E,4,23,1.0,532.112,M,-40.962,M,1.6,*62
$GPGSA,A,3,07,08,09,16,23,27,,,,,,,5.5,2.2,5.1,1*2E
$GAGSA,A,3,02,03,08,11,25,36,,,,,,,6.5,1.3,6.4,3*34
$GPGSV,2,1,06,07,33,317,46,08,73,179,48,09,49,279,48,16,37,042,45,1*6E
$GPGSV,2,2,06,23,53,221,45,27,65,059,48,,,,,,,,,1*63
$GAGSV,2,1,06,02,45,314,43,03,35,223,42,08,31,286,40,11,38,079,38,7*78
$GAGSV,2,2,06,25,50,041,42,36,37,147,00,,,,,,,,,7*77
$GPRMC,063529.80,A,3046.9744265,N,10357.5037071,E,0.03,90.00,260319,0.0,E,D*0F
$GPGGA,063529.80,3046.9744265,N,10357.5037071,E,4,23,1.0,532.112,M,-40.962,M,1.8,*66
$GPGSA,A,3,07,08,09,16,23,27,,,,,,,5.5,2.2,5.1,1*2E
$GAGSA,A,3,02,03,08,11,25,36,,,,,,,6.5,1.3,6.4,3*34
$GPGSV,2,1,06,07,33,317,46,08,73,179,48,09,49,279,48,16,37,042,45,1*6E
$GPGSV,2,2,06,23,53,221,45,27,65,059,48,,,,,,,,,1*63
$GAGSV,2,1,06,02,45,314,43,03,35,223,42,08,31,286,40,11,38,079,38,7*78
$GAGSV,2,2,06,25,50,041,43,36,37,147,00,,,,,,,,,7*76
$GPRMC,063530.00,A,3046.9744268,N,10357.5037075,E,0.11,90.00,260319,0.0,E,D*05
$GPGGA,063530.00,3046.9744268,N,10357.5037075,E,4,23,1.0,532.112,M,-40.962,M,2.0,*64
$GPGSA,A,3,07,08,09,16,23,27,,,,,,,5.5,2.2,5.1,1*2E
$GAGSA,A,3,02,03,08,11,25,36,,,,,,,6.5,1.3,6.4,3*34
$GPGSV,2,1,06,07,33,317,46,08,73,179,48,09,49,279,48,16,37,042,45,1*6E
$GPGSV,2,2,06,23,53,221,45,27,65,059,48,,,,,,,,,1*63
$GAGSV,2,1,06,02,45,314,43,03,35,223,42,08,31,286,40,11,38,079,38,7*78
$GAGSV,2,2,06,25,50,041,42,36,37,147,00,,,,,,,,,7*77
$GPRMC,063530.20,A,3046.9744272,N,10357.5037072,E,0.04,90.00,260319,0.0,E,D*0F
$GPGGA,063530.20,3046.9744272,N,10357.5037072,E,4,23,1.0,532.111,M,-40.962,M,2.2,*6B
$GPGSA,A,3,07,08,09,16,23,27,,,,,,,5.5,2.2,5.1,1*2E
$GAGSA,A,3,02,03,08,11,25,36,,,,,,,6.5,1.3,6.4,3*34
$GPGSV,2,1,06,07,33,317,46,08,73,179,48,09,49,279,48,16,37,042,45,1*6E
$GPGSV,2,2,06,23,53,221,45,27,65,059,48,,,,,,,,,1*63
$GAGSV,2,1,06,02,45,314,43,03,35,223,42,08,31,286,40,11,38,079,38,7*78
$GAGSV,2,2,06,25,50,041,42,36,37,147,00,,,,,,,,,7*77
$GPRMC,063530.40,A,3046.9744270,N,10357.5037067,E,0.06,90.00,260319,0.0,E,D*0D
$GPGGA,063530.40,3046.9744270,N,10357.5037067,E,4,23,1.0,532.111,M,-40.962,M,2.4,*6D
$GPGSA,A,3,07,08,09,16,23,27,,,,,,,5.5,2.2,5.1,1*2E
$GAGSA,A,3,02,03,08,11,25,36,,,,,,,6.5,1.3,6.4,3*34
$GPGSV,2,1,06,07,33,317,46,08,73,179,48,09,49,279,48,16,37,042,45,1*6E
$GPGSV,2,2,06,23,53,221,45,27,65,059,48,,,,,,,,,1*63
$GAGSV,2,1,06,02,45,314,43,03,35,223,42,08,31,286,40,11,38,079,38,7*78
$GAGSV,2,2,06,25,50,041,42,36,37,147,00,,,,,,,,,7*77
$GPRMC,063530.60,A,3046.9744263,N,10357.5037075,E,0.07,90.00,260319,0.0,E,D*0F
$GPGGA,063530.60,3046.9744263,N,10357.5037075,E,4,23,1.0,532.111,M,-40.962,M,2.6,*6C
$GPGSA,A,3,07,08,09,16,23,27,,,,,,,5.5,2.2,5.1,1*2E
$GAGSA,A,3,02,03,08,11,25,36,,,,,,,6.5,1.3,6.4,3*34
$GPGSV,2,1,06,07,33,317,46,08,73,179,48,09,49,279,48,16,37,042,45,1*6E
$GPGSV,2,2,06,23,53,221,45,27,65,059,48,,,,,,,,,1*63
$GAGSV,2,1,06,02,45,314,43,03,35,223,42,08,31,286,40,11,38,079,38,7*78
$GAGSV,2,2,06,25,50,041,42,36,37,147,00,,,,,,,,,7*77
$GPRMC,063530.80,A,3046.9744265,N,10357.5037074,E,0.07,90.00,260319,0.0,E,D*06
$GPGGA,063530.80,3046.9744265,N,10357.5037074,E,4,23,1.0,532.111,M,-40.962,M,2.8,*6B
$GPGSA,A,3,07,08,09,16,23,27,,,,,,,5.5,2.2,5.1,1*2E
$GAGSA,A,3,02,03,08,11,25,36,,,,,,,6.5,1.3,6.4,3*34
$GPGSV,2,1,06,07,33,317,46,08,73,179,48,09,49,279,48,16,37,042,45,1*6E
$GPGSV,2,2,06,23,53,221,45,27,65,059,48,,,,,,,,,1*63
$GAGSV,2,1,06,02,45,314,43,03,35,223,42,08,31,286,40,11,38,079,38,7*78
$GAGSV,2,2,06,25,50,041,42,36,37,147,00,,,,,,,,,7*77
$GPRMC,063531.00,A,3046.9744272,N,10357.5037068,E,0.07,90.00,260319,0.0,E,D*04
$GPGGA,063531.00,3046.9744272,N,10357.5037068,E,4,23,1.0,532.112,M,-40.962,M,3.0,*63
$GPGSA,A,3,07,08,09,16,23,27,,,,,,,5.5,2.2,5.1,1*2E
$GAGSA,A,3,02,03,08,11,25,36,,,,,,,6.5,1.3,6.4,3*34
$GPGSV,2,1,06,07,33,317,46,08,73,179,48,09,49,279,48,16,37,042,45,1*6E
$GPGSV,2,2,06,23,53,221,45,27,65,059,48,,,,,,,,,1*63
$GAGSV,2,1,06,02,45,314,43,03,35,223,42,08,31,286,40,11,38,079,38,7*78
$GAGSV,2,2,06,25,50,041,42,36,37,147,00,,,,,,,,,7*77
$GPRMC,063531.20,A,3046.9744273,N,10357.5037074,E,0.10,90.00,260319,0.0,E,D*0C
$GPGGA,063531.20,3046.9744273,N,10357.5037074,E,4,23,1.0,532.112,M,-40.962,M,1.2,*6D
$GPGSA,A,3,07,08,09,16,23,27,,,,,,,5.5,2.2,5.1,1*2E
$GAGSA,A,3,02,03,08,11,25,36,,,,,,,6.5,1.3,6.4,3*34
$GPGSV,2,1,06,07,33,317,46,08,73,179,48,09,49,279,48,16,37,042,45,1*6E
$GPGSV,2,2,06,23,53,221,45,27,65,059,48,,,,,,,,,1*63
$GAGSV,2,1,06,02,45,314,43,03,35,223,42,08,31,286,40,11,38,079,38,7*78
$GAGSV,2,2,06,25,50,041,42,36,37,147,00,,,,,,,,,7*77
$GPRMC,063531.40,A,3046.9744275,N,10357.5037077,E,0.07,90.00,260319,0.0,E,D*09
$GPGGA,063531.40,3046.9744275,N,10357.5037077,E,4,23,1.0,532.113,M,-40.962,M,1.4,*69
$GPGSA,A,3,07,08,09,16,23,27,,,,,,,5.5,2.2,5.1,1*2E
$GAGSA,A,3,02,03,08,11,25,36,,,,,,,6.5,1.3,6.4,3*34
$GPGSV,2,1,06,07,33,317,46,08,73,179,48,09,49,279,48,16,37,042,45,1*6E
$GPGSV,2,2,06,23,53,221,45,27,65,059,48,,,,,,,,,1*63
$GAGSV,2,1,06,02,45,314,43,03,35,223,42,08,31,286,40,11,38,079,38,7*78
$GAGSV,2,2,06,25,50,041,42,36,37,147,00,,,,,,,,,7*77
$GPRMC,063531.60,A,3046.9744270,N,10357.5037074,E,0.03,90.00,260319,0.0,E,D*09
$GPGGA,063531.60,3046.9744270,N,10357.5037074,E,4,23,1.0,532.114,M,-40.962,M,1.6,*68
$GPGSA,A,3,07,08,09,16,23,27,,,,,,,5.5,2.2,5.1,1*2E
$GAGSA,A,3,02,03,08,11,25,36,,,,,,,6.5,1.3,6.4,3*34
$GPGSV,2,1,06,07,33,317,46,08,73,179,48,09,49,279,48,16,37,042,45,1*6E
$GPGSV,2,2,06,23,53,221,45,27,65,059,48,,,,,,,,,1*63
$GAGSV,2,1,06,02,45,314,43,03,35,223,42,08,31,286,40,11,38,079,38,7*78
$GAGSV,2,2,06,25,50,041,42,36,37,147,00,,,,,,,,,7*77
$GPRMC,063531.80,A,3046.9744268,N,10357.5037069,E,0.04,90.00,260319,0.0,E,D*05
$GPGGA,063531.80,3046.9744268,N,10357.5037069,E,4,23,1.0,532.115,M,-40.962,M,1.8,*6C
$GPGSA,A,3,07,08,09,16,23,27,,,,,,,5.5,2.2,5.1,1*2E
$GAGSA,A,3,02,03,08,11,25,36,,,,,,,6.5,1.3,6.4,3*34
$GPGSV,2,1,06,07,33,317,46,08,73,179,48,09,49,279,48,16,37,042,45,1*6E
$GPGSV,2,2,06,23,53,221,45,27,65,059,48,,,,,,,,,1*63
$GAGSV,2,1,06,02,45,314,43,03,35,223,42,08,31,286,40,11,38,079,38,7*78
$GAGSV,2,2,06,25,50,041,42,36,37,147,00,,,,,,,,,7*77
$GPRMC,063532.00,A,3046.9744279,N,10357.5037072,E,0.03,90.00,260319,0.0,E,D*03
$GPGGA,063532.00,3046.9744279,N,10357.5037072,E,4,23,1.0,532.115,M,-40.962,M,2.0,*66
$GPGSA,A,3,07,08,09,16,23,27,,,,,,,5.5,2.2,5.1,1*2E
$GAGSA,A,3,02,03,08,11,25,36,,,,,,,6.5,1.3,6.4,3*34
$GPGSV,2,1,06,07,33,317,46,08,73,179,48,09,49,279,48,16,37,042,45,1*6E
$GPGSV,2,2,06,23,53,221,45,27,65,059,48,,,,,,,,,1*63
$GAGSV,2,1,06,02,45,314,43,03,35,223,42,08,31,286,40,11,38,079,38,7*78
$GAGSV,2,2,06,25,50,041,42,36,37,147,00,,,,,,,,,7*77
$GPRMC,063532.20,A,3046.9744270,N,10357.5037069,E,0.03,90.00,260319,0.0,E,D*02
$GPGGA,063532.20,3046.9744270,N,10357.5037069,E,4,23,1.0,532.114,M,-40.962,M,2.2,*64
$GPGSA,A,3,07,08,09,16,23,27,,,,,,,5.5,2.2,5.1,1*2E
$GAGSA,A,3,02,03,08,11,25,36,,,,,,,6.5,1.3,6.4,3*34
$GPGSV,2,1,06,07,33,317,46,08,73,179,48,09,49,279,48,16,37,042,45,1*6E
$GPGSV,2,2,06,23,53,221,45,27,65,059,48,,,,,,,,,1*63
$GAGSV,2,1,06,02,45,314,43,03,35,223,42,08,31,286,41,11,38,079,38,7*79
$GAGSV,2,2,06,25,50,041,42,36,37,147,00,,,,,,,,,7*77
$GPRMC,063532.40,A,3046.9744274,N,10357.5037072,E,0.14,90.00,260319,0.0,E,D*0C
$GPGGA,063532.40,3046.9744274,N,10357.5037072,E,4,23,1.0,532.112,M,-40.962,M,2.4,*6C
$GPGSA,A,3,07,08,09,16,23,27,,,,,,,5.5,2.2,5.1,1*2E
$GAGSA,A,3,02,03,08,11,25,36,,,,,,,6.5,1.3,6.4,3*34
$GPGSV,2,1,06,07,33,317,46,08,73,179,48,09,49,279,48,16,37,042,45,1*6E
$GPGSV,2,2,06,23,53,221,45,27,65,059,48,,,,,,,,,1*63
$GAGSV,2,1,06,02,45,314,43,03,35,223,42,08,31,286,41,11,38,079,38,7*79
$GAGSV,2,2,06,25,50,041,42,36,37,147,00,,,,,,,,,7*77
$GPRMC,063532.60,A,3046.9744276,N,10357.5037076,E,0.05,90.00,260319,0.0,E,D*08
$GPGGA,063532.60,3046.9744276,N,10357.5037076,E,4,23,1.0,532.113,M,-40.962,M,2.6,*6B
$GPGSA,A,3,07,08,09,16,23,27,,,,,,,5.5,2.2,5.1,1*2E
$GAGSA,A,3,02,03,08,11,25,36,,,,,,,6.5,1.3,6.4,3*34
$GPGSV,2,1,06,07,33,317,46,08,73,179,48,09,49,279,48,16,37,042,45,1*6E
$GPGSV,2,2,06,23,53,221,45,27,65,059,48,,,,,,,,,1*63
$GAGSV,2,1,06,02,45,314,43,03,35,223,42,08,31,286,41,11,38,079,38,7*79
$GAGSV,2,2,06,25,50,041,42,36,37,147,00,,,,,,,,,7*77
$GPRMC,063532.80,A,3046.9744274,N,10357.5037072,E,0.10,90.00,260319,0.0,E,D*04
$GPGGA,063532.80,3046.9744274,N,10357.5037072,E,4,23,1.0,532.114,M,-40.962,M,2.8,*6A
$GPGSA,A,3,07,08,09,16,23,27,,,,,,,5.5,2.2,5.1,1*2E
$GAGSA,A,3,02,03,08,11,25,36,,,,,,,6.5,1.3,6.4,3*34
$GPGSV,2,1,06,07,33,317,46,08,73,179,48,09,49,279,48,16,37,042,45,1*6E
$GPGSV,2,2,06,23,53,221,45,27,65,059,48,,,,,,,,,1*63
$GAGSV,2,1,06,02,45,314,43,03,35,223,42,08,31,286,41,11,38,079,38,7*79
$GAGSV,2,2,06,25,50,041,42,36,37,147,00,,,,,,,,,7*77
$GPRMC,063533.00,A,3046.9744270,N,10357.5037071,E,0.03,90.00,260319,0.0,E,D*08
$GPGGA,063533.00,3046.9744270,N,10357.5037071,E,4,23,1.0,532.114,M,-40.962,M,3.0,*6D
$GPGSA,A,3,07,08,09,16,23,27,,,,,,,5.5,2.2,5.1,1*2E
$GAGSA,A,3,02,03,08,11,25,36,,,,,,,6.5,1.3,6.4,3*34
$GPGSV,2,1,06,07,33,317,46,08,73,179,48,09,49,279,48,16,37,042,45,1*6E
$GPGSV,2,2,06,23,53,221,46,27,65,059,48,,,,,,,,,1*60
$GAGSV,2,1,06,02,45,314,43,03,35,223,42,08,31,286,41,11,38,079,38,7*79
$GAGSV,2,2,06,25,50,041,42,36,37,147,00,,,,,,,,,7*77
$GPRMC,063533.20,A,3046.9744274,N,10357.5037069,E,0.11,90.00,260319,0.0,E,D*04
$GPGGA,063533.20,3046.9744274,N,10357.5037069,E,4,23,1.0,532.110,M,-40.962,M,1.2,*66
$GPGSA,A,3,07,08,09,16,23,27,,,,,,,5.5,2.2,5.1,1*2E
$GAGSA,A,3,02,03,08,11,25,36,,,,,,,6.5,1.3,6.4,3*34
$GPGSV,2,1,06,07,33,317,46,08,73,179,48,09,49,279,48,16,37,042,45,1*6E
$GPGSV,2,2,06,23,53,221,45,27,65,059,48,,,,,,,,,1*63
$GAGSV,2,1,06,02,45,314,43,03,35,223,42,08,31,286,41,11,38,079,38,7*79
$GAGSV,2,2,06,25,50,041,42,36,37,147,00,,,,,,,,,7*77
$GPRMC,063533.40,A,3046.9744282,N,10357.5037063,E,0.03,90.00,260319,0.0,E,D*02
$GPGGA,063533.40,3046.9744282,N,10357.5037063,E,4,23,1.0,532.111,M,-40.962,M,1.4,*64
$GPGSA,A,3,07,08,09,16,23,27,,,,,,,5.5,2.2,5.1,1*2E
$GAGSA,A,3,02,03,08,11,25,36,,,,,,,6.5,1.3,6.4,3*34
$GPGSV,2,1,06,07,33,317,46,08,73,179,48,09,49,279,48,16,37,042,45,1*6E
$GPGSV,2,2,06,23,53,221,45,27,65,059,48,,,,,,,,,1*63
$GAGSV,2,1,06,02,45,314,43,03,35,223,42,08,31,286,41,11,38,079,38,7*79
$GAGSV,2,2,06,25,50,041,42,36,37,147,00,,,,,,,,,7*77
$GPRMC,063533.60,A,3046.9744282,N,10357.5037066,E,0.05,90.00,260319,0.0,E,D*03
$GPGGA,063533.60,3046.9744282,N,10357.5037066,E,4,23,1.0,532.110,M,-40.962,M,1.6,*60
$GPGSA,A,3,07,08,09,16,23,27,,,,,,,5.5,2.2,5.1,1*2E
$GAGSA,A,3,02,03,08,11,25,36,,,,,,,6.5,1.3,6.4,3*34
$GPGSV,2,1,06,07,33,317,46,08,73,179,48,09,49,279,48,16,37,042,45,1*6E
$GPGSV,2,2,06,23,53,221,45,27,65,059,48,,,,,,,,,1*63
$GAGSV,2,1,06,02,45,314,43,03,35,223,42,08,31,286,41,11,38,079,38,7*79
$GAGSV,2,2,06,25,50,041,42,36,37,147,00,,,,,,,,,7*77
$GPRMC,063533.80,A,3046.9744278,N,10357.5037070,E,0.11,90.00,260319,0.0,E,D*0A
$GPGGA,063533.80,3046.9744278,N,10357.5037070,E,4,23,1.0,532.108,M,-40.962,M,1.8,*6B
$GPGSA,A,3,07,08,09,16,23,27,,,,,,,5.5,2.2,5.1,1*2E
$GAGSA,A,3,02,03,08,11,25,36,,,,,,,6.5,1.3,6.4,3*34
