$GPRMC,031006.20,A,3037.8100667,N,10404.9211205,E,0.07,0.00,200319,0.0,E,D*3C
$GPGGA,031006.20,3037.8100667,N,10404.9211205,E,4,20,1.0,486.992,M,-41.789,M,2.2,*60
$GPGSA,A,3,03,14,16,22,26,31,32,,,,,,3.7,1.3,3.4,1*28
$GAGSA,A,3,01,04,09,24,31,,,,,,,,3.2,2.0,2.5,3*30
$GPGSV,2,1,07,03,34,302,45,14,61,083,44,16,34,203,44,22,44,277,44,1*6E
$GPGSV,2,2,07,26,68,197,50,31,57,015,48,32,47,107,48,,,,,1*53
$GAGSV,2,1,05,01,50,034,42,04,77,135,45,09,46,318,40,24,20,230,38,7*79
$GAGSV,2,2,05,31,72,256,00,,,,,,,,,,,,,7*40
$GPRMC,031006.40,A,3037.8100668,N,10404.9211201,E,0.10,0.00,200319,0.0,E,D*37
$GPGGA,031006.40,3037.8100668,N,10404.9211201,E,4,20,1.0,486.992,M,-41.789,M,2.4,*6B
$GPGSA,A,3,03,14,16,22,26,31,32,,,,,,3.7,1.3,3.4,1*28
$GAGSA,A,3,01,04,09,24,31,,,,,,,,3.2,2.0,2.5,3*30
$GPGSV,2,1,07,03,34,302,45,14,61,083,45,16,34,203,44,22,44,277,44,1*6F
$GPGSV,2,2,07,26,68,197,50,31,57,015,48,32,47,107,48,,,,,1*53
$GAGSV,2,1,05,01,50,034,42,04,77,135,45,09,46,318,41,24,20,230,38,7*78
$GAGSV,2,2,05,31,72,256,00,,,,,,,,,,,,,7*40
$GPRMC,031006.60,A,3037.8100673,N,10404.9211197,E,0.05,0.00,200319,0.0,E,D*37
$GPGGA,031006.60,3037.8100673,N,10404.9211197,E,4,20,1.0,486.992,M,-41.789,M,2.6,*6D
$GPGSA,A,3,03,14,16,22,26,31,32,,,,,,3.7,1.3,3.4,1*28
$GAGSA,A,3,01,04,09,24,31,,,,,,,,3.2,2.0,2.5,3*30
$GPGSV,2,1,07,03,34,302,45,14,61,083,45,16,34,203,44,22,44,277,44,1*6F
$GPGSV,2,2,07,26,68,197,50,31,57,015,48,32,47,107,47,,,,,1*5C
$GAGSV,2,1,05,01,50,034,42,04,77,135,45,09,46,318,41,24,20,230,38,7*78
$GAGSV,2,2,05,31,72,256,00,,,,,,,,,,,,,7*40
$GPRMC,031006.80,A,3037.8100673,N,10404.9211204,E,0.05,0.00,200319,0.0,E,D*30
$GPGGA,031006.80,3037.8100673,N,10404.9211204,E,4,20,1.0,486.991,M,-41.789,M,2.8,*67
$GPGSA,A,3,03,14,16,22,26,31,32,,,,,,3.7,1.3,3.4,1*28
$GAGSA,A,3,01,04,09,24,31,,,,,,,,3.2,2.0,2.5,3*30
$GPGSV,2,1,07,03,34,302,45,14,61,083,46,16,34,203,44,22,44,277,44,1*6C
$GPGSV,2,2,07,26,68,197,50,31,57,015,48,32,47,107,47,,,,,1*5C
$GAGSV,2,1,05,01,50,034,42,04,77,135,45,09,46,318,41,24,20,230,38,7*78
$GAGSV,2,2,05,31,72,256,00,,,,,,,,,,,,,7*40
$GPRMC,031007.00,A,3037.8100670,N,10404.9211209,E,0.04,0.00,200319,0.0,E,D*36
$GPGGA,031007.00,3037.8100670,N,10404.9211209,E,4,20,1.0,486.992,M,-41.789,M,3.0,*6A
$GPGSA,A,3,03,14,16,22,26,31,32,,,,,,3.7,1.3,3.4,1*28
$GAGSA,A,3,01,04,09,24,31,,,,,,,,3.2,2.0,2.5,3*30
$GPGSV,2,1,07,03,34,302,45,14,61,083,46,16,34,203,44,22,44,277,44,1*6C
$GPGSV,2,2,07,26,68,197,50,31,57,015,48,32,47,107,47,,,,,1*5C
$GAGSV,2,1,05,01,50,034,42,04,77,135,45,09,46,318,41,24,20,230,38,7*78
$GAGSV,2,2,05,31,72,256,00,,,,,,,,,,,,,7*40
$GPRMC,031007.20,A,3037.8100671,N,10404.9211205,E,0.05,0.00,200319,0.0,E,D*38
$GPGGA,031007.20,3037.8100671,N,10404.9211205,E,4,20,1.0,486.991,M,-41.789,M,1.2,*66
$GPGSA,A,3,03,14,16,22,26,31,32,,,,,,3.7,1.3,3.4,1*28
$GAGSA,A,3,01,04,09,24,31,,,,,,,,3.2,2.0,2.5,3*30
$GPGSV,2,1,07,03,34,302,46,14,61,083,46,16,34,203,44,22,44,277,44,1*6F
$GPGSV,2,2,07,26,68,197,50,31,57,015,48,32,47,107,47,,,,,1*5C
$GAGSV,2,1,05,01,50,034,42,04,77,135,45,09,46,318,41,24,20,230,38,7*78
$GAGSV,2,2,05,31,72,256,00,,,,,,,,,,,,,7*40
$GPRMC,031007.40,A,3037.8100670,N,10404.9211203,E,0.03,0.00,200319,0.0,E,D*3F
$GPGGA,031007.40,3037.8100670,N,10404.9211203,E,4,20,1.0,486.990,M,-41.789,M,1.4,*60
$GPGSA,A,3,03,14,16,22,26,31,32,,,,,,3.7,1.3,3.4,1*28
$GAGSA,A,3,01,04,09,24,31,,,,,,,,3.2,2.0,2.5,3*30
$GPGSV,2,1,07,03,34,302,46,14,61,083,46,16,34,203,44,22,44,277,44,1*6F
$GPGSV,2,2,07,26,68,197,50,31,57,015,48,32,47,107,47,,,,,1*5C
$GAGSV,2,1,05,01,50,034,42,04,77,135,45,09,46,318,41,24,20,230,38,7*78
$GAGSV,2,2,05,31,72,256,00,,,,,,,,,,,,,7*40
$GPRMC,031007.60,A,3037.8100676,N,10404.9211203,E,0.03,0.00,200319,0.0,E,D*3B
$GPGGA,031007.60,3037.8100676,N,10404.9211203,E,4,20,1.0,486.992,M,-41.789,M,1.6,*64
$GPGSA,A,3,03,14,16,22,26,31,32,,,,,,3.7,1.3,3.4,1*28
$GAGSA,A,3,01,04,09,24,31,,,,,,,,3.2,2.0,2.5,3*30
$GPGSV,2,1,07,03,34,302,46,14,61,083,46,16,34,203,44,22,44,277,44,1*6F
$GPGSV,2,2,07,26,68,197,50,31,57,015,48,32,47,107,47,,,,,1*5C
$GAGSV,2,1,05,01,50,034,42,04,77,135,45,09,46,318,41,24,20,230,38,7*78
$GAGSV,2,2,05,31,72,256,00,,,,,,,,,,,,,7*40
$GPRMC,031007.80,A,3037.8100677,N,10404.9211204,E,0.05,0.00,200319,0.0,E,D*35
$GPGGA,031007.80,3037.8100677,N,10404.9211204,E,4,20,1.0,486.990,M,-41.789,M,1.8,*60
$GPGSA,A,3,03,14,16,22,26,31,32,,,,,,3.7,1.3,3.4,1*28
$GAGSA,A,3,01,04,09,24,31,,,,,,,,3.2,2.0,2.5,3*30
$GPGSV,2,1,07,03,34,302,46,14,61,083,46,16,34,203,44,22,44,277,44,1*6F
$GPGSV,2,2,07,26,68,197,50,31,57,015,48,32,47,107,47,,,,,1*5C
$GAGSV,2,1,05,01,50,034,42,04,77,135,45,09,46,318,41,24,20,230,38,7*78
$GAGSV,2,2,05,31,72,256,00,,,,,,,,,,,,,7*40
$GPRMC,031008.00,A,3037.8100676,N,10404.9211201,E,0.04,0.00,200319,0.0,E,D*37
$GPGGA,031008.00,3037.8100676,N,10404.9211201,E,4,20,1.0,486.993,M,-41.789,M,2.0,*6B
$GPGSA,A,3,03,14,16,22,26,31,32,,,,,,3.7,1.3,3.4,1*28
$GAGSA,A,3,01,04,09,24,31,,,,,,,,3.2,2.0,2.5,3*30
$GPGSV,2,1,07,03,34,302,46,14,61,083,46,16,34,203,44,22,44,277,44,1*6F
$GPGSV,2,2,07,26,68,197,50,31,57,015,48,32,47,107,47,,,,,1*5C
$GAGSV,2,1,05,01,50,034,42,04,77,135,45,09,46,318,41,24,20,230,38,7*78
$GAGSV,2,2,05,31,72,256,00,,,,,,,,,,,,,7*40
$GPRMC,031008.20,A,3037.8100675,N,10404.9211203,E,0.06,0.00,200319,0.0,E,D*36
$GPGGA,031008.20,3037.8100675,N,10404.9211203,E,4,20,1.0,486.992,M,-41.789,M,2.2,*6B
$GPGSA,A,3,03,14,16,22,26,31,32,,,,,,3.7,1.3,3.4,1*28
$GAGSA,A,3,01,04,09,24,31,,,,,,,,3.2,2.0,2.5,3*30
$GPGSV,2,1,07,03,34,302,46,14,61,083,46,16,34,203,44,22,44,277,44,1*6F
$GPGSV,2,2,07,26,68,197,50,31,57,015,48,32,47,107,47,,,,,1*5C
$GAGSV,2,1,05,01,50,034,42,04,77,135,45,09,46,318,41,24,20,230,38,7*78
$GAGSV,2,2,05,31,72,256,00,,,,,,,,,,,,,7*40
$GPRMC,031008.40,A,3037.8100668,N,10404.9211194,E,0.04,0.00,200319,0.0,E,D*33
$GPGGA,031008.40,3037.8100668,N,10404.9211194,E,4,20,1.0,486.992,M,-41.789,M,2.4,*6A
$GPGSA,A,3,03,14,16,22,26,31,32,,,,,,3.7,1.3,3.4,1*28
$GAGSA,A,3,01,04,09,24,31,,,,,,,,3.2,2.0,2.5,3*30
$GPGSV,2,1,07,03,34,302,46,14,61,083,46,16,34,203,44,22,44,277,44,1*6F
$GPGSV,2,2,07,26,68,197,50,31,57,015,48,32,47,107,47,,,,,1*5C
$GAGSV,2,1,05,01,50,034,42,04,77,135,45,09,46,318,41,24,20,230,38,7*78
$GAGSV,2,2,05,31,72,256,00,,,,,,,,,,,,,7*40
$GPRMC,031008.60,A,3037.8100671,N,10404.9211199,E,0.07,0.00,200319,0.0,E,D*37
$GPGGA,031008.60,3037.8100671,N,10404.9211199,E,4,20,1.0,486.991,M,-41.789,M,2.6,*6C
$GPGSA,A,3,03,14,16,22,26,31,32,,,,,,3.7,1.3,3.4,1*28
$GAGSA,A,3,01,04,09,24,31,,,,,,,,3.2,2.0,2.5,3*30
$GPGSV,2,1,07,03,34,302,46,14,61,083,46,16,34,203,44,22,44,277,44,1*6F
$GPGSV,2,2,07,26,68,197,50,31,57,015,48,32,47,107,47,,,,,1*5C
$GAGSV,2,1,05,01,50,034,42,04,77,135,45,09,46,318,41,24,20,230,38,7*78
$GAGSV,2,2,05,31,72,256,00,,,,,,,,,,,,,7*40
$GPRMC,031008.80,A,3037.8100669,N,10404.9211205,E,0.10,0.00,200319,0.0,E,D*30
$GPGGA,031008.80,3037.8100669,N,10404.9211205,E,4,20,1.0,486.991,M,-41.789,M,2.8,*63
$GPGSA,A,3,03,14,16,22,26,31,32,,,,,,3.7,1.3,3.4,1*28
$GAGSA,A,3,01,04,09,24,31,,,,,,,,3.2,2.0,2.5,3*30
$GPGSV,2,1,07,03,34,302,46,14,61,083,46,16,34,203,44,22,44,277,44,1*6F
$GPGSV,2,2,07,26,68,197,50,31,57,015,48,32,47,107,47,,,,,1*5C
$GAGSV,2,1,05,01,50,034,42,04,77,135,45,09,46,318,42,24,20,230,38,7*7B
$GAGSV,2,2,05,31,72,256,00,,,,,,,,,,,,,7*40
$GPRMC,031009.00,A,3037.8100678,N,10404.9211209,E,0.10,0.00,200319,0.0,E,D*35
$GPGGA,031009.00,3037.8100678,N,10404.9211209,E,4,20,1.0,486.990,M,-41.789,M,3.0,*6E
$GPGSA,A,3,03,14,16,22,26,31,32,,,,,,3.7,1.3,3.4,1*28
$GAGSA,A,3,01,04,09,24,31,,,,,,,,3.2,2.0,2.5,3*30
$GPGSV,2,1,07,03,34,302,46,14,61,083,46,16,34,203,44,22,44,277,44,1*6F
$GPGSV,2,2,07,26,68,197,50,31,57,015,48,32,47,107,47,,,,,1*5C
$GAGSV,2,1,05,01,50,034,42,04,77,135,45,09,46,318,42,24,20,230,38,7*7B
$GAGSV,2,2,05,31,72,256,00,,,,,,,,,,,,,7*40
$GPRMC,031009.20,A,3037.8100674,N,10404.9211203,E,0.07,0.00,200319,0.0,E,D*37
$GPGGA,031009.20,3037.8100674,N,10404.9211203,E,4,20,1.0,486.994,M,-41.789,M,1.2,*6E
$GPGSA,A,3,03,14,16,22,26,31,32,,,,,,3.7,1.3,3.4,1*28
$GAGSA,A,3,01,04,09,24,31,,,,,,,,3.2,2.0,2.5,3*30
$GPGSV,2,1,07,03,34,302,46,14,61,083,45,16,34,203,44,22,44,277,44,1*6C
$GPGSV,2,2,07,26,68,197,50,31,57,015,48,32,47,107,46,,,,,1*5D
$GAGSV,2,1,05,01,50,034,42,04,77,135,45,09,46,318,41,24,20,230,38,7*78
$GAGSV,2,2,05,31,72,256,00,,,,,,,,,,,,,7*40
$GPRMC,031009.40,A,3037.8100674,N,10404.9211204,E,0.05,0.00,200319,0.0,E,D*34
$GPGGA,031009.40,3037.8100674,N,10404.9211204,E,4,20,1.0,486.992,M,-41.789,M,1.4,*6F
$GPGSA,A,3,03,14,16,22,26,31,32,,,,,,3.7,1.3,3.4,1*28
$GAGSA,A,3,01,04,09,24,31,,,,,,,,3.2,2.0,2.5,3*30
$GPGSV,2,1,07,03,34,302,46,14,61,083,46,16,34,203,44,22,44,277,44,1*6F
$GPGSV,2,2,07,26,68,197,50,31,57,015,48,32,47,107,46,,,,,1*5D
$GAGSV,2,1,05,01,50,034,42,04,77,135,45,09,46,318,41,24,20,230,38,7*78
$GAGSV,2,2,05,31,72,256,00,,,,,,,,,,,,,7*40
$GPRMC,031009.60,A,3037.8100668,N,10404.9211204,E,0.07,0.00,200319,0.0,E,D*39
$GPGGA,031009.60,3037.8100668,N,10404.9211204,E,4,20,1.0,486.991,M,-41.789,M,1.6,*61
$GPGSA,A,3,03,14,16,22,26,31,32,,,,,,3.7,1.3,3.4,1*28
$GAGSA,A,3,01,04,09,24,31,,,,,,,,3.2,2.0,2.5,3*30
$GPGSV,2,1,07,03,34,302,46,14,61,083,46,16,34,203,44,22,44,277,44,1*6F
$GPGSV,2,2,07,26,68,197,50,31,57,015,48,32,47,107,46,,,,,1*5D
$GAGSV,2,1,05,01,50,034,42,04,77,135,45,09,46,318,41,24,20,230,38,7*78
$GAGSV,2,2,05,31,72,256,00,,,,,,,,,,,,,7*40
$GPRMC,031009.80,A,3037.8100670,N,10404.9211200,E,0.03,0.00,200319,0.0,E,D*3E
$GPGGA,031009.80,3037.8100670,N,10404.9211200,E,4,20,1.0,486.992,M,-41.789,M,1.8,*6F
$GPGSA,A,3,03,14,16,22,26,31,32,,,,,,3.7,1.3,3.4,1*28
$GAGSA,A,3,01,04,09,24,31,,,,,,,,3.2,2.0,2.5,3*30
$GPGSV,2,1,07,03,34,302,46,14,61,083,46,16,34,203,44,22,44,277,44,1*6F
$GPGSV,2,2,07,26,68,197,50,31,57,015,48,32,47,107,46,,,,,1*5D
$GAGSV,2,1,05,01,50,034,42,04,77,135,45,09,46,318,41,24,20,230,38,7*78
$GAGSV,2,2,05,31,72,256,00,,,,,,,,,,,,,7*40
$GPRMC,031010.00,A,3037.8100671,N,10404.9211193,E,0.05,0.00,200319,0.0,E,D*30
$GPGGA,031010.00,3037.8100671,N,10404.9211193,E,4,20,1.0,486.994,M,-41.789,M,2.0,*6A
$GPGSA,A,3,03,14,16,22,26,31,32,,,,,,3.7,1.3,3.4,1*28
$GAGSA,A,3,01,04,09,24,31,,,,,,,,3.2,2.0,2.5,3*30
$GPGSV,2,1,07,03,34,302,46,14,61,083,46,16,34,203,44,22,44,277,44,1*6F
$GPGSV,2,2,07,26,68,197,50,31,57,015,48,32,47,107,47,,,,,1*5C
$GAGSV,2,1,05,01,50,034,42,04,77,135,45,09,46,318,41,24,20,230,38,7*78
$GAGSV,2,2,05,31,72,256,00,,,,,,,,,,,,,7*40
$GPRMC,031010.20,A,3037.8100670,N,10404.9211198,E,0.12,0.00,200319,0.0,E,D*3E
$GPGGA,031010.20,3037.8100670,N,10404.9211198,E,4,20,1.0,486.993,M,-41.789,M,2.2,*67
$GPGSA,A,3,03,14,16,22,26,31,32,,,,,,3.7,1.3,3.4,1*28
$GAGSA,A,3,01,04,09,24,31,,,,,,,,3.2,2.0,2.5,3*30
$GPGSV,2,1,07,03,34,302,46,14,61,083,45,16,34,203,44,22,44,277,44,1*6C
$GPGSV,2,2,07,26,68,197,50,31,57,015,48,32,47,107,47,,,,,1*5C
$GAGSV,2,1,05,01,50,034,42,04,77,135,45,09,46,318,41,24,20,230,38,7*78
$GAGSV,2,2,05,31,72,256,00,,,,,,,,,,,,,7*40
$GPRMC,031010.40,A,3037.8100664,N,10404.9211191,E,0.05,0.00,200319,0.0,E,D*32
$GPGGA,031010.40,3037.8100664,N,10404.9211191,E,4,20,1.0,486.995,M,-41.789,M,2.4,*6D
$GPGSA,A,3,03,14,16,22,26,31,32,,,,,,3.7,1.3,3.4,1*28
$GAGSA,A,3,01,04,09,24,31,,,,,,,,3.2,2.0,2.5,3*30
$GPGSV,2,1,07,03,34,302,46,14,61,083,45,16,34,203,44,22,44,277,44,1*6C
$GPGSV,2,2,07,26,68,197,50,31,57,015,48,32,47,107,47,,,,,1*5C
$GAGSV,2,1,05,01,50,034,42,04,77,135,45,09,46,318,41,24,20,230,38,7*78
$GAGSV,2,2,05,31,72,256,00,,,,,,,,,,,,,7*40
$GPRMC,031010.60,A,3037.8100665,N,10404.9211198,E,0.10,0.00,200319,0.0,E,D*3C
$GPGGA,031010.60,3037.8100665,N,10404.9211198,E,4,20,1.0,486.996,M,-41.789,M,2.6,*66
$GPGSA,A,3,03,14,16,22,26,31,32,,,,,,3.7,1.3,3.4,1*28
$GAGSA,A,3,01,04,09,24,31,,,,,,,,3.2,2.0,2.5,3*30
$GPGSV,2,1,07,03,34,302,46,14,61,083,45,16,34,203,44,22,44,277,44,1*6C
$GPGSV,2,2,07,26,68,197,50,31,57,015,48,32,47,107,47,,,,,1*5C
$GAGSV,2,1,05,01,50,034,42,04,77,135,45,09,46,318,41,24,20,230,38,7*78
$GAGSV,2,2,05,31,72,256,00,,,,,,,,,,,,,7*40
$GPRMC,031010.80,A,3037.8100669,N,10404.9211198,E,0.06,0.00,200319,0.0,E,D*39
$GPGGA,031010.80,3037.8100669,N,10404.9211198,E,4,20,1.0,486.995,M,-41.789,M,2.8,*69
$GPGSA,A,3,03,14,16,22,26,31,32,,,,,,3.7,1.3,3.4,1*28
$GAGSA,A,3,01,04,09,24,31,,,,,,,,3.2,2.0,2.5,3*30
$GPGSV,2,1,07,03,34,302,46,14,61,083,45,16,34,203,44,22,44,277,44,1*6C
$GPGSV,2,2,07,26,68,197,50,31,57,015,48,32,47,107,47,,,,,1*5C
$GAGSV,2,1,05,01,50,034,42,04,77,135,45,09,46,318,41,24,20,230,38,7*78
$GAGSV,2,2,05,31,72,256,00,,,,,,,,,,,,,7*40
$GPRMC,031011.00,A,3037.8100667,N,10404.9211200,E,0.04,0.00,200319,0.0,E,D*3E
$GPGGA,031011.00,3037.8100667,N,10404.9211200,E,4,20,1.0,486.996,M,-41.789,M,3.0,*66
$GPGSA,A,3,03,14,16,22,26,31,32,,,,,,3.7,1.3,3.4,1*28
$GAGSA,A,3,01,04,09,24,31,,,,,,,,3.2,2.0,2.5,3*30
$GPGSV,2,1,07,03,34,302,46,14,61,083,45,16,34,203,44,22,44,277,44,1*6C
$GPGSV,2,2,07,26,68,197,50,31,57,015,48,32,47,107,47,,,,,1*5C
$GAGSV,2,1,05,01,50,034,42,04,77,135,45,09,46,318,41,24,20,230,38,7*78
$GAGSV,2,2,05,31,72,256,00,,,,,,,,,,,,,7*40
$GPRMC,031011.20,A,3037.8100676,N,10404.9211210,E,0.08,0.00,200319,0.0,E,D*31
$GPGGA,031011.20,3037.8100676,N,10404.9211210,E,4,20,1.0,486.994,M,-41.789,M,1.2,*67
$GPGSA,A,3,03,14,16,22,26,31,32,,,,,,3.7,1.3,3.4,1*28
$GAGSA,A,3,01,04,09,24,31,,,,,,,,3.2,2.0,2.5,3*30
$GPGSV,2,1,07,03,34,302,46,14,61,083,45,16,34,203,44,22,44,277,44,1*6C
$GPGSV,2,2,07,26,68,197,50,31,57,015,48,32,47,107,47,,,,,1*5C
$GAGSV,2,1,05,01,50,034,42,04,77,135,45,09,46,318,41,24,20,230,38,7*78
$GAGSV,2,2,05,31,72,256,00,,,,,,,,,,,,,7*40
$GPRMC,031011.40,A,3037.8100676,N,10404.9211211,E,0.03,0.00,200319,0.0,E,D*3D
$GPGGA,031011.40,3037.8100676,N,10404.9211211,E,4,20,1.0,486.991,M,-41.789,M,1.4,*63
$GPGSA,A,3,03,14,16,22,26,31,32,,,,,,3.7,1.3,3.4,1*28
$GAGSA,A,3,01,04,09,24,31,,,,,,,,3.2,2.0,2.5,3*30
$GPGSV,2,1,07,03,34,302,46,14,61,083,46,16,34,203,44,22,44,277,44,1*6F
$GPGSV,2,2,07,26,68,197,50,31,57,015,48,32,47,107,46,,,,,1*5D
$GAGSV,2,1,05,01,50,034,42,04,77,135,45,09,46,318,41,24,20,230,38,7*78
$GAGSV,2,2,05,31,72,256,00,,,,,,,,,,,,,7*40
$GPRMC,031011.60,A,3037.8100679,N,10404.9211216,E,0.12,0.00,200319,0.0,E,D*37
$GPGGA,031011.60,3037.8100679,N,10404.9211216,E,4,20,1.0,486.989,M,-41.789,M,1.6,*62
$GPGSA,A,3,03,14,16,22,26,31,32,,,,,,3.7,1.3,3.4,1*28
$GAGSA,A,3,01,04,09,24,31,,,,,,,,3.2,2.0,2.5,3*30
$GPGSV,2,1,07,03,34,302,46,14,61,083,46,16,34,203,44,22,44,277,44,1*6F
$GPGSV,2,2,07,26,68,197,50,31,57,015,48,32,47,107,46,,,,,1*5D
$GAGSV,2,1,05,01,50,034,42,04,77,135,45,09,46,318,41,24,20,230,38,7*78
$GAGSV,2,2,05,31,72,256,00,,,,,,,,,,,,,7*40
$GPRMC,031011.80,A,3037.8100670,N,10404.9211209,E,0.02,0.00,200319,0.0,E,D*3F
$GPGGA,031011.80,3037.8100670,N,10404.9211209,E,4,20,1.0,486.990,M,-41.789,M,1.8,*6D
$GPGSA,A,3,03,14,16,22,26,31,32,,,,,,3.7,1.3,3.4,1*28
$GAGSA,A,3,01,04,09,24,31,,,,,,,,3.2,2.0,2.5,3*30
$GPGSV,2,1,07,03,34,302,46,14,61,083,46,16,34,203,44,22,44,277,44,1*6F
$GPGSV,2,2,07,26,68,197,50,31,57,015,48,32,47,107,46,,,,,1*5D
$GAGSV,2,1,05,01,50,034,42,04,77,135,45,09,46,318,42,24,20,230,38,7*7B
$GAGSV,2,2,05,31,72,256,00,,,,,,,,,,,,,7*40
$GPRMC,031012.00,A,3037.8100663,N,10404.9211212,E,0.03,0.00,200319,0.0,E,D*3D
$GPGGA,031012.00,3037.8100663,N,10404.9211212,E,4,20,1.0,486.988,M,-41.789,M,2.0,*6C
$GPGSA,A,3,03,14,16,22,26,31,32,,,,,,3.7,1.3,3.4,1*28
$GAGSA,A,3,01,04,09,24,31,,,,,,,,3.2,2.0,2.5,3*30
$GPGSV,2,1,07,03,34,302,46,14,61,083,46,16,34,203,44,22,44,277,44,1*6F
$GPGSV,2,2,07,26,68,197,50,31,57,015,48,32,47,107,46,,,,,1*5D
$GAGSV,2,1,05,01,50,034,42,04,77,135,45,09,46,318,42,24,20,230,38,7*7B
$GAGSV,2,2,05,31,72,256,00,,,,,,,,,,,,,7*40
$GPRMC,031012.20,A,3037.8100670,N,10404.9211221,E,0.04,0.00,200319,0.0,E,D*3A
$GPGGA,031012.20,3037.8100670,N,10404.9211221,E,4,20,1.0,486.986,M,-41.789,M,2.2,*60
$GPGSA,A,3,03,14,16,22,26,31,32,,,,,,3.7,1.3,3.4,1*28
$GAGSA,A,3,01,04,09,24,31,,,,,,,,3.2,2.0,2.5,3*30
$GPGSV,2,1,07,03,34,302,46,14,61,083,46,16,34,203,44,22,44,277,44,1*6F
$GPGSV,2,2,07,26,68,197,50,31,57,015,48,32,47,107,46,,,,,1*5D
$GAGSV,2,1,05,01,50,034,42,04,77,135,45,09,46,318,42,24,20,230,38,7*7B
$GAGSV,2,2,05,31,72,256,00,,,,,,,,,,,,,7*40
$GPRMC,031012.40,A,3037.8100664,N,10404.9211221,E,0.02,0.00,200319,0.0,E,D*3F
$GPGGA,031012.40,3037.8100664,N,10404.9211221,E,4,20,1.0,486.986,M,-41.789,M,2.4,*65
$GPGSA,A,3,03,14,16,22,26,31,32,,,,,,3.7,1.3,3.4,1*28
$GAGSA,A,3,01,04,09,24,31,,,,,,,,3.2,2.0,2.5,3*30
$GPGSV,2,1,07,03,34,302,46,14,61,083,46,16,34,203,44,22,44,277,44,1*6F
$GPGSV,2,2,07,26,68,197,50,31,57,015,48,32,47,107,46,,,,,1*5D
$GAGSV,2,1,05,01,49,034,42,04,77,135,45,09,46,318,42,24,20,230,39,7*72
$GAGSV,2,2,05,31,72,256,00,,,,,,,,,,,,,7*40
$GPRMC,031012.60,A,3037.8100663,N,10404.9211223,E,0.03,0.00,200319,0.0,E,D*39
$GPGGA,031012.60,3037.8100663,N,10404.9211223,E,4,20,1.0,486.987,M,-41.789,M,2.6,*61
$GPGSA,A,3,03,14,16,22,26,31,32,,,,,,3.7,1.3,3.4,1*28
$GAGSA,A,3,01,04,09,24,31,,,,,,,,3.2,2.0,2.5,3*30
$GPGSV,2,1,07,03,34,302,46,14,61,083,46,16,34,203,44,22,44,277,44,1*6F
$GPGSV,2,2,07,26,68,197,50,31,57,015,48,32,47,107,47,,,,,1*5C
$GAGSV,2,1,05,01,49,034,42,04,77,135,45,09,46,318,42,24,20,230,39,7*72
$GAGSV,2,2,05,31,72,256,00,,,,,,,,,,,,,7*40
$GPRMC,031012.80,A,3037.8100661,N,10404.9211217,E,0.04,0.00,200319,0.0,E,D*35
$GPGGA,031012.80,3037.8100661,N,10404.9211217,E,4,20,1.0,486.986,M,-41.789,M,2.8,*65
$GPGSA,A,3,03,14,16,22,26,31,32,,,,,,3.7,1.3,3.4,1*28
$GAGSA,A,3,01,04,09,24,31,,,,,,,,3.2,2.0,2.5,3*30
$GPGSV,2,1,07,03,34,302,46,14,61,083,46,16,34,203,44,22,44,277,44,1*6F
$GPGSV,2,2,07,26,68,197,50,31,57,015,48,32,47,107,47,,,,,1*5C
$GAGSV,2,1,05,01,49,034,42,04,77,135,45,09,46,318,42,24,20,230,39,7*72
$GAGSV,2,2,05,31,72,256,00,,,,,,,,,,,,,7*40
$GPRMC,031013.00,A,3037.8100670,N,10404.9211199,E,0.04,0.00,200319,0.0,E,D*39
$GPGGA,031013.00,3037.8100670,N,10404.9211199,E,4,20,1.0,486.991,M,-41.789,M,1.0,*64
$GPGSA,A,3,03,14,16,22,26,31,32,,,,,,3.7,1.3,3.4,1*28
$GAGSA,A,3,01,04,09,24,31,,,,,,,,3.2,2.0,2.5,3*30
$GPGSV,2,1,07,03,34,302,46,14,61,083,46,16,34,203,44,22,44,277,44,1*6F
$GPGSV,2,2,07,26,68,197,50,31,57,015,48,32,47,107,47,,,,,1*5C
$GAGSV,2,1,05,01,49,034,42,04,77,135,45,09,46,318,42,24,20,230,39,7*72
$GAGSV,2,2,05,31,72,256,00,,,,,,,,,,,,,7*40
$GPRMC,031013.20,A,3037.8100673,N,10404.9211206,E,0.11,0.00,200319,0.0,E,D*39
$GPGGA,031013.20,3037.8100673,N,10404.9211206,E,4,20,1.0,486.991,M,-41.789,M,1.2,*62
$GPGSA,A,3,03,14,16,22,26,31,32,,,,,,3.7,1.3,3.4,1*28
$GAGSA,A,3,01,04,09,24,31,,,,,,,,3.2,2.0,2.5,3*30
$GPGSV,2,1,07,03,34,302,46,14,61,083,46,16,34,203,44,22,44,277,44,1*6F
$GPGSV,2,2,07,26,68,197,50,31,57,015,48,32,47,107,47,,,,,1*5C
$GAGSV,2,1,05,01,49,034,42,04,77,135,45,09,46,318,42,24,20,230,39,7*72
$GAGSV,2,2,05,31,72,256,00,,,,,,,,,,,,,7*40
$GPRMC,031013.40,A,3037.8100674,N,10404.9211208,E,0.02,0.00,200319,0.0,E,D*34
$GPGGA,031013.40,3037.8100674,N,10404.9211208,E,4,20,1.0,486.991,M,-41.789,M,1.4,*6B
$GPGSA,A,3,03,14,16,22,26,31,32,,,,,,3.7,1.3,3.4,1*28
$GAGSA,A,3,01,04,09,24,31,,,,,,,,3.2,2.0,2.5,3*30
$GPGSV,2,1,07,03,34,302,46,14,61,083,46,16,34,203,44,22,44,277,44,1*6F
$GPGSV,2,2,07,26,68,197,50,31,57,015,48,32,47,107,47,,,,,1*5C
$GAGSV,2,1,05,01,49,034,42,04,77,135,45,09,46,318,42,24,20,230,39,7*72
$GAGSV,2,2,05,31,72,256,00,,,,,,,,,,,,,7*40
$GPRMC,031013.60,A,3037.8100674,N,10404.9211208,E,0.10,0.00,200319,0.0,E,D*35
$GPGGA,031013.60,3037.8100674,N,10404.9211208,E,4,20,1.0,486.992,M,-41.789,M,1.6,*68
$GPGSA,A,3,03,14,16,22,26,31,32,,,,,,3.7,1.3,3.4,1*28
$GAGSA,A,3,01,04,09,24,31,,,,,,,,3.2,2.0,2.5,3*30
$GPGSV,2,1,07,03,34,302,46,14,61,083,46,16,34,203,44,22,44,277,44,1*6F
$GPGSV,2,2,07,26,68,197,50,31,57,015,48,32,47,107,47,,,,,1*5C
$GAGSV,2,1,05,01,49,034,42,04,77,135,45,09,46,318,42,24,20,230,39,7*72
$GAGSV,2,2,05,31,72,256,00,,,,,,,,,,,,,7*40
$GPRMC,031013.80,A,3037.8100677,N,10404.9211214,E,0.05,0.00,200319,0.0,E,D*31
$GPGGA,031013.80,3037.8100677,N,10404.9211214,E,4,20,1.0,486.990,M,-41.789,M,1.8,*64
$GPGSA,A,3,03,14,16,22,26,31,32,,,,,,3.7,1.3,3.4,1*28
$GAGSA,A,3,01,04,09,24,31,,,,,,,,3.2,2.0,2.5,3*30
$GPGSV,2,1,07,03,34,302,46,14,61,083,46,16,34,203,44,22,44,277,44,1*6F
$GPGSV,2,2,07,26,68,197,50,31,57,015,48,32,47,107,47,,,,,1*5C
$GAGSV,2,1,05,01,49,034,42,04,77,135,45,09,46,318,43,24,20,230,39,7*73
$GAGSV,2,2,05,31,72,256,00,,,,,,,,,,,,,7*40
$GPRMC,031014.00,A,3037.8100673,N,10404.9211209,E,0.09,0.00,200319,0.0,E,D*3A
$GPGGA,031014.00,3037.8100673,N,10404.9211209,E,4,20,1.0,486.990,M,-41.789,M,2.0,*68
$GPGSA,A,3,03,14,16,22,26,31,32,,,,,,3.7,1.3,3.4,1*28
$GAGSA,A,3,01,04,09,24,31,,,,,,,,3.2,2.0,2.5,3*30
$GPGSV,2,1,07,03,34,302,46,14,61,083,46,16,34,203,44,22,44,277,44,1*6F
$GPGSV,2,2,07,26,68,197,50,31,57,015,48,32,47,107,47,,,,,1*5C
$GAGSV,2,1,05,01,49,034,42,04,77,135,45,09,46,318,43,24,20,230,39,7*73
$GAGSV,2,2,05,31,72,256,00,,,,,,,,,,,,,7*40
$GPRMC,031014.20,A,3037.8100674,N,10404.9211211,E,0.06,0.00,200319,0.0,E,D*39
$GPGGA,031014.20,3037.8100674,N,10404.9211211,E,4,20,1.0,486.989,M,-41.789,M,2.2,*6E
$GPGSA,A,3,03,14,16,22,26,31,32,,,,,,3.7,1.3,3.4,1*28
$GAGSA,A,3,01,04,09,24,31,,,,,,,,3.2,2.0,2.5,3*30
$GPGSV,2,1,07,03,34,302,46,14,61,083,46,16,34,203,44,22,44,277,44,1*6F
$GPGSV,2,2,07,26,68,197,50,31,57,015,48,32,47,107,47,,,,,1*5C
$GAGSV,2,1,05,01,49,034,42,04,77,135,45,09,46,318,43,24,20,230,38,7*72
$GAGSV,2,2,05,31,72,256,00,,,,,,,,,,,,,7*40
$GPRMC,031014.40,A,3037.8100681,N,10404.9211214,E,0.06,0.00,200319,0.0,E,D*30
$GPGGA,031014.40,3037.8100681,N,10404.9211214,E,4,20,1.0,486.990,M,-41.789,M,2.4,*69
$GPGSA,A,3,03,14,16,22,26,31,32,,,,,,3.7,1.3,3.4,1*28
$GAGSA,A,3,01,04,09,24,31,,,,,,,,3.2,2.0,2.5,3*30
$GPGSV,2,1,07,03,34,302,46,14,61,083,46,16,34,203,44,22,44,277,44,1*6F
$GPGSV,2,2,07,26,68,197,50,31,57,015,48,32,47,107,47,,,,,1*5C
$GAGSV,2,1,05,01,49,034,41,04,77,135,45,09,46,318,43,24,20,230,38,7*71
$GAGSV,2,2,05,31,72,256,00,,,,,,,,,,,,,7*40
$GPRMC,031014.60,A,3037.8100677,N,10404.9211208,E,0.05,0.00,200319,0.0,E,D*35
$GPGGA,031014.60,3037.8100677,N,10404.9211208,E,4,20,1.0,486.991,M,-41.789,M,2.6,*6C
$GPGSA,A,3,03,14,16,22,26,31,32,,,,,,3.7,1.3,3.4,1*28
$GAGSA,A,3,01,04,09,24,31,,,,,,,,3.2,2.0,2.5,3*30
$GPGSV,2,1,07,03,34,302,46,14,61,083,46,16,34,203,44,22,44,277,44,1*6F
$GPGSV,2,2,07,26,68,197,50,31,57,015,48,32,47,107,47,,,,,1*5C
$GAGSV,2,1,05,01,49,034,41,04,77,135,45,09,46,318,43,24,20,230,38,7*71
$GAGSV,2,2,05,31,72,256,00,,,,,,,,,,,,,7*40
$GPRMC,031014.80,A,3037.8100672,N,10404.9211206,E,0.04,0.00,200319,0.0,E,D*31
$GPGGA,031014.80,3037.8100672,N,10404.9211206,E,4,20,1.0,486.992,M,-41.789,M,2.8,*64
$GPGSA,A,3,03,14,16,22,26,31,32,,,,,,3.7,1.3,3.4,1*28
$GAGSA,A,3,01,04,09,24,31,,,,,,,,3.2,2.0,2.5,3*30
$GPGSV,2,1,07,03,34,302,46,14,61,083,46,16,34,203,44,22,44,277,44,1*6F
$GPGSV,2,2,07,26,68,197,50,31,57,015,48,32,47,107,46,,,,,1*5D
$GAGSV,2,1,05,01,49,034,41,04,77,135,45,09,46,318,43,24,20,230,38,7*71
$GAGSV,2,2,05,31,72,256,00,,,,,,,,,,,,,7*40
$GPRMC,031015.00,A,3037.8100673,N,10404.9211209,E,0.03,0.00,200319,0.0,E,D*31
$GPGGA,031015.00,3037.8100673,N,10404.9211209,E,4,20,1.0,486.990,M,-41.789,M,3.0,*68
$GPGSA,A,3,03,14,16,22,26,31,32,,,,,,3.7,1.3,3.4,1*28
$GAGSA,A,3,01,04,09,24,31,,,,,,,,3.2,2.0,2.5,3*30
$GPGSV,2,1,07,03,34,302,46,14,61,083,46,16,34,203,44,22,44,277,44,1*6F
$GPGSV,2,2,07,26,68,197,50,31,57,015,48,32,47,107,46,,,,,1*5D
$GAGSV,2,1,05,01,49,034,41,04,77,135,45,09,46,318,43,24,20,230,38,7*71
$GAGSV,2,2,05,31,72,256,00,,,,,,,,,,,,,7*40
$GPRMC,031015.20,A,3037.8100673,N,10404.9211211,E,0.02,0.00,200319,0.0,E,D*3B
$GPGGA,031015.20,3037.8100673,N,10404.9211211,E,4,20,1.0,486.988,M,-41.789,M,1.2,*6A
$GPGSA,A,3,03,14,16,22,26,31,32,,,,,,3.7,1.3,3.4,1*28
$GAGSA,A,3,01,04,09,24,31,,,,,,,,3.2,2.0,2.5,3*30
$GPGSV,2,1,07,03,34,302,46,14,61,083,46,16,34,203,44,22,44,277,44,1*6F
$GPGSV,2,2,07,26,68,197,50,31,57,015,48,32,47,107,46,,,,,1*5D
$GAGSV,2,1,05,01,49,034,41,04,77,135,45,09,46,318,43,24,20,230,38,7*71
$GAGSV,2,2,05,31,72,256,00,,,,,,,,,,,,,7*40
$GPRMC,031015.40,A,3037.8100672,N,10404.9211216,E,0.04,0.00,200319,0.0,E,D*3D
$GPGGA,031015.40,3037.8100672,N,10404.9211216,E,4,20,1.0,486.985,M,-41.789,M,1.4,*61
$GPGSA,A,3,03,14,16,22,26,31,32,,,,,,3.7,1.3,3.4,1*28
$GAGSA,A,3,01,04,09,24,31,,,,,,,,3.2,2.0,2.5,3*30
$GPGSV,2,1,07,03,34,302,46,14,61,083,46,16,34,203,44,22,44,277,44,1*6F
$GPGSV,2,2,07,26,68,197,50,31,57,015,48,32,47,107,46,,,,,1*5D
$GAGSV,2,1,05,01,49,034,41,04,77,135,45,09,46,318,43,24,20,230,38,7*71
$GAGSV,2,2,05,31,72,256,00,,,,,,,,,,,,,7*40
$GPRMC,031015.60,A,3037.8100671,N,10404.9211218,E,0.02,0.00,200319,0.0,E,D*34
$GPGGA,031015.60,3037.8100671,N,10404.9211218,E,4,20,1.0,486.985,M,-41.789,M,1.6,*6C
$GPGSA,A,3,03,14,16,22,26,31,32,,,,,,3.7,1.3,3.4,1*28
$GAGSA,A,3,01,04,09,24,31,,,,,,,,3.2,2.0,2.5,3*30
$GPGSV,2,1,07,03,34,302,46,14,61,083,46,16,34,203,44,22,44,277,44,1*6F
$GPGSV,2,2,07,26,68,197,50,31,57,015,48,32,47,107,46,,,,,1*5D
$GAGSV,2,1,05,01,49,034,41,04,77,135,45,09,46,318,43,24,20,230,38,7*71
$GAGSV,2,2,05,31,72,256,00,,,,,,,,,,,,,7*40
$GPRMC,031015.80,A,3037.8100673,N,10404.9211213,E,0.04,0.00,200319,0.0,E,D*35
$GPGGA,031015.80,3037.8100673,N,10404.9211213,E,4,20,1.0,486.985,M,-41.789,M,1.8,*65
$GPGSA,A,3,03,14,16,22,26,31,32,,,,,,3.7,1.3,3.4,1*28
$GAGSA,A,3,01,04,09,24,31,,,,,,,,3.2,2.0,2.5,3*30
$GPGSV,2,1,07,03,34,302,46,14,61,083,46,16,34,203,44,22,44,277,44,1*6F
$GPGSV,2,2,07,26,68,197,50,31,57,015,48,32,47,107,46,,,,,1*5D
$GAGSV,2,1,05,01,49,034,41,04,77,135,45,09,46,318,43,24,20,230,38,7*71
$GAGSV,2,2,05,31,72,256,00,,,,,,,,,,,,,7*40
$GPRMC,031016.00,A,3037.8100674,N,10404.9211209,E,0.02,0.00,200319,0.0,E,D*34
$GPGGA,031016.00,3037.8100674,N,10404.9211209,E,4,20,1.0,486.986,M,-41.789,M,2.0,*6A
$GPGSA,A,3,03,14,16,22,26,31,32,,,,,,3.7,1.3,3.4,1*28
$GAGSA,A,3,01,04,09,24,31,,,,,,,,3.2,2.0,2.5,3*30
$GPGSV,2,1,07,03,34,302,46,14,61,083,46,16,34,203,43,22,44,277,44,1*68
$GPGSV,2,2,07,26,68,197,50,31,57,015,48,32,47,107,46,,,,,1*5D
$GAGSV,2,1,05,01,49,034,41,04,77,135,45,09,46,318,43,24,20,230,38,7*71
$GAGSV,2,2,05,31,72,256,00,,,,,,,,,,,,,7*40
$GPRMC,031016.20,A,3037.8100673,N,10404.9211217,E,0.04,0.00,200319,0.0,E,D*38
$GPGGA,031016.20,3037.8100673,N,10404.9211217,E,4,20,1.0,486.985,M,-41.789,M,2.2,*61
$GPGSA,A,3,03,14,16,22,26,31,32,,,,,,3.7,1.3,3.4,1*28
$GAGSA,A,3,01,04,09,24,31,,,,,,,,3.2,2.0,2.5,3*30
$GPGSV,2,1,07,03,34,302,46,14,61,083,46,16,34,203,43,22,44,277,44,1*68
$GPGSV,2,2,07,26,68,197,50,31,57,015,48,32,47,107,46,,,,,1*5D
$GAGSV,2,1,05,01,49,034,41,04,77,135,45,09,46,318,43,24,20,230,38,7*71
$GAGSV,2,2,05,31,72,256,00,,,,,,,,,,,,,7*40
$GPRMC,031016.40,A,3037.8100675,N,10404.9211213,E,0.06,0.00,200319,0.0,E,D*3E
$GPGGA,031016.40,3037.8100675,N,10404.9211213,E,4,20,1.0,486.985,M,-41.789,M,2.4,*63
$GPGSA,A,3,03,14,16,22,26,31,32,,,,,,3.7,1.3,3.4,1*28
$GAGSA,A,3,01,04,09,24,31,,,,,,,,3.2,2.0,2.5,3*30
$GPGSV,2,1,07,03,34,302,46,14,61,083,46,16,34,203,43,22,44,277,44,1*68
$GPGSV,2,2,07,26,68,197,50,31,57,015,48,32,47,107,46,,,,,1*5D
$GAGSV,2,1,05,01,49,034,41,04,77,135,45,09,46,318,43,24,20,230,38,7*71
$GAGSV,2,2,05,31,72,256,00,,,,,,,,,,,,,7*40
$GPRMC,031016.60,A,3037.8100675,N,10404.9211205,E,0.06,0.00,200319,0.0,E,D*3B
$GPGGA,031016.60,3037.8100675,N,10404.9211205,E,4,20,1.0,486.987,M,-41.789,M,2.6,*66
$GPGSA,A,3,03,14,16,22,26,31,32,,,,,,3.7,1.3,3.4,1*28
$GAGSA,A,3,01,04,09,24,31,,,,,,,,3.2,2.0,2.5,3*30
$GPGSV,2,1,07,03,34,302,46,14,61,083,46,16,34,203,43,22,44,277,44,1*68
$GPGSV,2,2,07,26,68,197,50,31,57,015,48,32,47,107,46,,,,,1*5D
$GAGSV,2,1,05,01,49,034,42,04,77,135,45,09,46,318,43,24,20,230,38,7*72
$GAGSV,2,2,05,31,72,256,00,,,,,,,,,,,,,7*40
$GPRMC,031016.80,A,3037.8100671,N,10404.9211214,E,0.05,0.00,200319,0.0,E,D*32
$GPGGA,031016.80,3037.8100671,N,10404.9211214,E,4,20,1.0,486.985,M,-41.789,M,2.8,*60
$GPGSA,A,3,03,14,16,22,26,31,32,,,,,,3.7,1.3,3.4,1*28
$GAGSA,A,3,01,04,09,24,31,,,,,,,,3.2,2.0,2.5,3*30
$GPGSV,2,1,07,03,34,302,46,14,61,083,46,16,34,203,44,22,44,277,44,1*6F
$GPGSV,2,2,07,26,68,197,50,31,57,015,48,32,47,107,46,,,,,1*5D
$GAGSV,2,1,05,01,49,034,42,04,77,135,45,09,46,318,43,24,20,230,38,7*72
$GAGSV,2,2,05,31,72,256,00,,,,,,,,,,,,,7*40
$GPRMC,031017.00,A,3037.8100670,N,10404.9211217,E,0.07,0.00,200319,0.0,E,D*3B
$GPGGA,031017.00,3037.8100670,N,10404.9211217,E,4,20,1.0,486.986,M,-41.789,M,1.0,*63
$GPGSA,A,3,03,14,16,22,26,31,32,,,,,,3.7,1.3,3.4,1*28
$GAGSA,A,3,01,04,09,24,31,,,,,,,,3.2,2.0,2.5,3*30
$GPGSV,2,1,07,03,34,302,46,14,61,083,46,16,34,203,44,22,44,277,44,1*6F
$GPGSV,2,2,07,26,68,197,50,31,57,015,48,32,47,107,46,,,,,1*5D
$GAGSV,2,1,05,01,49,034,42,04,77,135,45,09,46,318,42,24,20,230,38,7*73
$GAGSV,2,2,05,31,72,256,00,,,,,,,,,,,,,7*40
$GPRMC,031017.20,A,3037.8100670,N,10404.9211217,E,0.04,0.00,200319,0.0,E,D*3A
$GPGGA,031017.20,3037.8100670,N,10404.9211217,E,4,20,1.0,486.988,M,-41.789,M,1.2,*6D
$GPGSA,A,3,03,14,16,22,26,31,32,,,,,,3.7,1.3,3.4,1*28
$GAGSA,A,3,01,04,09,24,31,,,,,,,,3.2,2.0,2.5,3*30
$GPGSV,2,1,07,03,34,302,46,14,61,083,46,16,34,203,44,22,44,277,44,1*6F
$GPGSV,2,2,07,26,68,197,50,31,57,015,48,32,47,107,46,,,,,1*5D
$GAGSV,2,1,05,01,49,034,42,04,77,135,45,09,46,318,42,24,20,230,38,7*73
$GAGSV,2,2,05,31,72,256,00,,,,,,,,,,,,,7*40
$GPRMC,031017.40,A,3037.8100666,N,10404.9211211,E,0.08,0.00,200319,0.0,E,D*31
$GPGGA,031017.40,3037.8100666,N,10404.9211211,E,4,20,1.0,486.986,M,-41.789,M,1.4,*62
$GPGSA,A,3,03,14,16,22,26,31,32,,,,,,3.7,1.3,3.4,1*28
$GAGSA,A,3,01,04,09,24,31,,,,,,,,3.2,2.0,2.5,3*30
$GPGSV,2,1,07,03,34,302,46,14,61,083,46,16,34,203,44,22,44,277,44,1*6F
$GPGSV,2,2,07,26,68,197,50,31,57,015,48,32,47,107,46,,,,,1*5D
$GAGSV,2,1,05,01,49,034,41,04,77,135,45,09,46,318,43,24,20,230,38,7*71
$GAGSV,2,2,05,31,72,256,00,,,,,,,,,,,,,7*40
$GPRMC,031017.60,A,3037.8100670,N,10404.9211213,E,0.05,0.00,200319,0.0,E,D*3B
$GPGGA,031017.60,3037.8100670,N,10404.9211213,E,4,20,1.0,486.985,M,-41.789,M,1.6,*64
$GPGSA,A,3,03,14,16,22,26,31,32,,,,,,3.7,1.3,3.4,1*28
$GAGSA,A,3,01,04,09,24,31,,,,,,,,3.2,2.0,2.5,3*30
$GPGSV,2,1,07,03,34,302,46,14,61,083,46,16,34,203,43,22,44,277,44,1*68
$GPGSV,2,2,07,26,68,197,50,31,57,015,48,32,47,107,46,,,,,1*5D
$GAGSV,2,1,05,01,49,034,41,04,77,135,45,09,46,318,43,24,20,230,38,7*71
$GAGSV,2,2,05,31,72,256,00,,,,,,,,,,,,,7*40
$GPRMC,031017.80,A,3037.8100670,N,10404.9211225,E,0.03,0.00,200319,0.0,E,D*36
$GPGGA,031017.80,3037.8100670,N,10404.9211225,E,4,20,1.0,486.983,M,-41.789,M,1.8,*67
$GPGSA,A,3,03,14,16,22,26,31,32,,,,,,3.7,1.3,3.4,1*28
$GAGSA,A,3,01,04,09,24,31,,,,,,,,3.2,2.0,2.5,3*30
$GPGSV,2,1,07,03,34,302,46,14,61,083,46,16,34,203,43,22,44,277,44,1*68
$GPGSV,2,2,07,26,68,197,50,31,57,015,48,32,47,107,46,,,,,1*5D
$GAGSV,2,1,05,01,49,034,41,04,77,135,45,09,46,318,43,24,20,230,38,7*71
$GAGSV,2,2,05,31,72,256,00,,,,,,,,,,,,,7*40
$GPRMC,031018.00,A,3037.8100663,N,10404.9211220,E,0.05,0.00,200319,0.0,E,D*30
$GPGGA,031018.00,3037.8100663,N,10404.9211220,E,4,20,1.0,486.983,M,-41.789,M,2.0,*6C
$GPGSA,A,3,03,14,16,22,26,31,32,,,,,,3.7,1.3,3.4,1*28
$GAGSA,A,3,01,04,09,24,31,,,,,,,,3.2,2.0,2.5,3*30
$GPGSV,2,1,07,03,34,302,46,14,61,083,46,16,34,203,43,22,44,277,44,1*68
$GPGSV,2,2,07,26,68,197,50,31,57,015,48,32,47,107,46,,,,,1*5D
$GAGSV,2,1,05,01,49,034,41,04,77,135,45,09,46,318,42,24,20,230,38,7*70
$GAGSV,2,2,05,31,72,256,00,,,,,,,,,,,,,7*40
$GPRMC,031018.20,A,3037.8100669,N,10404.9211219,E,0.04,0.00,200319,0.0,E,D*33
$GPGGA,031018.20,3037.8100669,N,10404.9211219,E,4,20,1.0,486.983,M,-41.789,M,2.2,*6C
$GPGSA,A,3,03,14,16,22,26,31,32,,,,,,3.7,1.3,3.4,1*28
$GAGSA,A,3,01,04,09,24,31,,,,,,,,3.2,2.0,2.5,3*30
$GPGSV,2,1,07,03,34,302,46,14,61,083,46,16,34,203,43,22,44,277,44,1*68
$GPGSV,2,2,07,26,68,197,50,31,57,015,48,32,47,107,46,,,,,1*5D
$GAGSV,2,1,05,01,49,034,41,04,77,135,45,09,46,318,42,24,20,230,38,7*70
$GAGSV,2,2,05,31,72,256,00,,,,,,,,,,,,,7*40
$GPRMC,031018.40,A,3037.8100662,N,10404.9211213,E,0.02,0.00,200319,0.0,E,D*32
$GPGGA,031018.40,3037.8100662,N,10404.9211213,E,4,20,1.0,486.984,M,-41.789,M,2.4,*6A
$GPGSA,A,3,03,14,16,22,26,31,32,,,,,,3.7,1.3,3.4,1*28
$GAGSA,A,3,01,04,09,24,31,,,,,,,,3.2,2.0,2.5,3*30
$GPGSV,2,1,07,03,34,302,46,14,61,083,46,16,34,203,43,22,44,277,44,1*68
$GPGSV,2,2,07,26,68,197,50,31,57,015,48,32,47,107,46,,,,,1*5D
$GAGSV,2,1,05,01,49,034,41,04,77,135,45,09,46,318,42,24,20,230,38,7*70
$GAGSV,2,2,05,31,72,256,00,,,,,,,,,,,,,7*40
$GPRMC,031018.60,A,3037.8100671,N,10404.9211224,E,0.05,0.00,200319,0.0,E,D*31
$GPGGA,031018.60,3037.8100671,N,10404.9211224,E,4,20,1.0,486.983,M,-41.789,M,2.6,*6B
$GPGSA,A,3,03,14,16,22,26,31,32,,,,,,3.7,1.3,3.4,1*28
$GAGSA,A,3,01,04,09,24,31,,,,,,,,3.2,2.0,2.5,3*30
$GPGSV,2,1,07,03,34,302,46,14,61,083,46,16,34,203,43,22,44,277,44,1*68
$GPGSV,2,2,07,26,68,197,50,31,57,015,48,32,47,107,46,,,,,1*5D
$GAGSV,2,1,05,01,49,034,41,04,77,135,45,09,46,318,43,24,20,230,38,7*71
$GAGSV,2,2,05,31,72,256,00,,,,,,,,,,,,,7*40
$GPRMC,031018.80,A,3037.8100670,N,10404.9211217,E,0.05,0.00,200319,0.0,E,D*3E
$GPGGA,031018.80,3037.8100670,N,10404.9211217,E,4,20,1.0,486.981,M,-41.789,M,2.8,*68
$GPGSA,A,3,03,14,16,22,26,31,32,,,,,,3.7,1.3,3.4,1*28
$GAGSA,A,3,01,04,09,24,31,,,,,,,,3.2,2.0,2.5,3*30
$GPGSV,2,1,07,03,34,302,46,14,61,083,46,16,34,203,43,22,44,277,44,1*68
$GPGSV,2,2,07,26,68,197,50,31,57,015,48,32,47,107,46,,,,,1*5D
$GAGSV,2,1,05,01,49,034,41,04,77,135,45,09,46,318,42,24,20,230,38,7*70
$GAGSV,2,2,05,31,72,256,00,,,,,,,,,,,,,7*40
$GPRMC,031019.00,A,3037.8100672,N,10404.9211215,E,0.06,0.00,200319,0.0,E,D*34
$GPGGA,031019.00,3037.8100672,N,10404.9211215,E,4,20,1.0,486.989,M,-41.789,M,1.0,*62
$GPGSA,A,3,03,14,16,22,26,31,32,,,,,,3.7,1.3,3.4,1*28
$GAGSA,A,3,01,04,09,24,31,,,,,,,,3.2,2.0,2.5,3*30
$GPGSV,2,1,07,03,34,302,46,14,61,083,46,16,34,203,43,22,44,277,44,1*68
$GPGSV,2,2,07,26,68,197,50,31,57,015,48,32,47,107,46,,,,,1*5D
$GAGSV,2,1,05,01,49,034,41,04,77,135,45,09,46,318,43,24,20,230,38,7*71
$GAGSV,2,2,05,31,72,256,00,,,,,,,,,,,,,7*40
$GPRMC,031019.20,A,3037.8100673,N,10404.9211203,E,0.04,0.00,200319,0.0,E,D*32
$GPGGA,031019.20,3037.8100673,N,10404.9211203,E,4,20,1.0,486.991,M,-41.789,M,1.2,*6D
$GPGSA,A,3,03,14,16,22,26,31,32,,,,,,3.7,1.3,3.4,1*28
$GAGSA,A,3,01,04,09,24,31,,,,,,,,3.2,2.0,2.5,3*30
$GPGSV,2,1,07,03,34,302,46,14,61,083,46,16,34,203,43,22,44,277,44,1*68
$GPGSV,2,2,07,26,68,197,50,31,57,015,48,32,47,107,46,,,,,1*5D
$GAGSV,2,1,05,01,49,034,41,04,77,135,45,09,46,318,43,24,20,230,38,7*71
$GAGSV,2,2,05,31,72,256,00,,,,,,,,,,,,,7*40
$GPRMC,031019.40,A,3037.8100674,N,10404.9211211,E,0.03,0.00,200319,0.0,E,D*37
$GPGGA,031019.40,3037.8100674,N,10404.9211211,E,4,20,1.0,486.989,M,-41.789,M,1.4,*60
$GPGSA,A,3,03,14,16,22,26,31,32,,,,,,3.7,1.3,3.4,1*28
$GAGSA,A,3,01,04,09,24,31,,,,,,,,3.2,2.0,2.5,3*30
$GPGSV,2,1,07,03,34,302,46,14,61,083,46,16,34,203,43,22,44,277,44,1*68
$GPGSV,2,2,07,26,68,197,50,31,57,015,48,32,47,107,46,,,,,1*5D
$GAGSV,2,1,05,01,49,034,41,04,77,135,45,09,46,318,43,24,20,230,39,7*70
$GAGSV,2,2,05,31,72,256,00,,,,,,,,,,,,,7*40
$GPRMC,031019.60,A,3037.8100671,N,10404.9211213,E,0.02,0.00,200319,0.0,E,D*33
$GPGGA,031019.60,3037.8100671,N,10404.9211213,E,4,20,1.0,486.989,M,-41.789,M,1.6,*67
$GPGSA,A,3,03,14,16,22,26,31,32,,,,,,3.7,1.3,3.4,1*28
$GAGSA,A,3,01,04,09,24,31,,,,,,,,3.2,2.0,2.5,3*30
$GPGSV,2,1,07,03,34,302,46,14,61,083,46,16,34,203,43,22,44,277,44,1*68
$GPGSV,2,2,07,26,68,197,50,31,57,015,48,32,47,107,46,,,,,1*5D
$GAGSV,2,1,05,01,49,034,41,04,77,135,45,09,46,318,43,24,20,230,39,7*70
$GAGSV,2,2,05,31,72,256,00,,,,,,,,,,,,,7*40
$GPRMC,031019.80,A,3037.8100673,N,10404.9211208,E,0.08,0.00,200319,0.0,E,D*3F
$GPGGA,031019.80,3037.8100673,N,10404.9211208,E,4,20,1.0,486.988,M,-41.789,M,1.8,*6E
$GPGSA,A,3,03,14,16,22,26,31,32,,,,,,3.7,1.3,3.4,1*28
$GAGSA,A,3,01,04,09,24,31,,,,,,,,3.2,2.0,2.5,3*30
$GPGSV,2,1,07,03,34,302,46,14,61,083,46,16,34,203,43,22,44,277,44,1*68
$GPGSV,2,2,07,26,68,197,50,31,57,015,48,32,47,107,46,,,,,1*5D
$GAGSV,2,1,05,01,49,034,41,04,77,135,45,09,46,318,43,24,20,230,39,7*70
$GAGSV,2,2,05,31,72,256,00,,,,,,,,,,,,,7*40
$GPRMC,031020.00,A,3037.8100673,N,10404.9211207,E,0.03,0.00,200319,0.0,E,D*39
$GPGGA,031020.00,3037.8100673,N,10404.9211207,E,4,20,1.0,486.989,M,-41.789,M,2.0,*69
$GPGSA,A,3,03,14,16,22,26,31,32,,,,,,3.7,1.3,3.4,1*28
$GAGSA,A,3,01,04,09,24,31,,,,,,,,3.2,2.0,2.5,3*30
$GPGSV,2,1,07,03,34,302,46,14,61,083,46,16,34,203,44,22,44,277,44,1*6F
$GPGSV,2,2,07,26,68,197,50,31,57,015,48,32,47,107,46,,,,,1*5D
$GAGSV,2,1,05,01,49,034,41,04,77,135,45,09,46,318,43,24,20,230,39,7*70
$GAGSV,2,2,05,31,72,256,00,,,,,,,,,,,,,7*40
$GPRMC,031020.20,A,3037.8100678,N,10404.9211210,E,0.03,0.00,200319,0.0,E,D*36
$GPGGA,031020.20,3037.8100678,N,10404.9211210,E,4,20,1.0,486.990,M,-41.789,M,2.2,*6C
$GPGSA,A,3,03,14,16,22,26,31,32,,,,,,3.7,1.3,3.4,1*28
$GAGSA,A,3,01,04,09,24,31,,,,,,,,3.2,2.0,2.5,3*30
$GPGSV,2,1,07,03,34,302,46,14,61,083,46,16,34,203,44,22,44,277,44,1*6F
$GPGSV,2,2,07,26,68,197,50,31,57,015,48,32,47,107,47,,,,,1*5C
$GAGSV,2,1,05,01,49,034,41,04,77,135,45,09,46,318,43,24,20,230,39,7*70
$GAGSV,2,2,05,31,72,256,00,,,,,,,,,,,,,7*40
$GPRMC,031020.40,A,3037.8100672,N,10404.9211213,E,0.04,0.00,200319,0.0,E,D*3E
$GPGGA,031020.40,3037.8100672,N,10404.9211213,E,4,20,1.0,486.990,M,-41.789,M,2.4,*65
$GPGSA,A,3,03,14,16,22,26,31,32,,,,,,3.7,1.3,3.4,1*28
$GAGSA,A,3,01,04,09,24,31,,,,,,,,3.2,2.0,2.5,3*30
$GPGSV,2,1,07,03,34,302,46,14,61,083,46,16,34,203,44,22,44,277,44,1*6F
$GPGSV,2,2,07,26,68,197,50,31,57,015,48,32,47,107,47,,,,,1*5C
$GAGSV,2,1,05,01,49,034,41,04,77,135,45,09,46,318,43,24,20,230,38,7*71
$GAGSV,2,2,05,31,72,256,00,,,,,,,,,,,,,7*40
$GPRMC,031020.60,A,3037.8100671,N,10404.9211217,E,0.08,0.00,200319,0.0,E,D*37
$GPGGA,031020.60,3037.8100671,N,10404.9211217,E,4,20,1.0,486.987,M,-41.789,M,2.6,*64
$GPGSA,A,3,03,14,16,22,26,31,32,,,,,,3.7,1.3,3.4,1*28
$GAGSA,A,3,01,04,09,24,31,,,,,,,,3.2,2.0,2.5,3*30
$GPGSV,2,1,07,03,34,302,46,14,61,083,46,16,34,203,44,22,44,277,44,1*6F
$GPGSV,2,2,07,26,68,197,50,31,57,015,48,32,47,107,47,,,,,1*5C
$GAGSV,2,1,05,01,49,034,41,04,77,135,45,09,46,318,43,24,20,230,38,7*71
$GAGSV,2,2,05,31,72,256,00,,,,,,,,,,,,,7*40
$GPRMC,031020.80,A,3037.8100679,N,10404.9211214,E,0.03,0.00,200319,0.0,E,D*39
$GPGGA,031020.80,3037.8100679,N,10404.9211214,E,4,20,1.0,486.988,M,-41.789,M,2.8,*60
$GPGSA,A,3,03,14,16,22,26,31,32,,,,,,3.7,1.3,3.4,1*28
$GAGSA,A,3,01,04,09,24,31,,,,,,,,3.2,2.0,2.5,3*30
$GPGSV,2,1,07,03,34,302,46,14,61,083,46,16,34,203,44,22,44,277,44,1*6F
$GPGSV,2,2,07,26,68,197,50,31,57,015,48,32,47,107,47,,,,,1*5C
$GAGSV,2,1,05,01,49,034,41,04,77,135,45,09,46,318,43,24,20,231,38,7*70
$GAGSV,2,2,05,31,72,256,00,,,,,,,,,,,,,7*40
$GPRMC,031021.00,A,3037.8100672,N,10404.9211217,E,0.11,0.00,200319,0.0,E,D*3B
$GPGGA,031021.00,3037.8100672,N,10404.9211217,E,4,20,1.0,486.984,M,-41.789,M,1.0,*66
$GPGSA,A,3,03,14,16,22,26,31,32,,,,,,3.7,1.3,3.4,1*28
$GAGSA,A,3,01,04,09,24,31,,,,,,,,3.2,2.0,2.5,3*30
$GPGSV,2,1,07,03,34,302,46,14,61,083,46,16,34,203,44,22,44,277,44,1*6F
$GPGSV,2,2,07,26,68,197,50,31,57,015,48,32,47,107,47,,,,,1*5C
$GAGSV,2,1,05,01,49,034,41,04,77,135,45,09,46,318,43,24,20,231,38,7*70
$GAGSV,2,2,05,31,72,256,00,,,,,,,,,,,,,7*40
$GPRMC,031021.20,A,3037.8100670,N,10404.9211217,E,0.04,0.00,200319,0.0,E,D*3F
$GPGGA,031021.20,3037.8100670,N,10404.9211217,E,4,20,1.0,486.983,M,-41.789,M,1.2,*63
$GPGSA,A,3,03,14,16,22,26,31,32,,,,,,3.7,1.3,3.4,1*28
$GAGSA,A,3,01,04,09,24,31,,,,,,,,3.2,2.0,2.5,3*30
$GPGSV,2,1,07,03,34,302,46,14,61,083,46,16,34,203,44,22,44,277,44,1*6F
$GPGSV,2,2,07,26,68,197,50,31,57,015,48,32,47,107,47,,,,,1*5C
$GAGSV,2,1,05,01,49,034,41,04,77,135,45,09,46,318,43,24,20,231,38,7*70
$GAGSV,2,2,05,31,72,257,00,,,,,,,,,,,,,7*41
$GPRMC,031021.40,A,3037.8100672,N,10404.9211208,E,0.05,0.00,200319,0.0,E,D*34
$GPGGA,031021.40,3037.8100672,N,10404.9211208,E,4,20,1.0,486.986,M,-41.789,M,1.4,*6A
$GPGSA,A,3,03,14,16,22,26,31,32,,,,,,3.7,1.3,3.4,1*28
$GAGSA,A,3,01,04,09,24,31,,,,,,,,3.2,2.0,2.5,3*30
$GPGSV,2,1,07,03,34,302,46,14,61,083,46,16,34,203,43,22,44,277,44,1*68
$GPGSV,2,2,07,26,68,197,50,31,57,015,48,32,47,107,47,,,,,1*5C
$GAGSV,2,1,05,01,49,034,41,04,77,135,45,09,46,318,43,24,20,231,38,7*70
$GAGSV,2,2,05,31,72,257,00,,,,,,,,,,,,,7*41
$GPRMC,031021.60,A,3037.8100675,N,10404.9211203,E,0.07,0.00,200319,0.0,E,D*38
$GPGGA,031021.60,3037.8100675,N,10404.9211203,E,4,20,1.0,486.987,M,-41.789,M,1.6,*67
$GPGSA,A,3,03,14,16,22,26,31,32,,,,,,3.7,1.3,3.4,1*28
$GAGSA,A,3,01,04,09,24,31,,,,,,,,3.2,2.0,2.5,3*30
$GPGSV,2,1,07,03,34,302,46,14,61,083,46,16,34,203,43,22,44,277,44,1*68
$GPGSV,2,2,07,26,68,197,50,31,57,015,48,32,47,107,47,,,,,1*5C
$GAGSV,2,1,05,01,49,034,41,04,77,135,45,09,46,318,43,24,20,231,38,7*70
$GAGSV,2,2,05,31,72,257,00,,,,,,,,,,,,,7*41
$GPRMC,031021.80,A,3037.8100675,N,10404.9211210,E,0.03,0.00,200319,0.0,E,D*30
$GPGGA,031021.80,3037.8100675,N,10404.9211210,E,4,20,1.0,486.986,M,-41.789,M,1.8,*64
$GPGSA,A,3,03,14,16,22,26,31,32,,,,,,3.7,1.3,3.4,1*28
$GAGSA,A,3,01,04,09,24,31,,,,,,,,3.2,2.0,2.5,3*30
$GPGSV,2,1,07,03,34,302,46,14,61,083,46,16,34,203,43,22,44,277,44,1*68
$GPGSV,2,2,07,26,68,197,50,31,57,016,48,32,47,107,47,,,,,1*5F
$GAGSV,2,1,05,01,49,034,41,04,77,135,45,09,46,318,43,24,20,231,38,7*70
$GAGSV,2,2,05,31,72,257,00,,,,,,,,,,,,,7*41
$GPRMC,031022.00,A,3037.8100670,N,10404.9211203,E,0.07,0.00,200319,0.0,E,D*38
$GPGGA,031022.00,3037.8100670,N,10404.9211203,E,4,20,1.0,486.988,M,-41.789,M,2.0,*6D
$GPGSA,A,3,03,14,16,22,26,31,32,,,,,,3.7,1.3,3.4,1*28
$GAGSA,A,3,01,04,09,24,31,,,,,,,,3.2,2.0,2.5,3*30
$GPGSV,2,1,07,03,34,302,46,14,61,083,46,16,34,203,43,22,44,277,44,1*68
$GPGSV,2,2,07,26,68,197,50,31,57,016,48,32,47,107,47,,,,,1*5F
$GAGSV,2,1,05,01,49,034,41,04,77,135,45,09,46,318,43,24,20,231,38,7*70
$GAGSV,2,2,05,31,72,257,00,,,,,,,,,,,,,7*41
$GPRMC,031022.20,A,3037.8100674,N,10404.9211203,E,0.03,0.00,200319,0.0,E,D*3A
$GPGGA,031022.20,3037.8100674,N,10404.9211203,E,4,20,1.0,486.988,M,-41.789,M,2.2,*69
$GPGSA,A,3,03,14,16,22,26,31,32,,,,,,3.7,1.3,3.4,1*28
$GAGSA,A,3,01,04,09,24,31,,,,,,,,3.2,2.0,2.5,3*30
$GPGSV,2,1,07,03,34,302,46,14,61,083,46,16,34,203,43,22,44,277,44,1*68
$GPGSV,2,2,07,26,68,197,50,31,57,016,48,32,47,107,47,,,,,1*5F
$GAGSV,2,1,05,01,49,034,41,04,77,135,45,09,46,318,43,24,20,231,38,7*70
$GAGSV,2,2,05,31,72,257,00,,,,,,,,,,,,,7*41
$GPRMC,031022.40,A,3037.8100670,N,10404.9211203,E,0.03,0.00,200319,0.0,E,D*38
$GPGGA,031022.40,3037.8100670,N,10404.9211203,E,4,20,1.0,486.989,M,-41.789,M,2.4,*6C
$GPGSA,A,3,03,14,16,22,26,31,32,,,,,,3.7,1.3,3.4,1*28
$GAGSA,A,3,01,04,09,24,31,,,,,,,,3.2,2.0,2.5,3*30
$GPGSV,2,1,07,03,34,302,46,14,61,083,46,16,34,203,43,22,44,277,44,1*68
$GPGSV,2,2,07,26,68,197,50,31,57,016,48,32,47,107,47,,,,,1*5F
$GAGSV,2,1,05,01,49,034,41,04,77,135,45,09,46,318,43,24,20,231,38,7*70
$GAGSV,2,2,05,31,72,257,00,,,,,,,,,,,,,7*41
$GPRMC,031022.60,A,3037.8100678,N,10404.9211214,E,0.08,0.00,200319,0.0,E,D*3F
$GPGGA,031022.60,3037.8100678,N,10404.9211214,E,4,20,1.0,486.988,M,-41.789,M,2.6,*63
$GPGSA,A,3,03,14,16,22,26,31,32,,,,,,3.7,1.3,3.4,1*28
$GAGSA,A,3,01,04,09,24,31,,,,,,,,3.2,2.0,2.5,3*30
$GPGSV,2,1,07,03,34,302,46,14,61,083,46,16,34,203,43,22,44,277,44,1*68
$GPGSV,2,2,07,26,68,197,50,31,57,016,48,32,47,107,47,,,,,1*5F
$GAGSV,2,1,05,01,49,034,41,04,77,135,45,09,46,318,43,24,20,231,38,7*70
$GAGSV,2,2,05,31,72,257,00,,,,,,,,,,,,,7*41
$GPRMC,031022.80,A,3037.8100671,N,10404.9211202,E,0.05,0.00,200319,0.0,E,D*32
$GPGGA,031022.80,3037.8100671,N,10404.9211202,E,4,20,1.0,486.987,M,-41.789,M,2.8,*62
$GPGSA,A,3,03,14,16,22,26,31,32,,,,,,3.7,1.3,3.4,1*28
$GAGSA,A,3,01,04,09,24,31,,,,,,,,3.2,2.0,2.5,3*30
$GPGSV,2,1,07,03,34,302,46,14,61,083,46,16,34,203,43,22,44,277,45,1*69
$GPGSV,2,2,07,26,68,197,50,31,57,016,48,32,47,107,47,,,,,1*5F
$GAGSV,2,1,05,01,49,034,41,04,77,135,45,09,46,318,43,24,20,231,38,7*70
$GAGSV,2,2,05,31,72,257,00,,,,,,,,,,,,,7*41
$GPRMC,031023.00,A,3037.8100678,N,10404.9211208,E,0.03,0.00,200319,0.0,E,D*3E
$GPGGA,031023.00,3037.8100678,N,10404.9211208,E,4,20,1.0,486.987,M,-41.789,M,1.0,*63
$GPGSA,A,3,03,14,16,22,26,31,32,,,,,,3.7,1.3,3.4,1*28
$GAGSA,A,3,01,04,09,24,31,,,,,,,,3.2,2.0,2.5,3*30
$GPGSV,2,1,07,03,34,302,46,14,61,083,46,16,34,203,43,22,44,277,44,1*68
$GPGSV,2,2,07,26,68,197,50,31,57,016,48,32,47,107,47,,,,,1*5F
$GAGSV,2,1,05,01,49,034,42,04,77,135,45,09,46,318,43,24,20,231,38,7*73
$GAGSV,2,2,05,31,72,257,00,,,,,,,,,,,,,7*41
$GPRMC,031023.20,A,3037.8100680,N,10404.9211214,E,0.13,0.00,200319,0.0,E,D*37
$GPGGA,031023.20,3037.8100680,N,10404.9211214,E,4,20,1.0,486.986,M,-41.789,M,1.2,*68
$GPGSA,A,3,03,14,16,22,26,31,32,,,,,,3.7,1.3,3.4,1*28
$GAGSA,A,3,01,04,09,24,31,,,,,,,,3.2,2.0,2.5,3*30
$GPGSV,2,1,07,03,34,302,46,14,61,083,46,16,34,203,44,22,44,277,44,1*6F
$GPGSV,2,2,07,26,68,197,50,31,57,016,48,32,47,107,47,,,,,1*5F
$GAGSV,2,1,05,01,49,034,42,04,77,135,45,09,46,318,43,24,20,231,38,7*73
$GAGSV,2,2,05,31,72,257,00,,,,,,,,,,,,,7*41
$GPRMC,031023.40,A,3037.8100673,N,10404.9211211,E,0.03,0.00,200319,0.0,E,D*39
$GPGGA,031023.40,3037.8100673,N,10404.9211211,E,4,20,1.0,486.984,M,-41.789,M,1.4,*63
$GPGSA,A,3,03,14,16,22,26,31,32,,,,,,3.7,1.3,3.4,1*28
$GAGSA,A,3,01,04,09,24,31,,,,,,,,3.2,2.0,2.5,3*30
$GPGSV,2,1,07,03,34,302,46,14,61,083,46,16,34,203,44,22,44,277,45,1*6E
$GPGSV,2,2,07,26,68,197,50,31,57,016,48,32,47,107,47,,,,,1*5F
$GAGSV,2,1,05,01,49,034,42,04,77,135,45,09,46,318,43,24,20,231,38,7*73
$GAGSV,2,2,05,31,72,257,00,,,,,,,,,,,,,7*41
$GPRMC,031023.60,A,3037.8100672,N,10404.9211208,E,0.07,0.00,200319,0.0,E,D*36
$GPGGA,031023.60,3037.8100672,N,10404.9211208,E,4,22,1.0,486.985,M,-41.789,M,1.6,*69
$GPGSA,A,3,03,14,16,22,26,31,32,,,,,,3.7,1.3,3.4,1*28
$GAGSA,A,3,01,04,09,24,31,,,,,,,,3.2,2.0,2.5,3*30
$GPGSV,2,1,07,03,34,302,46,14,61,083,46,16,34,203,43,22,44,277,45,1*69
$GPGSV,2,2,07,26,68,197,50,31,57,016,48,32,47,107,47,,,,,1*5F
$GAGSV,2,1,05,01,49,034,42,04,77,135,45,09,46,318,43,24,20,231,38,7*73
$GAGSV,2,2,05,31,72,257,00,,,,,,,,,,,,,7*41
$GPRMC,031023.80,A,3037.8100673,N,10404.9211214,E,0.09,0.00,200319,0.0,E,D*3A
$GPGGA,031023.80,3037.8100673,N,10404.9211214,E,4,22,1.0,486.984,M,-41.789,M,1.8,*64
$GPGSA,A,3,03,14,16,22,26,31,32,,,,,,3.7,1.3,3.4,1*28
$GAGSA,A,3,01,04,09,24,31,,,,,,,,3.2,2.0,2.5,3*30
$GPGSV,2,1,07,03,34,302,46,14,61,083,45,16,34,203,43,22,44,277,45,1*6A
$GPGSV,2,2,07,26,68,197,50,31,57,016,48,32,47,107,47,,,,,1*5F
$GAGSV,2,1,05,01,49,034,42,04,77,135,45,09,46,318,43,24,20,231,38,7*73
$GAGSV,2,2,05,31,72,257,00,,,,,,,,,,,,,7*41
$GPRMC,031024.00,A,3037.8100675,N,10404.9211209,E,0.03,0.00,200319,0.0,E,D*35
$GPGGA,031024.00,3037.8100675,N,10404.9211209,E,4,22,1.0,486.987,M,-41.789,M,2.0,*69
$GPGSA,A,3,03,14,16,22,26,31,32,,,,,,3.7,1.3,3.4,1*28
$GAGSA,A,3,01,04,09,24,31,,,,,,,,3.2,2.0,2.5,3*30
$GPGSV,2,1,07,03,34,302,46,14,61,083,46,16,34,203,43,22,44,277,45,1*69
$GPGSV,2,2,07,26,68,197,50,31,57,016,48,32,47,107,47,,,,,1*5F
$GAGSV,2,1,05,01,49,034,42,04,77,135,45,09,46,318,43,24,20,231,38,7*73
$GAGSV,2,2,05,31,72,257,00,,,,,,,,,,,,,7*41
$GPRMC,031024.20,A,3037.8100669,N,10404.9211204,E,0.07,0.00,200319,0.0,E,D*33
$GPGGA,031024.20,3037.8100669,N,10404.9211204,E,4,22,1.0,486.985,M,-41.789,M,2.2,*6B
$GPGSA,A,3,03,14,16,22,26,31,32,,,,,,3.7,1.3,3.4,1*28
$GAGSA,A,3,01,04,09,24,31,,,,,,,,3.2,2.0,2.5,3*30
$GPGSV,2,1,07,03,34,302,46,14,61,083,46,16,34,203,43,22,44,277,45,1*69
$GPGSV,2,2,07,26,68,197,50,31,57,016,48,32,47,107,47,,,,,1*5F
$GAGSV,2,1,05,01,49,034,42,04,77,135,45,09,46,318,43,24,20,231,38,7*73
$GAGSV,2,2,05,31,72,257,00,,,,,,,,,,,,,7*41
$GPRMC,031024.40,A,3037.8100676,N,10404.9211191,E,0.05,0.00,200319,0.0,E,D*36
$GPGGA,031024.40,3037.8100676,N,10404.9211191,E,4,22,1.0,486.992,M,-41.789,M,2.4,*6C
$GPGSA,A,3,03,14,16,22,26,31,32,,,,,,3.7,1.3,3.4,1*28
$GAGSA,A,3,01,04,09,24,31,,,,,,,,3.2,2.0,2.5,3*30
$GPGSV,2,1,07,03,34,302,46,14,61,083,46,16,34,203,43,22,44,277,45,1*69
$GPGSV,2,2,07,26,68,197,50,31,57,016,48,32,47,107,47,,,,,1*5F
$GAGSV,2,1,05,01,49,034,42,04,77,135,45,09,46,318,43,24,20,231,38,7*73
$GAGSV,2,2,05,31,72,257,00,,,,,,,,,,,,,7*41
$GPRMC,031024.60,A,3037.8100677,N,10404.9211195,E,0.06,0.00,200319,0.0,E,D*32
$GPGGA,031024.60,3037.8100677,N,10404.9211195,E,4,22,1.0,486.993,M,-41.789,M,2.6,*68
$GPGSA,A,3,03,14,16,22,26,31,32,,,,,,3.7,1.3,3.4,1*28
$GAGSA,A,3,01,04,09,24,31,,,,,,,,3.2,2.0,2.5,3*30
$GPGSV,2,1,07,03,34,302,46,14,61,083,46,16,34,203,43,22,44,277,45,1*69
$GPGSV,2,2,07,26,68,197,50,31,57,016,48,32,47,107,47,,,,,1*5F
$GAGSV,2,1,05,01,49,034,42,04,77,135,45,09,46,318,43,24,20,231,38,7*73
$GAGSV,2,2,05,31,72,257,00,,,,,,,,,,,,,7*41
$GPRMC,031024.80,A,3037.8100678,N,10404.9211194,E,0.04,0.00,200319,0.0,E,D*30
$GPGGA,031024.80,3037.8100678,N,10404.9211194,E,4,22,1.0,486.993,M,-41.789,M,2.8,*66
$GPGSA,A,3,03,14,16,22,26,31,32,,,,,,3.7,1.3,3.4,1*28
$GAGSA,A,3,01,04,09,24,31,,,,,,,,3.2,2.0,2.5,3*30
$GPGSV,2,1,07,03,34,302,46,14,61,083,46,16,34,203,43,22,44,277,45,1*69
$GPGSV,2,2,07,26,68,197,50,31,57,016,48,32,47,107,47,,,,,1*5F
$GAGSV,2,1,05,01,49,034,42,04,77,135,45,09,46,318,42,24,20,231,38,7*72
$GAGSV,2,2,05,31,72,257,00,,,,,,,,,,,,,7*41
$GPRMC,031025.00,A,3037.8100669,N,10404.9211184,E,0.03,0.00,200319,0.0,E,D*3F
$GPGGA,031025.00,3037.8100669,N,10404.9211184,E,4,22,1.0,486.990,M,-41.789,M,1.0,*66
$GPGSA,A,3,03,14,16,22,26,31,32,,,,,,3.7,1.3,3.4,1*28
$GAGSA,A,3,01,04,09,24,31,,,,,,,,3.2,2.0,2.5,3*30
$GPGSV,2,1,07,03,34,302,46,14,61,083,46,16,34,203,43,22,44,277,45,1*69
$GPGSV,2,2,07,26,68,197,50,31,57,016,48,32,47,107,47,,,,,1*5F
$GAGSV,2,1,05,01,49,034,41,04,77,135,45,09,46,318,42,24,20,231,38,7*71
$GAGSV,2,2,05,31,72,257,00,,,,,,,,,,,,,7*41
$GPRMC,031025.20,A,3037.8100673,N,10404.9211195,E,0.03,0.00,200319,0.0,E,D*36
$GPGGA,031025.20,3037.8100673,N,10404.9211195,E,4,22,1.0,486.988,M,-41.789,M,1.2,*64
$GPGSA,A,3,03,14,16,22,26,31,32,,,,,,3.7,1.3,3.4,1*28
$GAGSA,A,3,01,04,09,24,31,,,,,,,,3.2,2.0,2.5,3*30
$GPGSV,2,1,07,03,34,302,46,14,61,083,46,16,34,203,43,22,44,277,45,1*69
$GPGSV,2,2,07,26,68,197,50,31,57,016,48,32,47,107,47,,,,,1*5F
$GAGSV,2,1,05,01,49,034,41,04,77,135,45,09,46,318,42,24,20,231,38,7*71
$GAGSV,2,2,05,31,72,257,00,,,,,,,,,,,,,7*41
$GPRMC,031025.40,A,3037.8100673,N,10404.9211191,E,0.03,0.00,200319,0.0,E,D*34
$GPGGA,031025.40,3037.8100673,N,10404.9211191,E,4,22,1.0,486.988,M,-41.789,M,1.4,*60
$GPGSA,A,3,03,14,16,22,26,31,32,,,,,,3.7,1.3,3.4,1*28
$GAGSA,A,3,01,04,09,24,31,,,,,,,,3.2,2.0,2.5,3*30
$GPGSV,2,1,07,03,34,302,46,14,61,083,46,16,34,203,43,22,44,277,45,1*69
$GPGSV,2,2,07,26,68,197,50,31,57,016,48,32,47,107,47,,,,,1*5F
$GAGSV,2,1,05,01,49,034,41,04,77,135,45,09,46,318,42,24,20,231,38,7*71
$GAGSV,2,2,05,31,72,257,00,,,,,,,,,,,,,7*41
$GPRMC,031025.60,A,3037.8100671,N,10404.9211185,E,0.03,0.00,200319,0.0,E,D*31
$GPGGA,031025.60,3037.8100671,N,10404.9211185,E,4,22,1.0,486.989,M,-41.789,M,1.6,*66
$GPGSA,A,3,03,14,16,22,26,31,32,,,,,,3.7,1.3,3.4,1*28
$GAGSA,A,3,01,04,09,24,31,,,,,,,,3.2,1.9,2.5,3*3A
$GPGSV,2,1,07,03,34,302,46,14,61,083,46,16,34,203,44,22,44,277,45,1*6E
$GPGSV,2,2,07,26,68,197,50,31,57,016,48,32,47,107,47,,,,,1*5F
$GAGSV,2,1,05,01,49,034,41,04,77,135,45,09,46,318,42,24,20,231,38,7*71
$GAGSV,2,2,05,31,72,257,00,,,,,,,,,,,,,7*41
$GPRMC,031025.80,A,3037.8100669,N,10404.9211189,E,0.11,0.00,200319,0.0,E,D*39
$GPGGA,031025.80,3037.8100669,N,10404.9211189,E,4,22,1.0,486.991,M,-41.789,M,1.8,*6A
$GPGSA,A,3,03,14,16,22,26,31,32,,,,,,3.7,1.3,3.4,1*28
$GAGSA,A,3,01,04,09,24,31,,,,,,,,3.2,1.9,2.5,3*3A
$GPGSV,2,1,07,03,34,302,46,14,61,083,46,16,34,203,44,22,44,277,45,1*6E
$GPGSV,2,2,07,26,68,197,50,31,57,016,48,32,47,107,47,,,,,1*5F
$GAGSV,2,1,05,01,49,034,41,04,77,135,45,09,46,318,43,24,20,231,38,7*70
$GAGSV,2,2,05,31,72,257,00,,,,,,,,,,,,,7*41
$GPRMC,031026.00,A,3037.8100669,N,10404.9211194,E,0.08,0.00,200319,0.0,E,D*36
$GPGGA,031026.00,3037.8100669,N,10404.9211194,E,4,22,1.0,486.989,M,-41.789,M,2.0,*6F
$GPGSA,A,3,03,14,16,22,26,31,32,,,,,,3.7,1.3,3.4,1*28
$GAGSA,A,3,01,04,09,24,31,,,,,,,,3.2,1.9,2.5,3*3A
$GPGSV,2,1,07,03,34,302,46,14,61,083,46,16,34,203,44,22,44,277,45,1*6E
$GPGSV,2,2,07,26,68,197,50,31,57,016,48,32,47,107,47,,,,,1*5F
$GAGSV,2,1,05,01,49,034,41,04,77,135,45,09,46,318,43,24,20,231,38,7*70
$GAGSV,2,2,05,31,72,257,00,,,,,,,,,,,,,7*41
$GPRMC,031026.20,A,3037.8100660,N,10404.9211182,E,0.05,0.00,200319,0.0,E,D*37
$GPGGA,031026.20,3037.8100660,N,10404.9211182,E,4,22,1.0,486.990,M,-41.789,M,2.2,*69
$GPGSA,A,3,03,14,16,22,26,31,32,,,,,,3.7,1.3,3.4,1*28
$GAGSA,A,3,01,04,09,24,31,,,,,,,,3.2,1.9,2.5,3*3A
$GPGSV,2,1,07,03,34,302,46,14,61,083,46,16,34,203,44,22,44,277,45,1*6E
$GPGSV,2,2,07,26,68,197,50,31,57,016,48,32,47,107,47,,,,,1*5F
$GAGSV,2,1,05,01,49,034,41,04,77,135,45,09,46,318,43,24,20,231,38,7*70
$GAGSV,2,2,05,31,72,257,00,,,,,,,,,,,,,7*41
$GPRMC,031026.40,A,3037.8100664,N,10404.9211184,E,0.08,0.00,200319,0.0,E,D*3E
$GPGGA,031026.40,3037.8100664,N,10404.9211184,E,4,22,1.0,486.989,M,-41.789,M,2.4,*63
$GPGSA,A,3,03,14,16,22,26,31,32,,,,,,3.7,1.3,3.4,1*28
$GAGSA,A,3,01,04,09,24,31,,,,,,,,3.2,1.9,2.5,3*3A
$GPGSV,2,1,07,03,34,302,46,14,61,083,46,16,34,203,44,22,44,277,45,1*6E
$GPGSV,2,2,07,26,68,197,50,31,57,016,48,32,47,107,47,,,,,1*5F
$GAGSV,2,1,05,01,49,034,41,04,77,135,45,09,46,318,43,24,20,231,38,7*70
$GAGSV,2,2,05,31,72,257,00,,,,,,,,,,,,,7*41
$GPRMC,031026.60,A,3037.8100666,N,10404.9211184,E,0.02,0.00,200319,0.0,E,D*34
$GPGGA,031026.60,3037.8100666,N,10404.9211184,E,4,22,1.0,486.991,M,-41.789,M,2.6,*68
$GPGSA,A,3,03,14,16,22,26,31,32,,,,,,3.7,1.3,3.4,1*28
$GAGSA,A,3,01,04,09,24,31,,,,,,,,3.2,1.9,2.5,3*3A
$GPGSV,2,1,07,03,34,302,46,14,61,083,46,16,34,203,44,22,44,277,45,1*6E
$GPGSV,2,2,07,26,68,197,50,31,57,016,48,32,47,107,47,,,,,1*5F
$GAGSV,2,1,05,01,49,034,41,04,77,135,45,09,46,318,43,24,20,231,38,7*70
$GAGSV,2,2,05,31,72,257,00,,,,,,,,,,,,,7*41
$GPRMC,031026.80,A,3037.8100662,N,10404.9211179,E,0.05,0.00,200319,0.0,E,D*3B
$GPGGA,031026.80,3037.8100662,N,10404.9211179,E,4,22,1.0,486.991,M,-41.789,M,2.8,*6E
$GPGSA,A,3,03,14,16,22,26,31,32,,,,,,3.7,1.3,3.4,1*28
$GAGSA,A,3,01,04,09,24,31,,,,,,,,3.2,1.9,2.5,3*3A
$GPGSV,2,1,07,03,34,302,46,14,61,083,47,16,34,203,44,22,44,277,45,1*6F
$GPGSV,2,2,07,26,68,197,50,31,57,016,48,32,47,107,47,,,,,1*5F
$GAGSV,2,1,05,01,49,034,41,04,77,135,45,09,46,318,43,24,20,231,38,7*70
$GAGSV,2,2,05,31,72,257,00,,,,,,,,,,,,,7*41
$GPRMC,031027.00,A,3037.8100666,N,10404.9211176,E,0.09,0.00,200319,0.0,E,D*35
$GPGGA,031027.00,3037.8100666,N,10404.9211176,E,4,22,1.0,486.995,M,-41.789,M,1.0,*63
$GPGSA,A,3,03,14,16,22,26,31,32,,,,,,3.7,1.3,3.4,1*28
$GAGSA,A,3,01,04,09,24,31,,,,,,,,3.2,1.9,2.5,3*3A
$GPGSV,2,1,07,03,34,302,45,14,61,083,46,16,34,203,44,22,44,277,45,1*6D
$GPGSV,2,2,07,26,68,197,50,31,57,016,48,32,47,107,47,,,,,1*5F
$GAGSV,2,1,05,01,49,034,41,04,77,135,45,09,46,318,43,24,20,231,38,7*70
$GAGSV,2,2,05,31,72,257,00,,,,,,,,,,,,,7*41
$GPRMC,031027.20,A,3037.8100670,N,10404.9211181,E,0.05,0.00,200319,0.0,E,D*34
$GPGGA,031027.20,3037.8100670,N,10404.9211181,E,4,22,1.0,486.995,M,-41.789,M,1.2,*6C
$GPGSA,A,3,03,14,16,22,26,31,32,,,,,,3.7,1.3,3.4,1*28
$GAGSA,A,3,01,04,09,24,31,,,,,,,,3.2,1.9,2.5,3*3A
$GPGSV,2,1,07,03,34,302,45,14,61,083,46,16,34,203,44,22,44,277,45,1*6D
$GPGSV,2,2,07,26,68,197,50,31,57,016,48,32,47,107,47,,,,,1*5F
$GAGSV,2,1,05,01,49,034,41,04,77,135,45,09,46,318,43,24,20,231,38,7*70
$GAGSV,2,2,05,31,72,257,00,,,,,,,,,,,,,7*41
$GPRMC,031027.40,A,3037.8100666,N,10404.9211183,E,0.08,0.00,200319,0.0,E,D*3A
$GPGGA,031027.40,3037.8100666,N,10404.9211183,E,4,22,1.0,486.993,M,-41.789,M,1.4,*6F
$GPGSA,A,3,03,14,16,22,26,31,32,,,,,,3.7,1.3,3.4,1*28
$GAGSA,A,3,01,04,09,24,31,,,,,,,,3.2,1.9,2.5,3*3A
$GPGSV,2,1,07,03,34,302,45,14,61,083,46,16,34,203,44,22,44,277,45,1*6D
$GPGSV,2,2,07,26,68,197,50,31,57,016,48,32,47,107,47,,,,,1*5F
$GAGSV,2,1,05,01,49,034,42,04,77,135,45,09,46,318,43,24,20,231,38,7*73
$GAGSV,2,2,05,31,72,257,00,,,,,,,,,,,,,7*41
$GPRMC,031027.60,A,3037.8100671,N,10404.9211175,E,0.03,0.00,200319,0.0,E,D*3C
$GPGGA,031027.60,3037.8100671,N,10404.9211175,E,4,22,1.0,486.998,M,-41.789,M,1.6,*6B
$GPGSA,A,3,03,14,16,22,26,31,32,,,,,,3.7,1.3,3.4,1*28
$GAGSA,A,3,01,04,09,24,31,,,,,,,,3.2,1.9,2.5,3*3A
$GPGSV,2,1,07,03,34,302,45,14,61,083,45,16,34,203,43,22,44,277,45,1*69
$GPGSV,2,2,07,26,68,197,50,31,57,016,48,32,47,107,47,,,,,1*5F
$GAGSV,2,1,05,01,49,034,42,04,77,135,45,09,46,318,44,24,20,231,38,7*74
$GAGSV,2,2,05,31,72,257,00,,,,,,,,,,,,,7*41
$GPRMC,031027.80,A,3037.8100670,N,10404.9211165,E,0.05,0.00,200319,0.0,E,D*34
$GPGGA,031027.80,3037.8100670,N,10404.9211165,E,4,22,1.0,487.002,M,-41.789,M,1.8,*60
$GPGSA,A,3,03,14,16,22,26,31,32,,,,,,3.7,1.3,3.4,1*28
$GAGSA,A,3,01,04,09,24,31,,,,,,,,3.2,1.9,2.5,3*3A
$GPGSV,2,1,07,03,34,302,45,14,61,083,44,16,34,203,42,22,44,277,45,1*69
$GPGSV,2,2,07,26,68,197,50,31,57,016,48,32,47,107,47,,,,,1*5F
$GAGSV,2,1,05,01,49,034,42,04,77,135,45,09,46,318,43,24,20,231,38,7*73
$GAGSV,2,2,05,31,72,257,00,,,,,,,,,,,,,7*41
$GPRMC,031028.00,A,3037.8100668,N,10404.9211172,E,0.09,0.00,200319,0.0,E,D*30
$GPGGA,031028.00,3037.8100668,N,10404.9211172,E,4,22,1.0,487.001,M,-41.789,M,2.0,*60
$GPGSA,A,3,03,14,16,22,26,31,32,,,,,,3.7,1.3,3.4,1*28
$GAGSA,A,3,01,04,09,24,31,,,,,,,,3.2,1.9,2.5,3*3A
$GPGSV,2,1,07,03,34,302,45,14,61,083,45,16,34,203,43,22,44,277,45,1*69
$GPGSV,2,2,07,26,68,197,49,31,57,016,49,32,47,107,48,,,,,1*59
$GAGSV,2,1,05,01,49,034,43,04,77,135,45,09,46,318,43,24,20,231,39,7*73
$GAGSV,2,2,05,31,72,257,00,,,,,,,,,,,,,7*41
$GPRMC,031028.20,A,3037.8100669,N,10404.9211186,E,0.15,0.00,200319,0.0,E,D*35
$GPGGA,031028.20,3037.8100669,N,10404.9211186,E,4,22,1.0,486.995,M,-41.789,M,2.2,*6F
$GPGSA,A,3,03,14,16,22,26,31,32,,,,,,3.7,1.3,3.4,1*28
$GAGSA,A,3,01,04,09,24,31,,,,,,,,3.2,1.9,2.5,3*3A
$GPGSV,2,1,07,03,34,302,45,14,61,083,45,16,34,203,43,22,44,277,45,1*69
$GPGSV,2,2,07,26,68,197,49,31,57,016,49,32,47,107,48,,,,,1*59
$GAGSV,2,1,05,01,49,034,43,04,77,135,45,09,46,318,43,24,20,231,39,7*73
$GAGSV,2,2,05,31,72,257,00,,,,,,,,,,,,,7*41
$GPRMC,031028.40,A,3037.8100674,N,10404.9211196,E,0.11,0.00,200319,0.0,E,D*3A
$GPGGA,031028.40,3037.8100674,N,10404.9211196,E,4,22,1.0,486.992,M,-41.789,M,2.4,*65
$GPGSA,A,3,03,14,16,22,26,31,32,,,,,,3.7,1.3,3.4,1*28
$GAGSA,A,3,01,04,09,24,31,,,,,,,,3.2,1.9,2.5,3*3A
$GPGSV,2,1,07,03,34,302,45,14,61,083,44,16,34,203,44,22,44,277,44,1*6E
$GPGSV,2,2,07,26,68,197,49,31,57,016,48,32,47,107,47,,,,,1*57
$GAGSV,2,1,05,01,49,034,43,04,77,135,46,09,46,318,43,24,20,231,40,7*7E
$GAGSV,2,2,05,31,72,257,00,,,,,,,,,,,,,7*41
$GPRMC,031028.60,A,3037.8100643,N,10404.9211123,E,0.10,0.00,200319,0.0,E,D*33
$GPGGA,031028.60,3037.8100643,N,10404.9211123,E,4,22,1.0,486.988,M,-41.789,M,2.6,*64
$GPGSA,A,3,03,14,16,22,26,31,32,,,,,,3.7,1.3,3.4,1*28
$GAGSA,A,3,01,04,09,24,31,,,,,,,,3.2,1.9,2.5,3*3A
$GPGSV,2,1,07,03,34,302,45,14,61,083,43,16,34,203,44,22,44,277,44,1*69
$GPGSV,2,2,07,26,68,197,49,31,57,016,48,32,47,107,47,,,,,1*57
$GAGSV,2,1,05,01,49,034,43,04,77,135,46,09,46,318,44,24,20,231,40,7*79
$GAGSV,2,2,05,31,72,257,00,,,,,,,,,,,,,7*41
$GPRMC,031028.80,A,3037.8100684,N,10404.9211194,E,0.13,0.00,200319,0.0,E,D*39
$GPGGA,031028.80,3037.8100684,N,10404.9211194,E,4,22,1.0,486.989,M,-41.789,M,2.8,*62
$GPGSA,A,3,03,14,16,22,26,31,32,,,,,,3.7,1.3,3.4,1*28
$GAGSA,A,3,01,04,09,24,31,,,,,,,,3.2,1.9,2.5,3*3A
$GPGSV,2,1,07,03,34,302,44,14,61,083,43,16,34,203,44,22,44,277,43,1*6F
$GPGSV,2,2,07,26,68,197,49,31,57,016,47,32,47,107,47,,,,,1*58
$GAGSV,2,1,05,01,49,034,42,04,77,135,46,09,46,318,44,24,20,231,40,7*78
$GAGSV,2,2,05,31,72,257,00,,,,,,,,,,,,,7*41
$GPRMC,031029.00,A,3037.8100692,N,10404.9211191,E,0.07,0.00,200319,0.0,E,D*37
$GPGGA,031029.00,3037.8100692,N,10404.9211191,E,4,22,1.0,486.989,M,-41.789,M,1.0,*62
$GPGSA,A,3,03,14,16,22,26,31,32,,,,,,3.7,1.3,3.4,1*28
$GAGSA,A,3,01,04,09,24,31,,,,,,,,3.2,1.9,2.5,3*3A
$GPGSV,2,1,07,03,34,302,44,14,61,083,43,16,34,203,44,22,44,277,43,1*6F
$GPGSV,2,2,07,26,68,197,49,31,57,016,47,32,47,107,47,,,,,1*58
$GAGSV,2,1,05,01,49,034,41,04,77,135,46,09,46,318,44,24,20,231,38,7*74
$GAGSV,2,2,05,31,72,257,00,,,,,,,,,,,,,7*41
$GPRMC,031029.20,A,3037.8100686,N,10404.9211209,E,0.32,0.00,200319,0.0,E,D*34
$GPGGA,031029.20,3037.8100686,N,10404.9211209,E,4,22,1.0,487.000,M,-41.789,M,1.2,*6C
$GPGSA,A,3,03,14,16,22,26,31,32,,,,,,3.7,1.3,3.4,1*28
$GAGSA,A,3,01,04,09,24,31,,,,,,,,3.2,1.9,2.5,3*3A
$GPGSV,2,1,07,03,34,302,44,14,61,083,42,16,34,203,43,22,44,277,43,1*69
$GPGSV,2,2,07,26,68,197,49,31,57,016,46,32,47,107,46,,,,,1*58
$GAGSV,2,1,05,01,49,034,41,04,77,135,46,09,46,318,43,24,20,231,38,7*73
$GAGSV,2,2,05,31,72,257,00,,,,,,,,,,,,,7*41
$GPRMC,031029.40,A,3037.8100731,N,10404.9211330,E,1.36,0.00,200319,0.0,E,D*31
$GPGGA,031029.40,3037.8100731,N,10404.9211330,E,4,21,1.0,487.090,M,-41.789,M,1.4,*60
$GPGSA,A,3,03,14,16,22,26,31,32,,,,,,3.7,1.3,3.4,1*28
