$GPRMC,052633.60,A,3046.9743877,N,10357.5043338,E,0.05,111.22,260319,0.0,E,D*36
$GPGGA,052633.60,3046.9743877,N,10357.5043338,E,4,24,1.0,532.107,M,-40.962,M,1.6,*6C
$GPGSA,A,3,08,09,16,23,26,27,31,,,,,,2.4,1.1,2.1,1*2E
$GAGSA,A,3,02,03,05,24,25,,,,,,,,3.4,1.4,3.1,3*39
$GPGSV,2,1,07,08,37,184,44,09,32,313,45,16,62,012,45,23,62,287,45,1*61
$GPGSV,2,2,07,26,37,042,44,27,60,143,47,31,19,096,43,,,,,1*51
$GAGSV,2,1,05,02,35,283,42,03,54,253,43,05,31,182,39,24,24,058,00,7*74
$GAGSV,2,2,05,25,58,002,43,,,,,,,,,,,,,7*49
$GPRMC,052633.80,A,3046.9743877,N,10357.5043345,E,0.05,111.22,260319,0.0,E,D*32
$GPGGA,052633.80,3046.9743877,N,10357.5043345,E,4,24,1.0,532.106,M,-40.962,M,1.8,*67
$GPGSA,A,3,08,09,16,23,26,27,31,,,,,,2.4,1.1,2.1,1*2E
$GAGSA,A,3,02,03,05,24,25,,,,,,,,3.4,1.4,3.1,3*39
$GPGSV,2,1,07,08,37,184,44,09,32,313,45,16,62,012,45,23,62,287,45,1*61
$GPGSV,2,2,07,26,37,042,44,27,60,143,47,31,19,096,43,,,,,1*51
$GAGSV,2,1,05,02,35,283,42,03,54,253,43,05,31,182,39,24,24,058,00,7*74
$GAGSV,2,2,05,25,58,002,43,,,,,,,,,,,,,7*49
$GPRMC,052634.00,A,3046.9743877,N,10357.5043347,E,0.02,111.22,260319,0.0,E,D*38
$GPGGA,052634.00,3046.9743877,N,10357.5043347,E,4,24,1.0,532.104,M,-40.962,M,2.0,*63
$GPGSA,A,3,08,09,16,23,26,27,31,,,,,,2.4,1.1,2.1,1*2E
$GAGSA,A,3,02,03,05,24,25,,,,,,,,3.4,1.4,3.1,3*39
$GPGSV,2,1,07,08,37,184,44,09,32,313,45,16,62,012,45,23,62,287,45,1*61
$GPGSV,2,2,07,26,37,042,44,27,60,143,47,31,19,096,43,,,,,1*51
$GAGSV,2,1,05,02,35,283,42,03,54,253,43,05,31,182,39,24,24,058,00,7*74
$GAGSV,2,2,05,25,58,002,43,,,,,,,,,,,,,7*49
$GPRMC,052634.20,A,3046.9743877,N,10357.5043341,E,0.06,111.22,260319,0.0,E,D*38
$GPGGA,052634.20,3046.9743877,N,10357.5043341,E,4,24,1.0,532.104,M,-40.962,M,2.2,*65
$GPGSA,A,3,08,09,16,23,26,27,31,,,,,,2.4,1.1,2.1,1*2E
$GAGSA,A,3,02,03,05,24,25,,,,,,,,3.4,1.4,3.1,3*39
$GPGSV,2,1,07,08,37,184,44,09,32,313,45,16,62,012,45,23,62,287,45,1*61
$GPGSV,2,2,07,26,37,042,44,27,60,143,47,31,19,096,43,,,,,1*51
$GAGSV,2,1,05,02,35,283,42,03,54,253,43,05,31,182,39,24,24,058,00,7*74
$GAGSV,2,2,05,25,58,002,43,,,,,,,,,,,,,7*49
$GPRMC,052634.40,A,3046.9743876,N,10357.5043345,E,0.03,111.22,260319,0.0,E,D*3E
$GPGGA,052634.40,3046.9743876,N,10357.5043345,E,4,24,1.0,532.106,M,-40.962,M,2.4,*62
$GPGSA,A,3,08,09,16,23,26,27,31,,,,,,2.4,1.1,2.1,1*2E
$GAGSA,A,3,02,03,05,24,25,,,,,,,,3.4,1.4,3.1,3*39
$GPGSV,2,1,07,08,37,184,44,09,32,313,45,16,62,012,45,23,62,287,45,1*61
$GPGSV,2,2,07,26,37,042,44,27,60,143,47,31,19,096,43,,,,,1*51
$GAGSV,2,1,05,02,35,283,42,03,54,253,43,05,31,182,39,24,24,058,00,7*74
$GAGSV,2,2,05,25,58,002,43,,,,,,,,,,,,,7*49
$GPRMC,052634.60,A,3046.9743877,N,10357.5043340,E,0.03,111.22,260319,0.0,E,D*38
$GPGGA,052634.60,3046.9743877,N,10357.5043340,E,4,24,1.0,532.106,M,-40.962,M,2.6,*66
$GPGSA,A,3,08,09,16,23,26,27,31,,,,,,2.4,1.1,2.1,1*2E
$GAGSA,A,3,02,03,05,24,25,,,,,,,,3.4,1.4,3.1,3*39
$GPGSV,2,1,07,08,37,184,44,09,32,313,45,16,62,012,45,23,62,287,45,1*61
$GPGSV,2,2,07,26,37,042,44,27,60,143,47,31,19,096,43,,,,,1*51
$GAGSV,2,1,05,02,35,283,42,03,54,253,43,05,31,182,39,24,24,058,00,7*74
$GAGSV,2,2,05,25,58,002,43,,,,,,,,,,,,,7*49
$GPRMC,052634.80,A,3046.9743876,N,10357.5043346,E,0.03,111.22,260319,0.0,E,D*31
$GPGGA,052634.80,3046.9743876,N,10357.5043346,E,4,24,1.0,532.106,M,-40.962,M,2.8,*61
$GPGSA,A,3,08,09,16,23,26,27,31,,,,,,2.4,1.1,2.1,1*2E
$GAGSA,A,3,02,03,05,24,25,,,,,,,,3.4,1.4,3.1,3*39
$GPGSV,2,1,07,08,37,184,44,09,32,313,45,16,62,012,45,23,62,287,45,1*61
$GPGSV,2,2,07,26,37,042,44,27,60,143,47,31,19,096,43,,,,,1*51
$GAGSV,2,1,05,02,35,283,42,03,54,253,43,05,31,182,39,24,24,058,00,7*74
$GAGSV,2,2,05,25,58,002,43,,,,,,,,,,,,,7*49
$GPRMC,052635.00,A,3046.9743876,N,10357.5043342,E,0.01,111.22,260319,0.0,E,D*3E
$GPGGA,052635.00,3046.9743876,N,10357.5043342,E,4,24,1.0,532.107,M,-40.962,M,3.0,*64
$GPGSA,A,3,08,09,16,23,26,27,31,,,,,,2.4,1.1,2.1,1*2E
$GAGSA,A,3,02,03,05,24,25,,,,,,,,3.4,1.4,3.1,3*39
$GPGSV,2,1,07,08,37,184,44,09,32,313,45,16,62,012,45,23,62,287,45,1*61
$GPGSV,2,2,07,26,37,042,44,27,60,143,47,31,19,096,43,,,,,1*51
$GAGSV,2,1,05,02,35,283,42,03,54,253,43,05,31,182,39,24,24,058,00,7*74
$GAGSV,2,2,05,25,58,002,43,,,,,,,,,,,,,7*49
$GPRMC,052635.20,A,3046.9743877,N,10357.5043341,E,0.06,111.22,260319,0.0,E,D*39
$GPGGA,052635.20,3046.9743877,N,10357.5043341,E,4,24,1.0,532.108,M,-40.962,M,1.2,*6B
$GPGSA,A,3,08,09,16,23,26,27,31,,,,,,2.4,1.1,2.1,1*2E
$GAGSA,A,3,02,03,05,24,25,,,,,,,,3.4,1.4,3.1,3*39
$GPGSV,2,1,07,08,37,184,44,09,32,313,45,16,62,012,45,23,62,287,45,1*61
$GPGSV,2,2,07,26,37,042,44,27,60,143,47,31,19,096,43,,,,,1*51
$GAGSV,2,1,05,02,35,283,42,03,54,253,43,05,31,182,39,24,24,058,00,7*74
$GAGSV,2,2,05,25,58,002,43,,,,,,,,,,,,,7*49
$GPRMC,052635.40,A,3046.9743878,N,10357.5043342,E,0.05,111.22,260319,0.0,E,D*30
$GPGGA,052635.40,3046.9743878,N,10357.5043342,E,4,24,1.0,532.107,M,-40.962,M,1.4,*68
$GPGSA,A,3,08,09,16,23,26,27,31,,,,,,2.4,1.1,2.1,1*2E
$GAGSA,A,3,02,03,05,24,25,,,,,,,,3.4,1.4,3.1,3*39
$GPGSV,2,1,07,08,37,184,44,09,32,313,45,16,62,012,45,23,62,287,45,1*61
$GPGSV,2,2,07,26,37,042,44,27,60,143,47,31,19,096,43,,,,,1*51
$GAGSV,2,1,05,02,35,283,42,03,54,253,43,05,31,182,39,24,24,058,00,7*74
$GAGSV,2,2,05,25,58,002,43,,,,,,,,,,,,,7*49
$GPRMC,052635.60,A,3046.9743876,N,10357.5043347,E,0.02,111.22,260319,0.0,E,D*3E
$GPGGA,052635.60,3046.9743876,N,10357.5043347,E,4,24,1.0,532.108,M,-40.962,M,1.6,*6C
$GPGSA,A,3,08,09,16,23,26,27,31,,,,,,2.4,1.1,2.1,1*2E
$GAGSA,A,3,02,03,05,24,25,,,,,,,,3.4,1.4,3.1,3*39
$GPGSV,2,1,07,08,37,184,44,09,32,313,45,16,62,012,45,23,62,287,45,1*61
$GPGSV,2,2,07,26,37,042,44,27,60,143,47,31,19,096,43,,,,,1*51
$GAGSV,2,1,05,02,35,283,42,03,54,253,43,05,31,182,39,24,24,058,00,7*74
$GAGSV,2,2,05,25,58,002,43,,,,,,,,,,,,,7*49
$GPRMC,052635.80,A,3046.9743875,N,10357.5043342,E,0.11,111.22,260319,0.0,E,D*34
$GPGGA,052635.80,3046.9743875,N,10357.5043342,E,4,24,1.0,532.107,M,-40.962,M,1.8,*65
$GPGSA,A,3,08,09,16,23,26,27,31,,,,,,2.4,1.1,2.1,1*2E
$GAGSA,A,3,02,03,05,24,25,,,,,,,,3.4,1.4,3.1,3*39
$GPGSV,2,1,07,08,37,184,44,09,32,313,45,16,62,012,45,23,62,287,45,1*61
$GPGSV,2,2,07,26,37,042,44,27,60,143,47,31,19,096,43,,,,,1*51
$GAGSV,2,1,05,02,35,283,42,03,54,253,43,05,31,182,39,24,24,058,00,7*74
$GAGSV,2,2,05,25,58,002,43,,,,,,,,,,,,,7*49
$GPRMC,052636.00,A,3046.9743876,N,10357.5043341,E,0.03,111.22,260319,0.0,E,D*3C
$GPGGA,052636.00,3046.9743876,N,10357.5043341,E,4,24,1.0,532.107,M,-40.962,M,2.0,*65
$GPGSA,A,3,08,09,16,23,26,27,31,,,,,,2.4,1.1,2.1,1*2E
$GAGSA,A,3,02,03,05,24,25,,,,,,,,3.4,1.4,3.1,3*39
$GPGSV,2,1,07,08,37,184,44,09,32,313,45,16,62,012,45,23,62,287,45,1*61
$GPGSV,2,2,07,26,37,042,44,27,60,143,47,31,19,096,43,,,,,1*51
$GAGSV,2,1,05,02,35,283,42,03,54,253,43,05,31,182,39,24,24,058,00,7*74
$GAGSV,2,2,05,25,58,002,43,,,,,,,,,,,,,7*49
$GPRMC,052636.20,A,3046.9743877,N,10357.5043342,E,0.04,111.22,260319,0.0,E,D*3B
$GPGGA,052636.20,3046.9743877,N,10357.5043342,E,4,24,1.0,532.106,M,-40.962,M,2.2,*66
$GPGSA,A,3,08,09,16,23,26,27,31,,,,,,2.4,1.1,2.1,1*2E
$GAGSA,A,3,02,03,05,24,25,,,,,,,,3.4,1.4,3.1,3*39
$GPGSV,2,1,07,08,37,184,44,09,32,313,45,16,62,012,45,23,62,287,45,1*61
$GPGSV,2,2,07,26,37,042,44,27,60,143,47,31,19,096,42,,,,,1*50
$GAGSV,2,1,05,02,35,283,42,03,54,253,44,05,31,182,39,24,24,058,00,7*73
$GAGSV,2,2,05,25,58,002,43,,,,,,,,,,,,,7*49
$GPRMC,052636.40,A,3046.9743879,N,10357.5043342,E,0.06,111.22,260319,0.0,E,D*31
$GPGGA,052636.40,3046.9743879,N,10357.5043342,E,4,24,1.0,532.107,M,-40.962,M,2.4,*69
$GPGSA,A,3,08,09,16,23,26,27,31,,,,,,2.4,1.1,2.1,1*2E
$GAGSA,A,3,02,03,05,24,25,,,,,,,,3.4,1.4,3.1,3*39
$GPGSV,2,1,07,08,37,184,44,09,32,313,45,16,62,012,45,23,62,287,45,1*61
$GPGSV,2,2,07,26,37,042,44,27,60,143,47,31,19,096,43,,,,,1*51
$GAGSV,2,1,05,02,35,283,42,03,54,253,44,05,31,182,39,24,24,058,00,7*73
$GAGSV,2,2,05,25,58,002,43,,,,,,,,,,,,,7*49
$GPRMC,052636.60,A,3046.9743873,N,10357.5043342,E,0.02,111.22,260319,0.0,E,D*3D
$GPGGA,052636.60,3046.9743873,N,10357.5043342,E,4,24,1.0,532.107,M,-40.962,M,2.6,*63
$GPGSA,A,3,08,09,16,23,26,27,31,,,,,,2.4,1.1,2.1,1*2E
$GAGSA,A,3,02,03,05,24,25,,,,,,,,3.4,1.4,3.1,3*39
$GPGSV,2,1,07,08,37,184,44,09,32,313,45,16,62,012,45,23,62,287,45,1*61
$GPGSV,2,2,07,26,37,042,44,27,60,143,47,31,19,096,43,,,,,1*51
$GAGSV,2,1,05,02,35,283,42,03,54,253,43,05,31,182,39,24,24,058,00,7*74
$GAGSV,2,2,05,25,58,002,43,,,,,,,,,,,,,7*49
$GPRMC,052636.80,A,3046.9743873,N,10357.5043342,E,0.04,111.22,260319,0.0,E,D*35
$GPGGA,052636.80,3046.9743873,N,10357.5043342,E,4,24,1.0,532.109,M,-40.962,M,2.8,*6D
$GPGSA,A,3,08,09,16,23,26,27,31,,,,,,2.4,1.1,2.1,1*2E
$GAGSA,A,3,02,03,05,24,25,,,,,,,,3.4,1.4,3.1,3*39
$GPGSV,2,1,07,08,37,184,44,09,32,313,45,16,62,012,45,23,62,287,45,1*61
$GPGSV,2,2,07,26,37,042,44,27,60,143,47,31,19,096,43,,,,,1*51
$GAGSV,2,1,05,02,35,283,42,03,54,253,43,05,31,182,39,24,24,058,00,7*74
$GAGSV,2,2,05,25,58,002,43,,,,,,,,,,,,,7*49
$GPRMC,052637.00,A,3046.9743872,N,10357.5043344,E,0.04,111.22,260319,0.0,E,D*3B
$GPGGA,052637.00,3046.9743872,N,10357.5043344,E,4,24,1.0,532.109,M,-40.962,M,3.0,*6A
$GPGSA,A,3,08,09,16,23,26,27,31,,,,,,2.4,1.1,2.1,1*2E
$GAGSA,A,3,02,03,05,24,25,,,,,,,,3.4,1.4,3.1,3*39
$GPGSV,2,1,07,08,37,184,44,09,32,313,45,16,62,012,45,23,62,287,45,1*61
$GPGSV,2,2,07,26,37,042,44,27,60,143,47,31,19,096,43,,,,,1*51
$GAGSV,2,1,05,02,35,283,42,03,54,253,43,05,31,182,39,24,24,058,00,7*74
$GAGSV,2,2,05,25,58,002,43,,,,,,,,,,,,,7*49
$GPRMC,052637.20,A,3046.9743883,N,10357.5043345,E,0.02,111.22,260319,0.0,E,D*30
$GPGGA,052637.20,3046.9743883,N,10357.5043345,E,4,24,1.0,532.107,M,-40.962,M,1.2,*69
$GPGSA,A,3,08,09,16,23,26,27,31,,,,,,2.4,1.1,2.1,1*2E
$GAGSA,A,3,02,03,05,24,25,,,,,,,,3.4,1.4,3.1,3*39
$GPGSV,2,1,07,08,37,184,44,09,32,313,45,16,62,012,45,23,62,287,45,1*61
$GPGSV,2,2,07,26,37,042,44,27,60,143,47,31,19,096,43,,,,,1*51
$GAGSV,2,1,05,02,35,283,42,03,54,253,43,05,31,182,39,24,24,058,00,7*74
$GAGSV,2,2,05,25,58,002,43,,,,,,,,,,,,,7*49
$GPRMC,052637.40,A,3046.9743883,N,10357.5043342,E,0.03,111.22,260319,0.0,E,D*30
$GPGGA,052637.40,3046.9743883,N,10357.5043342,E,4,24,1.0,532.104,M,-40.962,M,1.4,*6D
$GPGSA,A,3,08,09,16,23,26,27,31,,,,,,2.4,1.1,2.1,1*2E
$GAGSA,A,3,02,03,05,24,25,,,,,,,,3.4,1.4,3.1,3*39
$GPGSV,2,1,07,08,37,184,44,09,32,313,45,16,62,012,45,23,62,287,45,1*61
$GPGSV,2,2,07,26,37,042,44,27,60,143,47,31,19,096,43,,,,,1*51
$GAGSV,2,1,05,02,35,283,42,03,54,253,43,05,31,182,39,24,24,058,00,7*74
$GAGSV,2,2,05,25,58,002,43,,,,,,,,,,,,,7*49
$GPRMC,052637.60,A,3046.9743881,N,10357.5043336,E,0.06,111.22,260319,0.0,E,D*36
$GPGGA,052637.60,3046.9743881,N,10357.5043336,E,4,24,1.0,532.104,M,-40.962,M,1.6,*6C
$GPGSA,A,3,08,09,16,23,26,27,31,,,,,,2.4,1.1,2.1,1*2E
$GAGSA,A,3,02,03,05,24,25,,,,,,,,3.4,1.4,3.1,3*39
$GPGSV,2,1,07,08,37,184,44,09,32,313,45,16,62,012,45,23,62,287,45,1*61
$GPGSV,2,2,07,26,37,042,44,27,60,143,47,31,19,096,43,,,,,1*51
$GAGSV,2,1,05,02,35,283,42,03,54,253,43,05,31,182,39,24,24,058,00,7*74
$GAGSV,2,2,05,25,58,002,43,,,,,,,,,,,,,7*49
$GPRMC,052637.80,A,3046.9743883,N,10357.5043336,E,0.07,111.22,260319,0.0,E,D*3B
$GPGGA,052637.80,3046.9743883,N,10357.5043336,E,4,24,1.0,532.105,M,-40.962,M,1.8,*6F
$GPGSA,A,3,08,09,16,23,26,27,31,,,,,,2.4,1.1,2.1,1*2E
$GAGSA,A,3,02,03,05,24,25,,,,,,,,3.4,1.4,3.1,3*39
$GPGSV,2,1,07,08,37,184,44,09,32,313,45,16,62,012,45,23,62,287,45,1*61
$GPGSV,2,2,07,26,37,042,44,27,60,143,47,31,19,096,43,,,,,1*51
$GAGSV,2,1,05,02,35,283,42,03,54,253,43,05,31,182,39,24,24,058,00,7*74
$GAGSV,2,2,05,25,58,002,43,,,,,,,,,,,,,7*49
$GPRMC,052638.00,A,3046.9743881,N,10357.5043334,E,0.10,111.22,260319,0.0,E,D*3A
$GPGGA,052638.00,3046.9743881,N,10357.5043334,E,4,24,1.0,532.103,M,-40.962,M,2.0,*65
$GPGSA,A,3,08,09,16,23,26,27,31,,,,,,2.4,1.1,2.1,1*2E
$GAGSA,A,3,02,03,05,24,25,,,,,,,,3.4,1.4,3.1,3*39
$GPGSV,2,1,07,08,37,184,44,09,32,313,45,16,62,012,45,23,62,287,45,1*61
$GPGSV,2,2,07,26,37,042,44,27,60,143,47,31,19,096,43,,,,,1*51
$GAGSV,2,1,05,02,35,283,42,03,54,253,43,05,31,182,39,24,24,058,00,7*74
$GAGSV,2,2,05,25,58,002,43,,,,,,,,,,,,,7*49
$GPRMC,052638.20,A,3046.9743880,N,10357.5043334,E,0.11,111.22,260319,0.0,E,D*38
$GPGGA,052638.20,3046.9743880,N,10357.5043334,E,4,24,1.0,532.103,M,-40.962,M,2.2,*64
$GPGSA,A,3,08,09,16,23,26,27,31,,,,,,2.4,1.1,2.1,1*2E
$GAGSA,A,3,02,03,05,24,25,,,,,,,,3.4,1.4,3.1,3*39
$GPGSV,2,1,07,08,37,184,44,09,32,313,45,16,62,012,45,23,62,287,45,1*61
$GPGSV,2,2,07,26,37,042,44,27,60,143,47,31,19,096,43,,,,,1*51
$GAGSV,2,1,05,02,35,283,42,03,54,253,43,05,31,182,39,24,24,058,00,7*74
$GAGSV,2,2,05,25,58,002,43,,,,,,,,,,,,,7*49
$GPRMC,052638.40,A,3046.9743877,N,10357.5043331,E,0.03,111.22,260319,0.0,E,D*30
$GPGGA,052638.40,3046.9743877,N,10357.5043331,E,4,24,1.0,532.106,M,-40.962,M,2.4,*6C
$GPGSA,A,3,08,09,16,23,26,27,31,,,,,,2.4,1.1,2.1,1*2E
$GAGSA,A,3,02,03,05,24,25,,,,,,,,3.4,1.4,3.1,3*39
$GPGSV,2,1,07,08,37,184,44,09,32,313,45,16,62,012,45,23,62,287,45,1*61
$GPGSV,2,2,07,26,37,042,44,27,60,143,47,31,19,096,43,,,,,1*51
$GAGSV,2,1,05,02,35,283,42,03,54,253,43,05,31,182,39,24,24,058,00,7*74
$GAGSV,2,2,05,25,58,002,43,,,,,,,,,,,,,7*49
$GPRMC,052638.60,A,3046.9743883,N,10357.5043334,E,0.03,111.22,260319,0.0,E,D*3C
$GPGGA,052638.60,3046.9743883,N,10357.5043334,E,4,24,1.0,532.106,M,-40.962,M,2.6,*62
$GPGSA,A,3,08,09,16,23,26,27,31,,,,,,2.4,1.1,2.1,1*2E
$GAGSA,A,3,02,03,05,24,25,,,,,,,,3.4,1.4,3.1,3*39
$GPGSV,2,1,07,08,37,184,44,09,32,313,45,16,62,012,45,23,62,287,45,1*61
$GPGSV,2,2,07,26,37,042,44,27,60,143,47,31,19,096,43,,,,,1*51
$GAGSV,2,1,05,02,35,283,42,03,54,253,43,05,31,182,39,24,24,058,00,7*74
$GAGSV,2,2,05,25,58,002,43,,,,,,,,,,,,,7*49
$GPRMC,052638.80,A,3046.9743894,N,10357.5043335,E,0.04,111.22,260319,0.0,E,D*32
$GPGGA,052638.80,3046.9743894,N,10357.5043335,E,4,24,1.0,532.105,M,-40.962,M,2.8,*66
$GPGSA,A,3,08,09,16,23,26,27,31,,,,,,2.4,1.1,2.1,1*2E
$GAGSA,A,3,02,03,05,24,25,,,,,,,,3.4,1.4,3.1,3*39
$GPGSV,2,1,07,08,37,184,44,09,32,313,45,16,62,012,45,23,62,287,45,1*61
$GPGSV,2,2,07,26,37,042,44,27,60,143,47,31,19,096,43,,,,,1*51
$GAGSV,2,1,05,02,35,283,42,03,54,253,43,05,31,182,39,24,24,058,00,7*74
$GAGSV,2,2,05,25,58,002,43,,,,,,,,,,,,,7*49
$GPRMC,052639.00,A,3046.9743890,N,10357.5043328,E,0.03,111.22,260319,0.0,E,D*34
$GPGGA,052639.00,3046.9743890,N,10357.5043328,E,4,24,1.0,532.105,M,-40.962,M,3.0,*6E
$GPGSA,A,3,08,09,16,23,26,27,31,,,,,,2.4,1.1,2.1,1*2E
$GAGSA,A,3,02,03,05,24,25,,,,,,,,3.4,1.4,3.1,3*39
$GPGSV,2,1,07,08,37,184,44,09,32,313,45,16,62,012,45,23,62,287,45,1*61
$GPGSV,2,2,07,26,37,042,44,27,60,143,47,31,19,096,43,,,,,1*51
$GAGSV,2,1,05,02,35,283,42,03,54,253,43,05,31,182,39,24,24,058,00,7*74
$GAGSV,2,2,05,25,58,002,43,,,,,,,,,,,,,7*49
$GPRMC,052639.20,A,3046.9743887,N,10357.5043336,E,0.08,111.22,260319,0.0,E,D*34
$GPGGA,052639.20,3046.9743887,N,10357.5043336,E,4,24,1.0,532.107,M,-40.962,M,1.2,*67
$GPGSA,A,3,08,09,16,23,26,27,31,,,,,,2.4,1.1,2.1,1*2E
$GAGSA,A,3,02,03,05,24,25,,,,,,,,3.4,1.4,3.1,3*39
$GPGSV,2,1,07,08,37,184,44,09,32,313,45,16,62,012,45,23,62,287,45,1*61
$GPGSV,2,2,07,26,37,042,44,27,60,143,47,31,19,096,43,,,,,1*51
$GAGSV,2,1,05,02,35,283,42,03,54,253,43,05,31,182,39,24,24,058,00,7*74
$GAGSV,2,2,05,25,58,002,43,,,,,,,,,,,,,7*49
$GPRMC,052639.40,A,3046.9743892,N,10357.5043335,E,0.05,111.22,260319,0.0,E,D*38
$GPGGA,052639.40,3046.9743892,N,10357.5043335,E,4,24,1.0,532.108,M,-40.962,M,1.4,*6F
$GPGSA,A,3,08,09,16,23,26,27,31,,,,,,2.4,1.1,2.1,1*2E
$GAGSA,A,3,02,03,05,24,25,,,,,,,,3.4,1.4,3.1,3*39
$GPGSV,2,1,07,08,37,184,44,09,32,313,45,16,62,012,45,23,62,287,45,1*61
$GPGSV,2,2,07,26,37,042,44,27,60,143,47,31,19,096,43,,,,,1*51
$GAGSV,2,1,05,02,35,283,42,03,54,253,43,05,31,182,39,24,24,058,00,7*74
$GAGSV,2,2,05,25,58,002,43,,,,,,,,,,,,,7*49
$GPRMC,052639.60,A,3046.9743886,N,10357.5043337,E,0.03,111.22,260319,0.0,E,D*3B
$GPGGA,052639.60,3046.9743886,N,10357.5043337,E,4,24,1.0,532.107,M,-40.962,M,1.6,*67
$GPGSA,A,3,08,09,16,23,26,27,31,,,,,,2.4,1.1,2.1,1*2E
$GAGSA,A,3,02,03,05,24,25,,,,,,,,3.4,1.4,3.1,3*39
$GPGSV,2,1,07,08,37,184,44,09,32,313,45,16,62,012,45,23,62,287,45,1*61
$GPGSV,2,2,07,26,37,042,44,27,60,143,47,31,19,096,43,,,,,1*51
$GAGSV,2,1,05,02,35,283,42,03,54,253,43,05,31,182,39,24,24,058,00,7*74
$GAGSV,2,2,05,25,58,002,43,,,,,,,,,,,,,7*49
$GPRMC,052639.80,A,3046.9743886,N,10357.5043339,E,0.06,111.22,260319,0.0,E,D*3E
$GPGGA,052639.80,3046.9743886,N,10357.5043339,E,4,24,1.0,532.107,M,-40.962,M,1.8,*69
$GPGSA,A,3,08,09,16,23,26,27,31,,,,,,2.4,1.1,2.1,1*2E
$GAGSA,A,3,02,03,05,24,25,,,,,,,,3.4,1.4,3.1,3*39
$GPGSV,2,1,07,08,37,184,44,09,32,313,45,16,62,012,45,23,62,287,45,1*61
$GPGSV,2,2,07,26,37,042,44,27,60,143,47,31,19,096,43,,,,,1*51
$GAGSV,2,1,05,02,35,283,42,03,54,253,43,05,31,182,39,24,24,058,00,7*74
$GAGSV,2,2,05,25,58,002,43,,,,,,,,,,,,,7*49
$GPRMC,052640.00,A,3046.9743883,N,10357.5043330,E,0.06,111.22,260319,0.0,E,D*34
$GPGGA,052640.00,3046.9743883,N,10357.5043330,E,4,24,1.0,532.105,M,-40.962,M,2.0,*6A
$GPGSA,A,3,08,09,16,23,26,27,31,,,,,,2.4,1.1,2.1,1*2E
$GAGSA,A,3,02,03,05,24,25,,,,,,,,3.4,1.4,3.1,3*39
$GPGSV,2,1,07,08,37,184,44,09,32,313,45,16,62,012,45,23,62,287,45,1*61
$GPGSV,2,2,07,26,37,042,44,27,60,143,47,31,19,096,43,,,,,1*51
$GAGSV,2,1,05,02,35,283,42,03,54,253,43,05,31,182,39,24,24,058,00,7*74
$GAGSV,2,2,05,25,58,002,43,,,,,,,,,,,,,7*49
$GPRMC,052640.20,A,3046.9743883,N,10357.5043337,E,0.03,111.22,260319,0.0,E,D*34
$GPGGA,052640.20,3046.9743883,N,10357.5043337,E,4,24,1.0,532.105,M,-40.962,M,2.2,*6D
$GPGSA,A,3,08,09,16,23,26,27,31,,,,,,2.4,1.1,2.1,1*2E
$GAGSA,A,3,02,03,05,24,25,,,,,,,,3.4,1.4,3.1,3*39
$GPGSV,2,1,07,08,37,184,44,09,32,313,45,16,62,012,45,23,62,287,45,1*61
$GPGSV,2,2,07,26,37,042,44,27,60,143,47,31,19,096,43,,,,,1*51
$GAGSV,2,1,05,02,35,283,42,03,54,253,43,05,31,182,39,24,24,058,00,7*74
$GAGSV,2,2,05,25,58,002,43,,,,,,,,,,,,,7*49
$GPRMC,052640.40,A,3046.9743879,N,10357.5043322,E,0.05,111.22,260319,0.0,E,D*35
$GPGGA,052640.40,3046.9743879,N,10357.5043322,E,4,24,1.0,532.105,M,-40.962,M,2.4,*6C
$GPGSA,A,3,08,09,16,23,26,27,31,,,,,,2.4,1.1,2.1,1*2E
$GAGSA,A,3,02,03,05,24,25,,,,,,,,3.4,1.4,3.1,3*39
$GPGSV,2,1,07,08,37,184,44,09,32,313,45,16,62,012,45,23,62,287,45,1*61
$GPGSV,2,2,07,26,37,042,44,27,60,143,47,31,19,096,43,,,,,1*51
$GAGSV,2,1,05,02,35,283,42,03,54,253,44,05,31,182,39,24,24,058,00,7*73
$GAGSV,2,2,05,25,58,002,43,,,,,,,,,,,,,7*49
$GPRMC,052640.60,A,3046.9743880,N,10357.5043332,E,0.08,111.22,260319,0.0,E,D*3D
$GPGGA,052640.60,3046.9743880,N,10357.5043332,E,4,24,1.0,532.104,M,-40.962,M,2.6,*6A
$GPGSA,A,3,08,09,16,23,26,27,31,,,,,,2.4,1.1,2.1,1*2E
$GAGSA,A,3,02,03,05,24,25,,,,,,,,3.4,1.4,3.1,3*39
$GPGSV,2,1,07,08,37,184,44,09,32,313,45,16,62,012,45,23,62,287,45,1*61
$GPGSV,2,2,07,26,37,042,44,27,60,143,47,31,19,096,43,,,,,1*51
$GAGSV,2,1,05,02,35,283,42,03,54,253,44,05,31,182,39,24,24,058,00,7*73
$GAGSV,2,2,05,25,58,002,43,,,,,,,,,,,,,7*49
$GPRMC,052640.80,A,3046.9743877,N,10357.5043327,E,0.03,111.22,260319,0.0,E,D*34
$GPGGA,052640.80,3046.9743877,N,10357.5043327,E,4,24,1.0,532.104,M,-40.962,M,2.8,*66
$GPGSA,A,3,08,09,16,23,26,27,31,,,,,,2.4,1.1,2.1,1*2E
$GAGSA,A,3,02,03,05,24,25,,,,,,,,3.4,1.4,3.1,3*39
$GPGSV,2,1,07,08,37,184,44,09,32,313,45,16,62,012,45,23,62,287,45,1*61
$GPGSV,2,2,07,26,37,042,44,27,60,143,47,31,19,096,43,,,,,1*51
$GAGSV,2,1,05,02,35,283,42,03,54,253,44,05,31,182,39,24,24,058,00,7*73
$GAGSV,2,2,05,25,58,002,43,,,,,,,,,,,,,7*49
$GPRMC,052641.00,A,3046.9743877,N,10357.5043329,E,0.04,111.22,260319,0.0,E,D*34
$GPGGA,052641.00,3046.9743877,N,10357.5043329,E,4,24,1.0,532.103,M,-40.962,M,3.0,*6F
$GPGSA,A,3,08,09,16,23,26,27,31,,,,,,2.4,1.1,2.1,1*2E
$GAGSA,A,3,02,03,05,24,25,,,,,,,,3.4,1.4,3.1,3*39
$GPGSV,2,1,07,08,37,184,44,09,32,313,45,16,62,012,45,23,62,287,45,1*61
$GPGSV,2,2,07,26,37,042,44,27,60,143,47,31,19,096,43,,,,,1*51
$GAGSV,2,1,05,02,35,283,42,03,54,253,44,05,31,182,39,24,24,058,00,7*73
$GAGSV,2,2,05,25,58,002,43,,,,,,,,,,,,,7*49
$GPRMC,052641.20,A,3046.9743887,N,10357.5043341,E,0.08,111.22,260319,0.0,E,D*3B
$GPGGA,052641.20,3046.9743887,N,10357.5043341,E,4,24,1.0,532.104,M,-40.962,M,1.2,*6B
$GPGSA,A,3,08,09,16,23,26,27,31,,,,,,2.4,1.1,2.1,1*2E
$GAGSA,A,3,02,03,05,24,25,,,,,,,,3.4,1.4,3.1,3*39
$GPGSV,2,1,07,08,37,184,44,09,32,313,45,16,62,012,45,23,62,287,45,1*61
$GPGSV,2,2,07,26,37,042,44,27,60,143,47,31,19,096,43,,,,,1*51
$GAGSV,2,1,05,02,35,283,42,03,54,253,44,05,31,182,39,24,24,058,00,7*73
$GAGSV,2,2,05,25,58,002,43,,,,,,,,,,,,,7*49
$GPRMC,052641.40,A,3046.9743888,N,10357.5043336,E,0.04,111.22,260319,0.0,E,D*3E
$GPGGA,052641.40,3046.9743888,N,10357.5043336,E,4,24,1.0,532.104,M,-40.962,M,1.4,*64
$GPGSA,A,3,08,09,16,23,26,27,31,,,,,,2.4,1.1,2.1,1*2E
$GAGSA,A,3,02,03,05,24,25,,,,,,,,3.4,1.4,3.1,3*39
$GPGSV,2,1,07,08,37,184,44,09,32,313,45,16,62,012,45,23,62,287,45,1*61
$GPGSV,2,2,07,26,37,042,44,27,60,143,47,31,19,096,43,,,,,1*51
$GAGSV,2,1,05,02,35,283,42,03,54,253,44,05,31,182,39,24,24,058,00,7*73
$GAGSV,2,2,05,25,58,002,43,,,,,,,,,,,,,7*49
$GPRMC,052641.60,A,3046.9743888,N,10357.5043336,E,0.04,111.22,260319,0.0,E,D*3C
$GPGGA,052641.60,3046.9743888,N,10357.5043336,E,4,24,1.0,532.105,M,-40.962,M,1.6,*65
$GPGSA,A,3,08,09,16,23,26,27,31,,,,,,2.4,1.1,2.1,1*2E
$GAGSA,A,3,02,03,05,24,25,,,,,,,,3.4,1.4,3.1,3*39
$GPGSV,2,1,07,08,37,184,44,09,32,313,45,16,62,012,45,23,62,287,45,1*61
$GPGSV,2,2,07,26,37,042,44,27,60,143,47,31,19,096,43,,,,,1*51
$GAGSV,2,1,05,02,35,283,42,03,54,253,44,05,31,182,39,24,24,058,00,7*73
$GAGSV,2,2,05,25,58,002,43,,,,,,,,,,,,,7*49
$GPRMC,052641.80,A,3046.9743889,N,10357.5043336,E,0.05,111.22,260319,0.0,E,D*32
$GPGGA,052641.80,3046.9743889,N,10357.5043336,E,4,24,1.0,532.105,M,-40.962,M,1.8,*64
$GPGSA,A,3,08,09,16,23,26,27,31,,,,,,2.4,1.1,2.1,1*2E
$GAGSA,A,3,02,03,05,24,25,,,,,,,,3.4,1.4,3.1,3*39
$GPGSV,2,1,07,08,37,184,44,09,32,313,45,16,62,012,45,23,62,287,45,1*61
$GPGSV,2,2,07,26,37,042,44,27,60,143,47,31,19,096,43,,,,,1*51
$GAGSV,2,1,05,02,35,283,42,03,54,253,44,05,31,182,39,24,24,058,00,7*73
$GAGSV,2,2,05,25,58,002,43,,,,,,,,,,,,,7*49
$GPRMC,052642.00,A,3046.9743888,N,10357.5043327,E,0.05,111.22,260319,0.0,E,D*38
$GPGGA,052642.00,3046.9743888,N,10357.5043327,E,4,24,1.0,532.104,M,-40.962,M,2.0,*64
$GPGSA,A,3,08,09,16,23,26,27,31,,,,,,2.4,1.1,2.1,1*2E
$GAGSA,A,3,02,03,05,24,25,,,,,,,,3.4,1.4,3.1,3*39
$GPGSV,2,1,07,08,37,184,44,09,32,313,45,16,62,012,45,23,62,287,45,1*61
$GPGSV,2,2,07,26,37,042,44,27,60,143,47,31,19,096,43,,,,,1*51
$GAGSV,2,1,05,02,35,283,42,03,54,253,44,05,31,182,39,24,24,058,00,7*73
$GAGSV,2,2,05,25,58,002,43,,,,,,,,,,,,,7*49
$GPRMC,052642.20,A,3046.9743886,N,10357.5043332,E,0.04,111.22,260319,0.0,E,D*31
$GPGGA,052642.20,3046.9743886,N,10357.5043332,E,4,24,1.0,532.103,M,-40.962,M,2.2,*69
$GPGSA,A,3,08,09,16,23,26,27,31,,,,,,2.4,1.1,2.1,1*2E
$GAGSA,A,3,02,03,05,24,25,,,,,,,,3.4,1.4,3.1,3*39
$GPGSV,2,1,07,08,37,184,44,09,32,313,45,16,62,012,45,23,62,287,45,1*61
$GPGSV,2,2,07,26,37,042,44,27,60,143,47,31,19,096,43,,,,,1*51
$GAGSV,2,1,05,02,35,283,42,03,54,252,44,05,31,182,39,24,24,058,00,7*72
$GAGSV,2,2,05,25,58,002,43,,,,,,,,,,,,,7*49
$GPRMC,052642.40,A,3046.9743885,N,10357.5043332,E,0.02,111.22,260319,0.0,E,D*32
$GPGGA,052642.40,3046.9743885,N,10357.5043332,E,4,24,1.0,532.102,M,-40.962,M,2.4,*6B
$GPGSA,A,3,08,09,16,23,26,27,31,,,,,,2.4,1.1,2.1,1*2E
$GAGSA,A,3,02,03,05,24,25,,,,,,,,3.4,1.4,3.1,3*39
$GPGSV,2,1,07,08,37,184,44,09,32,313,45,16,62,012,45,23,62,287,45,1*61
$GPGSV,2,2,07,26,37,042,44,27,60,143,47,31,19,096,43,,,,,1*51
$GAGSV,2,1,05,02,35,283,42,03,54,252,44,05,31,182,39,24,24,058,00,7*72
$GAGSV,2,2,05,25,58,002,43,,,,,,,,,,,,,7*49
$GPRMC,052642.60,A,3046.9743882,N,10357.5043329,E,0.06,111.22,260319,0.0,E,D*39
$GPGGA,052642.60,3046.9743882,N,10357.5043329,E,4,24,1.0,532.101,M,-40.962,M,2.6,*65
$GPGSA,A,3,08,09,16,23,26,27,31,,,,,,2.4,1.1,2.1,1*2E
$GAGSA,A,3,02,03,05,24,25,,,,,,,,3.4,1.4,3.1,3*39
$GPGSV,2,1,07,08,37,184,44,09,32,313,45,16,62,012,45,23,62,287,45,1*61
$GPGSV,2,2,07,26,37,042,44,27,60,143,47,31,19,096,43,,,,,1*51
$GAGSV,2,1,05,02,35,283,42,03,54,252,44,05,31,182,39,24,24,058,00,7*72
$GAGSV,2,2,05,25,58,002,43,,,,,,,,,,,,,7*49
$GPRMC,052642.80,A,3046.9743887,N,10357.5043332,E,0.08,111.22,260319,0.0,E,D*36
$GPGGA,052642.80,3046.9743887,N,10357.5043332,E,4,24,1.0,532.102,M,-40.962,M,2.8,*69
$GPGSA,A,3,08,09,16,23,26,27,31,,,,,,2.4,1.1,2.1,1*2E
$GAGSA,A,3,02,03,05,24,25,,,,,,,,3.4,1.4,3.1,3*39
$GPGSV,2,1,07,08,37,184,44,09,32,313,45,16,62,012,45,23,62,287,45,1*61
$GPGSV,2,2,07,26,37,042,44,27,60,143,47,31,19,096,43,,,,,1*51
$GAGSV,2,1,05,02,35,283,42,03,54,252,44,05,31,182,39,24,24,058,00,7*72
$GAGSV,2,2,05,25,58,002,43,,,,,,,,,,,,,7*49
$GPRMC,052643.00,A,3046.9743883,N,10357.5043331,E,0.03,111.22,260319,0.0,E,D*33
$GPGGA,052643.00,3046.9743883,N,10357.5043331,E,4,24,1.0,532.102,M,-40.962,M,3.0,*6E
$GPGSA,A,3,08,09,16,23,26,27,31,,,,,,2.4,1.1,2.1,1*2E
$GAGSA,A,3,02,03,05,24,25,,,,,,,,3.4,1.4,3.1,3*39
$GPGSV,2,1,07,08,37,184,44,09,32,313,45,16,62,012,45,23,62,287,45,1*61
$GPGSV,2,2,07,26,37,042,44,27,60,143,47,31,19,096,43,,,,,1*51
$GAGSV,2,1,05,02,35,283,42,03,54,252,44,05,31,182,39,24,24,058,00,7*72
$GAGSV,2,2,05,25,58,002,43,,,,,,,,,,,,,7*49
$GPRMC,052643.20,A,3046.9743891,N,10357.5043331,E,0.03,111.22,260319,0.0,E,D*32
$GPGGA,052643.20,3046.9743891,N,10357.5043331,E,4,24,1.0,532.104,M,-40.962,M,1.2,*69
$GPGSA,A,3,08,09,16,23,26,27,31,,,,,,2.4,1.1,2.1,1*2E
$GAGSA,A,3,02,03,05,24,25,,,,,,,,3.4,1.4,3.1,3*39
$GPGSV,2,1,07,08,37,184,44,09,32,313,45,16,62,012,45,23,62,287,45,1*61
$GPGSV,2,2,07,26,37,042,44,27,60,143,47,31,19,096,43,,,,,1*51
$GAGSV,2,1,05,02,35,283,42,03,54,252,44,05,31,182,39,24,24,058,00,7*72
$GAGSV,2,2,05,25,58,002,43,,,,,,,,,,,,,7*49
$GPRMC,052643.40,A,3046.9743889,N,10357.5043331,E,0.06,111.22,260319,0.0,E,D*38
$GPGGA,052643.40,3046.9743889,N,10357.5043331,E,4,24,1.0,532.103,M,-40.962,M,1.4,*67
$GPGSA,A,3,08,09,16,23,26,27,31,,,,,,2.4,1.1,2.1,1*2E
$GAGSA,A,3,02,03,05,24,25,,,,,,,,3.4,1.4,3.1,3*39
$GPGSV,2,1,07,08,37,184,44,09,32,313,45,16,62,012,45,23,62,287,45,1*61
$GPGSV,2,2,07,26,37,042,44,27,60,143,47,31,19,096,43,,,,,1*51
$GAGSV,2,1,05,02,35,283,42,03,54,252,44,05,31,182,39,24,24,058,00,7*72
$GAGSV,2,2,05,25,58,002,43,,,,,,,,,,,,,7*49
$GPRMC,052643.60,A,3046.9743895,N,10357.5043327,E,0.06,111.22,260319,0.0,E,D*30
$GPGGA,052643.60,3046.9743895,N,10357.5043327,E,4,24,1.0,532.104,M,-40.962,M,1.6,*6A
$GPGSA,A,3,08,09,16,23,26,27,31,,,,,,2.4,1.1,2.1,1*2E
$GAGSA,A,3,02,03,05,24,25,,,,,,,,3.4,1.4,3.1,3*39
$GPGSV,2,1,07,08,37,184,44,09,32,313,45,16,62,012,45,23,62,287,45,1*61
$GPGSV,2,2,07,26,37,042,44,27,60,143,47,31,19,096,43,,,,,1*51
$GAGSV,2,1,05,02,35,283,42,03,54,252,44,05,31,182,39,24,24,058,00,7*72
$GAGSV,2,2,05,25,58,002,43,,,,,,,,,,,,,7*49
$GPRMC,052643.80,A,3046.9743893,N,10357.5043336,E,0.06,111.22,260319,0.0,E,D*38
$GPGGA,052643.80,3046.9743893,N,10357.5043336,E,4,24,1.0,532.103,M,-40.962,M,1.8,*6B
$GPGSA,A,3,08,09,16,23,26,27,31,,,,,,2.4,1.1,2.1,1*2E
$GAGSA,A,3,02,03,05,24,25,,,,,,,,3.4,1.4,3.1,3*39
$GPGSV,2,1,07,08,37,184,44,09,32,313,45,16,62,012,45,23,62,287,45,1*61
$GPGSV,2,2,07,26,37,042,44,27,60,143,47,31,19,096,43,,,,,1*51
$GAGSV,2,1,05,02,35,283,42,03,54,252,44,05,31,182,39,24,24,058,00,7*72
$GAGSV,2,2,05,25,58,002,43,,,,,,,,,,,,,7*49
$GPRMC,052644.00,A,3046.9743899,N,10357.5043325,E,0.08,111.22,260319,0.0,E,D*31
$GPGGA,052644.00,3046.9743899,N,10357.5043325,E,4,24,1.0,532.102,M,-40.962,M,2.0,*66
$GPGSA,A,3,08,09,16,23,26,27,31,,,,,,2.4,1.1,2.1,1*2E
$GAGSA,A,3,02,03,05,24,25,,,,,,,,3.4,1.4,3.1,3*39
$GPGSV,2,1,07,08,37,184,44,09,32,313,45,16,62,012,45,23,62,287,45,1*61
$GPGSV,2,2,07,26,37,042,44,27,60,143,47,31,19,096,43,,,,,1*51
$GAGSV,2,1,05,02,35,283,42,03,54,252,44,05,31,182,39,24,24,058,00,7*72
$GAGSV,2,2,05,25,58,002,43,,,,,,,,,,,,,7*49
$GPRMC,052644.20,A,3046.9743891,N,10357.5043330,E,0.03,111.22,260319,0.0,E,D*34
$GPGGA,052644.20,3046.9743891,N,10357.5043330,E,4,24,1.0,532.103,M,-40.962,M,2.2,*6B
$GPGSA,A,3,08,09,16,23,26,27,31,,,,,,2.4,1.1,2.1,1*2E
$GAGSA,A,3,02,03,05,24,25,,,,,,,,3.4,1.4,3.1,3*39
$GPGSV,2,1,07,08,37,184,44,09,32,313,45,16,62,012,45,23,62,287,45,1*61
$GPGSV,2,2,07,26,37,042,44,27,60,143,47,31,19,096,43,,,,,1*51
$GAGSV,2,1,05,02,35,283,42,03,54,252,44,05,31,182,39,24,24,058,00,7*72
$GAGSV,2,2,05,25,58,002,43,,,,,,,,,,,,,7*49
$GPRMC,052644.40,A,3046.9743893,N,10357.5043335,E,0.02,111.22,260319,0.0,E,D*34
$GPGGA,052644.40,3046.9743893,N,10357.5043335,E,4,24,1.0,532.102,M,-40.962,M,2.4,*6D
$GPGSA,A,3,08,09,16,23,26,27,31,,,,,,2.4,1.1,2.1,1*2E
$GAGSA,A,3,02,03,05,24,25,,,,,,,,3.4,1.4,3.1,3*39
$GPGSV,2,1,07,08,37,184,44,09,32,313,45,16,62,012,45,23,62,287,45,1*61
$GPGSV,2,2,07,26,37,042,44,27,60,143,47,31,19,096,43,,,,,1*51
$GAGSV,2,1,05,02,35,283,42,03,54,252,44,05,31,182,39,24,24,058,00,7*72
$GAGSV,2,2,05,25,58,002,43,,,,,,,,,,,,,7*49
$GPRMC,052644.60,A,3046.9743895,N,10357.5043333,E,0.05,111.22,260319,0.0,E,D*31
$GPGGA,052644.60,3046.9743895,N,10357.5043333,E,4,24,1.0,532.102,M,-40.962,M,2.6,*6D
$GPGSA,A,3,08,09,16,23,26,27,31,,,,,,2.4,1.1,2.1,1*2E
$GAGSA,A,3,02,03,05,24,25,,,,,,,,3.4,1.4,3.1,3*39
$GPGSV,2,1,07,08,37,184,44,09,32,313,45,16,62,012,45,23,62,287,45,1*61
$GPGSV,2,2,07,26,37,042,44,27,60,143,47,31,19,096,43,,,,,1*51
$GAGSV,2,1,05,02,35,283,42,03,54,252,44,05,31,182,39,24,24,058,00,7*72
$GAGSV,2,2,05,25,58,002,43,,,,,,,,,,,,,7*49
$GPRMC,052644.80,A,3046.9743888,N,10357.5043327,E,0.04,111.22,260319,0.0,E,D*37
$GPGGA,052644.80,3046.9743888,N,10357.5043327,E,4,24,1.0,532.101,M,-40.962,M,2.8,*67
$GPGSA,A,3,08,09,16,23,26,27,31,,,,,,2.4,1.1,2.1,1*2E
$GAGSA,A,3,02,03,05,24,25,,,,,,,,3.4,1.4,3.1,3*39
$GPGSV,2,1,07,08,37,184,44,09,32,313,45,16,62,012,45,23,62,287,45,1*61
$GPGSV,2,2,07,26,37,042,44,27,60,143,47,31,19,096,43,,,,,1*51
$GAGSV,2,1,05,02,35,283,42,03,54,252,44,05,31,182,39,24,24,058,00,7*72
$GAGSV,2,2,05,25,58,002,43,,,,,,,,,,,,,7*49
$GPRMC,052645.00,A,3046.9743890,N,10357.5043334,E,0.05,111.22,260319,0.0,E,D*34
$GPGGA,052645.00,3046.9743890,N,10357.5043334,E,4,24,1.0,532.099,M,-40.962,M,3.0,*6C
$GPGSA,A,3,08,09,16,23,26,27,31,,,,,,2.4,1.1,2.1,1*2E
$GAGSA,A,3,02,03,05,24,25,,,,,,,,3.4,1.4,3.1,3*39
$GPGSV,2,1,07,08,37,184,44,09,32,313,45,16,62,012,45,23,62,287,45,1*61
$GPGSV,2,2,07,26,37,042,44,27,60,143,47,31,19,096,43,,,,,1*51
$GAGSV,2,1,05,02,35,283,42,03,54,252,44,05,31,182,39,24,24,058,00,7*72
$GAGSV,2,2,05,25,58,002,43,,,,,,,,,,,,,7*49
$GPRMC,052645.20,A,3046.9743894,N,10357.5043338,E,0.04,111.22,260319,0.0,E,D*3F
$GPGGA,052645.20,3046.9743894,N,10357.5043338,E,4,24,1.0,532.104,M,-40.962,M,1.2,*63
$GPGSA,A,3,08,09,16,23,26,27,31,,,,,,2.4,1.1,2.1,1*2E
$GAGSA,A,3,02,03,05,24,25,,,,,,,,3.4,1.4,3.1,3*39
$GPGSV,2,1,07,08,37,184,44,09,32,313,45,16,62,012,45,23,62,287,45,1*61
$GPGSV,2,2,07,26,37,042,44,27,60,143,47,31,19,096,43,,,,,1*51
$GAGSV,2,1,05,02,35,283,42,03,54,252,44,05,31,182,39,24,24,058,00,7*72
$GAGSV,2,2,05,25,58,002,43,,,,,,,,,,,,,7*49
$GPRMC,052645.40,A,3046.9743893,N,10357.5043334,E,0.03,111.22,260319,0.0,E,D*35
$GPGGA,052645.40,3046.9743893,N,10357.5043334,E,4,24,1.0,532.106,M,-40.962,M,1.4,*6A
$GPGSA,A,3,08,09,16,23,26,27,31,,,,,,2.4,1.1,2.1,1*2E
$GAGSA,A,3,02,03,05,24,25,,,,,,,,3.4,1.4,3.1,3*39
$GPGSV,2,1,07,08,37,184,44,09,32,313,45,16,62,012,45,23,62,287,45,1*61
$GPGSV,2,2,07,26,37,042,44,27,60,143,47,31,19,096,43,,,,,1*51
$GAGSV,2,1,05,02,35,283,42,03,54,252,44,05,31,182,39,24,24,058,00,7*72
$GAGSV,2,2,05,25,58,002,43,,,,,,,,,,,,,7*49
$GPRMC,052645.60,A,3046.9743890,N,10357.5043334,E,0.02,111.22,260319,0.0,E,D*35
$GPGGA,052645.60,3046.9743890,N,10357.5043334,E,4,24,1.0,532.105,M,-40.962,M,1.6,*6A
$GPGSA,A,3,08,09,16,23,26,27,31,,,,,,2.4,1.1,2.1,1*2E
$GAGSA,A,3,02,03,05,24,25,,,,,,,,3.4,1.4,3.1,3*39
$GPGSV,2,1,07,08,37,184,44,09,32,313,45,16,62,012,45,23,62,287,45,1*61
$GPGSV,2,2,07,26,37,042,44,27,60,143,47,31,19,096,43,,,,,1*51
$GAGSV,2,1,05,02,35,283,42,03,54,252,44,05,31,182,39,24,24,058,00,7*72
$GAGSV,2,2,05,25,58,002,43,,,,,,,,,,,,,7*49
$GPRMC,052645.80,A,3046.9743891,N,10357.5043331,E,0.03,111.22,260319,0.0,E,D*3E
$GPGGA,052645.80,3046.9743891,N,10357.5043331,E,4,24,1.0,532.106,M,-40.962,M,1.8,*6D
$GPGSA,A,3,08,09,16,23,26,27,31,,,,,,2.4,1.1,2.1,1*2E
$GAGSA,A,3,02,03,05,24,25,,,,,,,,3.4,1.4,3.1,3*39
$GPGSV,2,1,07,08,37,184,44,09,32,313,45,16,62,012,45,23,62,287,45,1*61
$GPGSV,2,2,07,26,37,042,44,27,60,143,47,31,19,096,43,,,,,1*51
$GAGSV,2,1,05,02,35,283,42,03,54,252,44,05,31,182,39,24,24,058,00,7*72
$GAGSV,2,2,05,25,58,002,43,,,,,,,,,,,,,7*49
$GPRMC,052646.00,A,3046.9743892,N,10357.5043330,E,0.08,111.22,260319,0.0,E,D*3C
$GPGGA,052646.00,3046.9743892,N,10357.5043330,E,4,24,1.0,532.107,M,-40.962,M,2.0,*6E
$GPGSA,A,3,08,09,16,23,26,27,31,,,,,,2.4,1.1,2.1,1*2E
$GAGSA,A,3,02,03,05,24,25,,,,,,,,3.4,1.4,3.1,3*39
$GPGSV,2,1,07,08,37,184,44,09,32,313,45,16,62,012,45,23,62,287,45,1*61
$GPGSV,2,2,07,26,37,042,44,27,60,143,47,31,19,096,43,,,,,1*51
$GAGSV,2,1,05,02,35,283,42,03,54,252,43,05,31,182,39,24,24,058,00,7*75
$GAGSV,2,2,05,25,58,002,43,,,,,,,,,,,,,7*49
$GPRMC,052646.20,A,3046.9743889,N,10357.5043333,E,0.05,111.22,260319,0.0,E,D*3A
$GPGGA,052646.20,3046.9743889,N,10357.5043333,E,4,24,1.0,532.105,M,-40.962,M,2.2,*65
$GPGSA,A,3,08,09,16,23,26,27,31,,,,,,2.4,1.1,2.1,1*2E
$GAGSA,A,3,02,03,05,24,25,,,,,,,,3.4,1.4,3.1,3*39
$GPGSV,2,1,07,08,37,184,44,09,32,313,45,16,62,012,45,23,62,287,45,1*61
$GPGSV,2,2,07,26,37,042,44,27,60,143,47,31,19,096,43,,,,,1*51
$GAGSV,2,1,05,02,35,283,42,03,54,252,43,05,31,182,39,24,24,058,00,7*75
$GAGSV,2,2,05,25,58,002,43,,,,,,,,,,,,,7*49
$GPRMC,052646.40,A,3046.9743891,N,10357.5043333,E,0.06,111.22,260319,0.0,E,D*36
$GPGGA,052646.40,3046.9743891,N,10357.5043333,E,4,24,1.0,532.103,M,-40.962,M,2.4,*6A
$GPGSA,A,3,08,09,16,23,26,27,31,,,,,,2.4,1.1,2.1,1*2E
$GAGSA,A,3,02,03,05,24,25,,,,,,,,3.4,1.4,3.1,3*39
$GPGSV,2,1,07,08,37,184,44,09,32,313,45,16,62,012,45,23,62,287,45,1*61
$GPGSV,2,2,07,26,37,042,44,27,60,143,47,31,19,096,43,,,,,1*51
$GAGSV,2,1,05,02,35,283,42,03,54,252,43,05,31,182,39,24,24,058,00,7*75
$GAGSV,2,2,05,25,58,002,43,,,,,,,,,,,,,7*49
$GPRMC,052646.60,A,3046.9743897,N,10357.5043333,E,0.07,111.22,260319,0.0,E,D*33
$GPGGA,052646.60,3046.9743897,N,10357.5043333,E,4,24,1.0,532.103,M,-40.962,M,2.6,*6C
$GPGSA,A,3,08,09,16,23,26,27,31,,,,,,2.4,1.1,2.1,1*2E
$GAGSA,A,3,02,03,05,24,25,,,,,,,,3.4,1.4,3.1,3*39
$GPGSV,2,1,07,08,37,184,44,09,32,313,45,16,62,012,45,23,62,287,45,1*61
$GPGSV,2,2,07,26,37,042,44,27,60,143,47,31,19,096,43,,,,,1*51
$GAGSV,2,1,05,02,35,283,42,03,54,252,43,05,31,182,38,24,24,058,00,7*74
$GAGSV,2,2,05,25,58,002,43,,,,,,,,,,,,,7*49
$GPRMC,052646.80,A,3046.9743888,N,10357.5043334,E,0.06,111.22,260319,0.0,E,D*35
$GPGGA,052646.80,3046.9743888,N,10357.5043334,E,4,24,1.0,532.104,M,-40.962,M,2.8,*62
$GPGSA,A,3,08,09,16,23,26,27,31,,,,,,2.4,1.1,2.1,1*2E
$GAGSA,A,3,02,03,05,24,25,,,,,,,,3.4,1.4,3.1,3*39
$GPGSV,2,1,07,08,37,184,44,09,32,313,45,16,62,012,45,23,62,287,45,1*61
$GPGSV,2,2,07,26,37,042,44,27,60,143,47,31,19,096,43,,,,,1*51
$GAGSV,2,1,05,02,35,283,42,03,54,252,43,05,31,182,38,24,24,058,00,7*74
$GAGSV,2,2,05,25,58,002,43,,,,,,,,,,,,,7*49
$GPRMC,052647.00,A,3046.9743893,N,10357.5043329,E,0.06,111.22,260319,0.0,E,D*3A
$GPGGA,052647.00,3046.9743893,N,10357.5043329,E,4,24,1.0,532.105,M,-40.962,M,3.0,*65
$GPGSA,A,3,08,09,16,23,26,27,31,,,,,,2.4,1.1,2.1,1*2E
$GAGSA,A,3,02,03,05,24,25,,,,,,,,3.4,1.4,3.1,3*39
$GPGSV,2,1,07,08,37,184,44,09,32,313,45,16,62,012,45,23,62,287,45,1*61
$GPGSV,2,2,07,26,37,042,44,27,60,143,47,31,19,096,43,,,,,1*51
$GAGSV,2,1,05,02,35,283,42,03,54,252,43,05,31,182,39,24,24,058,00,7*75
$GAGSV,2,2,05,25,58,002,43,,,,,,,,,,,,,7*49
$GPRMC,052647.20,A,3046.9743889,N,10357.5043321,E,0.07,111.22,260319,0.0,E,D*3A
$GPGGA,052647.20,3046.9743889,N,10357.5043321,E,4,24,1.0,532.106,M,-40.962,M,3.2,*65
$GPGSA,A,3,08,09,16,23,26,27,31,,,,,,2.4,1.1,2.1,1*2E
$GAGSA,A,3,02,03,05,24,25,,,,,,,,3.4,1.4,3.1,3*39
$GPGSV,2,1,07,08,37,184,44,09,32,313,45,16,62,012,45,23,62,287,45,1*61
$GPGSV,2,2,07,26,37,042,44,27,60,143,47,31,19,096,43,,,,,1*51
$GAGSV,2,1,05,02,35,283,42,03,54,252,43,05,31,182,39,24,24,058,00,7*75
$GAGSV,2,2,05,25,58,002,43,,,,,,,,,,,,,7*49
$GPRMC,052647.40,A,3046.9743896,N,10357.5043328,E,0.06,111.22,260319,0.0,E,D*3A
$GPGGA,052647.40,3046.9743896,N,10357.5043328,E,4,24,1.0,532.104,M,-40.962,M,3.4,*60
$GPGSA,A,3,08,09,16,23,26,27,31,,,,,,2.4,1.1,2.1,1*2E
$GAGSA,A,3,02,03,05,24,25,,,,,,,,3.4,1.4,3.1,3*39
$GPGSV,2,1,07,08,37,184,44,09,32,313,45,16,62,012,45,23,62,287,45,1*61
$GPGSV,2,2,07,26,37,042,44,27,60,143,47,31,19,096,43,,,,,1*51
$GAGSV,2,1,05,02,35,283,42,03,54,252,43,05,31,182,39,24,24,058,00,7*75
$GAGSV,2,2,05,25,58,002,43,,,,,,,,,,,,,7*49
$GPRMC,052647.60,A,3046.9743889,N,10357.5043325,E,0.02,111.22,260319,0.0,E,D*3F
$GPGGA,052647.60,3046.9743889,N,10357.5043325,E,4,24,1.0,532.105,M,-40.962,M,3.6,*62
$GPGSA,A,3,08,09,16,23,26,27,31,,,,,,2.4,1.1,2.1,1*2E
$GAGSA,A,3,02,03,05,24,25,,,,,,,,3.4,1.4,3.1,3*39
$GPGSV,2,1,07,08,37,184,44,09,32,313,45,16,62,012,45,23,62,287,45,1*61
$GPGSV,2,2,07,26,37,042,44,27,60,143,47,31,19,096,43,,,,,1*51
$GAGSV,2,1,05,02,35,283,42,03,54,252,43,05,31,182,39,24,24,058,00,7*75
$GAGSV,2,2,05,25,58,002,43,,,,,,,,,,,,,7*49
$GPRMC,052647.80,A,3046.9743887,N,10357.5043323,E,0.03,111.22,260319,0.0,E,D*38
$GPGGA,052647.80,3046.9743887,N,10357.5043323,E,4,24,1.0,532.104,M,-40.962,M,3.8,*6B
$GPGSA,A,3,08,09,16,23,26,27,31,,,,,,2.4,1.1,2.1,1*2E
$GAGSA,A,3,02,03,05,24,25,,,,,,,,3.4,1.4,3.1,3*39
$GPGSV,2,1,07,08,37,184,44,09,32,313,45,16,62,012,45,23,62,287,45,1*61
$GPGSV,2,2,07,26,37,042,44,27,60,143,47,31,19,096,43,,,,,1*51
$GAGSV,2,1,05,02,35,283,42,03,54,252,43,05,31,182,39,24,24,058,00,7*75
$GAGSV,2,2,05,25,58,002,43,,,,,,,,,,,,,7*49
$GPRMC,052648.00,A,3046.9743887,N,10357.5043323,E,0.01,111.22,260319,0.0,E,D*3D
$GPGGA,052648.00,3046.9743887,N,10357.5043323,E,4,24,1.0,532.105,M,-40.962,M,4.0,*62
$GPGSA,A,3,08,09,16,23,26,27,31,,,,,,2.4,1.1,2.1,1*2E
$GAGSA,A,3,02,03,05,24,25,,,,,,,,3.4,1.4,3.1,3*39
$GPGSV,2,1,07,08,37,184,44,09,32,313,45,16,62,012,45,23,62,287,45,1*61
$GPGSV,2,2,07,26,37,042,44,27,60,143,47,31,19,096,43,,,,,1*51
$GAGSV,2,1,05,02,35,283,42,03,54,252,43,05,31,182,39,24,24,058,00,7*75
$GAGSV,2,2,05,25,58,002,43,,,,,,,,,,,,,7*49
$GPRMC,052648.20,A,3046.9743887,N,10357.5043328,E,0.03,111.22,260319,0.0,E,D*36
$GPGGA,052648.20,3046.9743887,N,10357.5043328,E,4,24,1.0,532.104,M,-40.962,M,4.2,*68
$GPGSA,A,3,08,09,16,23,26,27,31,,,,,,2.4,1.1,2.1,1*2E
$GAGSA,A,3,02,03,05,24,25,,,,,,,,3.4,1.4,3.1,3*39
$GPGSV,2,1,07,08,37,184,44,09,32,313,45,16,62,012,45,23,62,287,45,1*61
$GPGSV,2,2,07,26,37,042,44,27,60,143,47,31,19,096,43,,,,,1*51
$GAGSV,2,1,05,02,35,283,42,03,54,252,43,05,31,182,39,24,24,058,00,7*75
$GAGSV,2,2,05,25,58,002,43,,,,,,,,,,,,,7*49
$GPRMC,052648.40,A,3046.9743888,N,10357.5043327,E,0.06,111.22,260319,0.0,E,D*35
$GPGGA,052648.40,3046.9743888,N,10357.5043327,E,4,24,1.0,532.104,M,-40.962,M,4.4,*68
$GPGSA,A,3,08,09,16,23,26,27,31,,,,,,2.4,1.1,2.1,1*2E
$GAGSA,A,3,02,03,05,24,25,,,,,,,,3.4,1.4,3.1,3*39
$GPGSV,2,1,07,08,37,184,44,09,32,313,45,16,62,012,45,23,62,287,45,1*61
$GPGSV,2,2,07,26,37,042,44,27,60,143,47,31,19,096,43,,,,,1*51
$GAGSV,2,1,05,02,35,283,42,03,54,252,43,05,31,182,39,24,24,058,00,7*75
$GAGSV,2,2,05,25,58,002,43,,,,,,,,,,,,,7*49
$GPRMC,052648.60,A,3046.9743886,N,10357.5043323,E,0.04,111.22,260319,0.0,E,D*3F
$GPGGA,052648.60,3046.9743886,N,10357.5043323,E,4,24,1.0,532.106,M,-40.962,M,4.6,*60
$GPGSA,A,3,08,09,16,23,26,27,31,,,,,,2.4,1.1,2.1,1*2E
$GAGSA,A,3,02,03,05,24,25,,,,,,,,3.4,1.4,3.1,3*39
$GPGSV,2,1,07,08,37,184,44,09,32,313,45,16,62,012,45,23,62,287,45,1*61
$GPGSV,2,2,07,26,37,042,44,27,60,143,47,31,19,096,43,,,,,1*51
$GAGSV,2,1,05,02,35,283,42,03,54,252,43,05,31,182,39,24,24,058,00,7*75
$GAGSV,2,2,05,25,58,002,43,,,,,,,,,,,,,7*49
$GPRMC,052648.80,A,3046.9743890,N,10357.5043322,E,0.02,111.22,260319,0.0,E,D*31
$GPGGA,052648.80,3046.9743890,N,10357.5043322,E,4,24,1.0,532.105,M,-40.962,M,4.8,*65
$GPGSA,A,3,08,09,16,23,26,27,31,,,,,,2.4,1.1,2.1,1*2E
$GAGSA,A,3,02,03,05,24,25,,,,,,,,3.4,1.4,3.1,3*39
$GPGSV,2,1,07,08,37,184,44,09,32,313,45,16,62,012,45,23,62,287,45,1*61
$GPGSV,2,2,07,26,37,042,44,27,60,143,47,31,19,096,43,,,,,1*51
$GAGSV,2,1,05,02,35,283,42,03,54,252,44,05,31,182,39,24,24,058,00,7*72
$GAGSV,2,2,05,25,58,002,43,,,,,,,,,,,,,7*49
$GPRMC,052649.00,A,3046.9743887,N,10357.5043322,E,0.06,111.22,260319,0.0,E,D*3A
$GPGGA,052649.00,3046.9743887,N,10357.5043322,E,4,24,1.0,532.105,M,-40.962,M,5.0,*63
$GPGSA,A,3,08,09,16,23,26,27,31,,,,,,2.4,1.1,2.1,1*2E
$GAGSA,A,3,02,03,05,24,25,,,,,,,,3.4,1.4,3.1,3*39
$GPGSV,2,1,07,08,37,184,44,09,32,313,45,16,62,012,45,23,62,287,45,1*61
$GPGSV,2,2,07,26,37,042,44,27,60,143,47,31,19,096,43,,,,,1*51
$GAGSV,2,1,05,02,35,283,42,03,54,252,44,05,31,182,39,24,24,058,00,7*72
$GAGSV,2,2,05,25,58,002,43,,,,,,,,,,,,,7*49
$GPRMC,052649.20,A,3046.9743897,N,10357.5043330,E,0.06,111.22,260319,0.0,E,D*3A
$GPGGA,052649.20,3046.9743897,N,10357.5043330,E,4,24,1.0,532.105,M,-40.962,M,5.2,*61
$GPGSA,A,3,08,09,16,23,26,27,31,,,,,,2.4,1.1,2.1,1*2E
$GAGSA,A,3,02,03,05,24,25,,,,,,,,3.4,1.4,3.1,3*39
$GPGSV,2,1,07,08,37,184,44,09,32,313,45,16,62,012,45,23,62,287,45,1*61
$GPGSV,2,2,07,26,37,042,44,27,60,143,47,31,19,096,43,,,,,1*51
$GAGSV,2,1,05,02,35,283,42,03,54,252,43,05,31,182,39,24,24,058,00,7*75
$GAGSV,2,2,05,25,58,002,43,,,,,,,,,,,,,7*49
$GPRMC,052649.40,A,3046.9743893,N,10357.5043338,E,0.07,111.22,260319,0.0,E,D*31
$GPGGA,052649.40,3046.9743893,N,10357.5043338,E,4,24,1.0,532.104,M,-40.962,M,5.4,*6C
$GPGSA,A,3,08,09,16,23,26,27,31,,,,,,2.4,1.1,2.1,1*2E
$GAGSA,A,3,02,03,05,24,25,,,,,,,,3.4,1.4,3.1,3*39
$GPGSV,2,1,07,08,37,184,44,09,32,313,45,16,62,012,45,23,62,287,45,1*61
$GPGSV,2,2,07,26,37,042,44,27,60,143,47,31,19,096,43,,,,,1*51
$GAGSV,2,1,05,02,35,283,42,03,54,252,44,05,31,182,39,24,24,058,00,7*72
$GAGSV,2,2,05,25,58,002,43,,,,,,,,,,,,,7*49
$GPRMC,052649.60,A,3046.9743890,N,10357.5043332,E,0.02,111.22,260319,0.0,E,D*3F
$GPGGA,052649.60,3046.9743890,N,10357.5043332,E,4,24,1.0,532.103,M,-40.962,M,5.6,*62
$GPGSA,A,3,08,09,16,23,26,27,31,,,,,,2.4,1.1,2.1,1*2E
$GAGSA,A,3,02,03,05,24,25,,,,,,,,3.4,1.4,3.1,3*39
$GPGSV,2,1,07,08,37,184,44,09,32,313,45,16,62,012,45,23,62,287,45,1*61
$GPGSV,2,2,07,26,37,042,44,27,60,143,47,31,19,096,43,,,,,1*51
$GAGSV,2,1,05,02,35,283,42,03,54,252,43,05,31,182,39,24,24,058,00,7*75
$GAGSV,2,2,05,25,58,002,43,,,,,,,,,,,,,7*49
$GPRMC,052649.80,A,3046.9743890,N,10357.5043333,E,0.04,111.22,260319,0.0,E,D*36
$GPGGA,052649.80,3046.9743890,N,10357.5043333,E,4,24,1.0,532.102,M,-40.962,M,5.8,*62
$GPGSA,A,3,08,09,16,23,26,27,31,,,,,,2.4,1.1,2.1,1*2E
$GAGSA,A,3,02,03,05,24,25,,,,,,,,3.4,1.4,3.1,3*39
$GPGSV,2,1,07,08,37,184,44,09,32,313,45,16,62,012,45,23,62,287,45,1*61
$GPGSV,2,2,07,26,37,042,44,27,60,143,47,31,18,096,43,,,,,1*50
$GAGSV,2,1,05,02,35,283,42,03,54,252,44,05,31,182,39,24,24,058,00,7*72
$GAGSV,2,2,05,25,58,002,43,,,,,,,,,,,,,7*49
$GPRMC,052650.00,A,3046.9743887,N,10357.5043331,E,0.08,111.22,260319,0.0,E,D*3E
$GPGGA,052650.00,3046.9743887,N,10357.5043331,E,4,24,1.0,532.103,M,-40.962,M,6.0,*6C
$GPGSA,A,3,08,09,16,23,26,27,31,,,,,,2.4,1.1,2.1,1*2E
$GAGSA,A,3,02,03,05,24,25,,,,,,,,3.4,1.4,3.1,3*39
$GPGSV,2,1,07,08,37,184,44,09,32,313,45,16,62,012,45,23,62,287,45,1*61
$GPGSV,2,2,07,26,37,042,44,27,60,143,47,31,18,096,43,,,,,1*50
$GAGSV,2,1,05,02,35,283,42,03,54,252,44,05,31,182,39,24,24,058,00,7*72
$GAGSV,2,2,05,25,58,002,43,,,,,,,,,,,,,7*49
$GPRMC,052650.20,A,3046.9743890,N,10357.5043331,E,0.06,111.22,260319,0.0,E,D*34
$GPGGA,052650.20,3046.9743890,N,10357.5043331,E,4,24,1.0,532.103,M,-40.962,M,6.2,*6A
$GPGSA,A,3,08,09,16,23,26,27,31,,,,,,2.4,1.1,2.1,1*2E
$GAGSA,A,3,02,03,05,24,25,,,,,,,,3.4,1.4,3.1,3*39
$GPGSV,2,1,07,08,37,184,44,09,32,313,46,16,62,012,45,23,62,287,45,1*62
$GPGSV,2,2,07,26,37,042,44,27,60,143,47,31,18,096,43,,,,,1*50
$GAGSV,2,1,05,02,35,283,42,03,54,252,44,05,31,182,39,24,24,058,00,7*72
$GAGSV,2,2,05,25,58,002,43,,,,,,,,,,,,,7*49
$GPRMC,052650.40,A,3046.9743887,N,10357.5043335,E,0.09,111.22,260319,0.0,E,D*3F
$GPGGA,052650.40,3046.9743887,N,10357.5043335,E,4,24,1.0,532.104,M,-40.962,M,6.4,*6F
$GPGSA,A,3,08,09,16,23,26,27,31,,,,,,2.4,1.1,2.1,1*2E
$GAGSA,A,3,02,03,05,24,25,,,,,,,,3.4,1.4,3.1,3*39
$GPGSV,2,1,07,08,37,184,44,09,32,313,46,16,62,012,45,23,62,287,45,1*62
$GPGSV,2,2,07,26,37,042,44,27,60,143,47,31,18,096,43,,,,,1*50
$GAGSV,2,1,05,02,35,283,42,03,54,252,44,05,31,182,39,24,24,058,00,7*72
$GAGSV,2,2,05,25,58,002,43,,,,,,,,,,,,,7*49
$GPRMC,052650.60,A,3046.9743887,N,10357.5043329,E,0.07,111.22,260319,0.0,E,D*3E
$GPGGA,052650.60,3046.9743887,N,10357.5043329,E,4,24,1.0,532.104,M,-40.962,M,6.6,*62
$GPGSA,A,3,08,09,16,23,26,27,31,,,,,,2.4,1.1,2.1,1*2E
$GAGSA,A,3,02,03,05,24,25,,,,,,,,3.4,1.4,3.1,3*39
$GPGSV,2,1,07,08,37,184,44,09,32,313,46,16,62,012,45,23,62,287,45,1*62
$GPGSV,2,2,07,26,37,042,44,27,60,143,47,31,18,096,43,,,,,1*50
$GAGSV,2,1,05,02,35,283,42,03,54,252,43,05,31,182,39,24,24,058,00,7*75
$GAGSV,2,2,05,25,58,002,43,,,,,,,,,,,,,7*49
$GPRMC,052650.80,A,3046.9743887,N,10357.5043330,E,0.06,111.22,260319,0.0,E,D*39
$GPGGA,052650.80,3046.9743887,N,10357.5043330,E,4,24,1.0,532.103,M,-40.962,M,6.8,*6D
$GPGSA,A,3,08,09,16,23,26,27,31,,,,,,2.4,1.1,2.1,1*2E
$GAGSA,A,3,02,03,05,24,25,,,,,,,,3.4,1.4,3.1,3*39
$GPGSV,2,1,07,08,37,184,44,09,32,313,46,16,62,012,45,23,62,287,45,1*62
$GPGSV,2,2,07,26,37,042,44,27,60,143,47,31,18,096,43,,,,,1*50
$GAGSV,2,1,05,02,35,283,42,03,54,252,43,05,31,182,39,24,24,058,00,7*75
$GAGSV,2,2,05,25,58,002,43,,,,,,,,,,,,,7*49
$GPRMC,052651.00,A,3046.9743884,N,10357.5043328,E,0.04,111.22,260319,0.0,E,D*38
$GPGGA,052651.00,3046.9743884,N,10357.5043328,E,4,24,1.0,532.103,M,-40.962,M,7.0,*67
$GPGSA,A,3,08,09,16,23,26,27,31,,,,,,2.4,1.1,2.1,1*2E
$GAGSA,A,3,02,03,05,24,25,,,,,,,,3.4,1.4,3.1,3*39
$GPGSV,2,1,07,08,37,184,44,09,32,313,46,16,62,012,45,23,62,287,45,1*62
$GPGSV,2,2,07,26,37,042,44,27,60,143,47,31,18,096,43,,,,,1*50
$GAGSV,2,1,05,02,35,283,42,03,54,252,43,05,31,182,39,24,24,058,00,7*75
$GAGSV,2,2,05,25,58,002,43,,,,,,,,,,,,,7*49
$GPRMC,052651.20,A,3046.9743892,N,10357.5043333,E,0.05,111.22,260319,0.0,E,D*36
$GPGGA,052651.20,3046.9743892,N,10357.5043333,E,4,24,1.0,532.107,M,-40.962,M,1.2,*68
$GPGSA,A,3,08,09,16,23,26,27,31,,,,,,2.4,1.1,2.1,1*2E
$GAGSA,A,3,02,03,05,24,25,,,,,,,,3.4,1.4,3.1,3*39
$GPGSV,2,1,07,08,37,184,44,09,32,313,46,16,62,012,45,23,62,287,45,1*62
$GPGSV,2,2,07,26,37,042,44,27,60,143,47,31,18,096,43,,,,,1*50
$GAGSV,2,1,05,02,35,283,42,03,54,252,43,05,31,182,39,24,24,058,00,7*75
$GAGSV,2,2,05,25,58,002,43,,,,,,,,,,,,,7*49
$GPRMC,052651.40,A,3046.9743886,N,10357.5043342,E,0.08,111.22,260319,0.0,E,D*3E
$GPGGA,052651.40,3046.9743886,N,10357.5043342,E,4,24,1.0,532.110,M,-40.962,M,1.4,*6D
$GPGSA,A,3,08,09,16,23,26,27,31,,,,,,2.4,1.1,2.1,1*2E
$GAGSA,A,3,02,03,05,24,25,,,,,,,,3.4,1.4,3.1,3*39
$GPGSV,2,1,07,08,37,184,44,09,32,313,46,16,62,012,45,23,62,287,45,1*62
$GPGSV,2,2,07,26,37,042,44,27,60,143,47,31,18,096,43,,,,,1*50
$GAGSV,2,1,05,02,35,283,42,03,54,252,43,05,31,182,39,24,24,058,00,7*75
$GAGSV,2,2,05,25,58,002,43,,,,,,,,,,,,,7*49
$GPRMC,052651.60,A,3046.9743890,N,10357.5043337,E,0.05,111.22,260319,0.0,E,D*34
$GPGGA,052651.60,3046.9743890,N,10357.5043337,E,4,24,1.0,532.107,M,-40.962,M,1.6,*6E
$GPGSA,A,3,08,09,16,23,26,27,31,,,,,,2.4,1.1,2.1,1*2E
$GAGSA,A,3,02,03,05,24,25,,,,,,,,3.4,1.4,3.1,3*39
$GPGSV,2,1,07,08,37,184,44,09,32,313,46,16,62,012,45,23,62,287,45,1*62
$GPGSV,2,2,07,26,37,042,44,27,60,143,47,31,18,096,43,,,,,1*50
$GAGSV,2,1,05,02,35,283,42,03,54,252,44,05,31,182,39,24,24,058,00,7*72
$GAGSV,2,2,05,25,58,002,43,,,,,,,,,,,,,7*49
$GPRMC,052651.80,A,3046.9743890,N,10357.5043344,E,0.05,111.22,260319,0.0,E,D*3E
$GPGGA,052651.80,3046.9743890,N,10357.5043344,E,4,24,1.0,532.108,M,-40.962,M,1.8,*65
$GPGSA,A,3,08,09,16,23,26,27,31,,,,,,2.4,1.1,2.1,1*2E
$GAGSA,A,3,02,03,05,24,25,,,,,,,,3.4,1.4,3.1,3*39
$GPGSV,2,1,07,08,37,184,44,09,32,313,46,16,62,012,45,23,62,287,45,1*62
$GPGSV,2,2,07,26,37,042,44,27,60,143,47,31,18,096,43,,,,,1*50
$GAGSV,2,1,05,02,35,283,42,03,54,252,43,05,31,182,39,24,24,058,00,7*75
$GAGSV,2,2,05,25,58,002,43,,,,,,,,,,,,,7*49
$GPRMC,052652.00,A,3046.9743888,N,10357.5043329,E,0.05,111.22,260319,0.0,E,D*37
$GPGGA,052652.00,3046.9743888,N,10357.5043329,E,4,24,1.0,532.107,M,-40.962,M,2.0,*68
$GPGSA,A,3,08,09,16,23,26,27,31,,,,,,2.4,1.1,2.1,1*2E
$GAGSA,A,3,02,03,05,24,25,,,,,,,,3.4,1.4,3.1,3*39
$GPGSV,2,1,07,08,37,184,44,09,32,313,46,16,62,012,45,23,62,287,45,1*62
$GPGSV,2,2,07,26,37,042,44,27,60,143,47,31,18,096,43,,,,,1*50
$GAGSV,2,1,05,02,35,283,42,03,54,252,43,05,31,182,39,24,24,058,00,7*75
$GAGSV,2,2,05,25,58,002,43,,,,,,,,,,,,,7*49
$GPRMC,052652.20,A,3046.9743893,N,10357.5043335,E,0.06,111.22,260319,0.0,E,D*31
$GPGGA,052652.20,3046.9743893,N,10357.5043335,E,4,24,1.0,532.106,M,-40.962,M,2.2,*6E
$GPGSA,A,3,08,09,16,23,26,27,31,,,,,,2.4,1.1,2.1,1*2E
$GAGSA,A,3,02,03,05,24,25,,,,,,,,3.4,1.4,3.1,3*39
$GPGSV,2,1,07,08,37,184,44,09,32,313,45,16,62,012,45,23,62,287,45,1*61
$GPGSV,2,2,07,26,37,042,44,27,60,143,47,31,18,096,43,,,,,1*50
$GAGSV,2,1,05,02,35,283,42,03,54,252,43,05,31,182,39,24,24,058,00,7*75
$GAGSV,2,2,05,25,58,002,43,,,,,,,,,,,,,7*49
$GPRMC,052652.40,A,3046.9743887,N,10357.5043335,E,0.05,111.22,260319,0.0,E,D*31
$GPGGA,052652.40,3046.9743887,N,10357.5043335,E,4,24,1.0,532.106,M,-40.962,M,2.4,*6B
$GPGSA,A,3,08,09,16,23,26,27,31,,,,,,2.4,1.1,2.1,1*2E
$GAGSA,A,3,02,03,05,24,25,,,,,,,,3.4,1.4,3.1,3*39
$GPGSV,2,1,07,08,37,184,44,09,32,313,45,16,62,012,45,23,62,287,45,1*61
$GPGSV,2,2,07,26,37,042,44,27,60,143,47,31,18,096,43,,,,,1*50
$GAGSV,2,1,05,02,35,283,42,03,54,252,43,05,31,182,39,24,24,058,00,7*75
$GAGSV,2,2,05,25,58,002,43,,,,,,,,,,,,,7*49
$GPRMC,052652.60,A,3046.9743880,N,10357.5043331,E,0.09,111.22,260319,0.0,E,D*3C
$GPGGA,052652.60,3046.9743880,N,10357.5043331,E,4,24,1.0,532.107,M,-40.962,M,2.6,*69
$GPGSA,A,3,08,09,16,23,26,27,31,,,,,,2.4,1.1,2.1,1*2E
$GAGSA,A,3,02,03,05,24,25,,,,,,,,3.4,1.4,3.1,3*39
$GPGSV,2,1,07,08,37,184,44,09,32,313,45,16,62,012,45,23,62,287,45,1*61
$GPGSV,2,2,07,26,37,042,44,27,60,143,47,31,18,096,43,,,,,1*50
$GAGSV,2,1,05,02,35,283,42,03,54,252,43,05,31,182,39,24,24,058,00,7*75
$GAGSV,2,2,05,25,58,002,43,,,,,,,,,,,,,7*49
$GPRMC,052652.80,A,3046.9743884,N,10357.5043337,E,0.06,111.22,260319,0.0,E,D*3F
$GPGGA,052652.80,3046.9743884,N,10357.5043337,E,4,24,1.0,532.107,M,-40.962,M,2.8,*6B
$GPGSA,A,3,08,09,16,23,26,27,31,,,,,,2.4,1.1,2.1,1*2E
$GAGSA,A,3,02,03,05,24,25,,,,,,,,3.4,1.4,3.1,3*39
$GPGSV,2,1,07,08,37,184,44,09,32,313,45,16,62,012,45,23,62,287,45,1*61
$GPGSV,2,2,07,26,37,043,44,27,60,143,47,31,18,096,43,,,,,1*51
$GAGSV,2,1,05,02,35,283,42,03,54,252,43,05,31,182,39,24,24,058,00,7*75
$GAGSV,2,2,05,25,58,002,43,,,,,,,,,,,,,7*49
$GPRMC,052653.00,A,3046.9743884,N,10357.5043340,E,0.08,111.22,260319,0.0,E,D*38
$GPGGA,052653.00,3046.9743884,N,10357.5043340,E,4,24,1.0,532.107,M,-40.962,M,3.0,*6B
$GPGSA,A,3,08,09,16,23,26,27,31,,,,,,2.4,1.1,2.1,1*2E
$GAGSA,A,3,02,03,05,24,25,,,,,,,,3.4,1.4,3.1,3*39
$GPGSV,2,1,07,08,37,184,44,09,32,313,45,16,62,012,45,23,62,287,45,1*61
$GPGSV,2,2,07,26,37,043,44,27,60,143,47,31,18,096,43,,,,,1*51
$GAGSV,2,1,05,02,35,283,42,03,54,252,43,05,31,182,39,24,24,058,00,7*75
$GAGSV,2,2,05,25,58,002,43,,,,,,,,,,,,,7*49
$GPRMC,052653.20,A,3046.9743889,N,10357.5043347,E,0.04,111.22,260319,0.0,E,D*3C
$GPGGA,052653.20,3046.9743889,N,10357.5043347,E,4,24,1.0,532.106,M,-40.962,M,1.2,*62
$GPGSA,A,3,08,09,16,23,26,27,31,,,,,,2.4,1.1,2.1,1*2E
$GAGSA,A,3,02,03,05,24,25,,,,,,,,3.4,1.4,3.1,3*39
$GPGSV,2,1,07,08,37,184,44,09,32,313,45,16,62,012,45,23,62,287,45,1*61
$GPGSV,2,2,07,26,37,043,44,27,60,143,47,31,18,096,43,,,,,1*51
$GAGSV,2,1,05,02,35,283,42,03,54,252,43,05,31,182,39,24,24,058,00,7*75
$GAGSV,2,2,05,25,58,002,43,,,,,,,,,,,,,7*49
$GPRMC,052653.40,A,3046.9743890,N,10357.5043345,E,0.02,111.22,260319,0.0,E,D*36
$GPGGA,052653.40,3046.9743890,N,10357.5043345,E,4,24,1.0,532.104,M,-40.962,M,1.4,*6A
$GPGSA,A,3,08,09,16,23,26,27,31,,,,,,2.4,1.1,2.1,1*2E
$GAGSA,A,3,02,03,05,24,25,,,,,,,,3.4,1.4,3.1,3*39
$GPGSV,2,1,07,08,37,184,44,09,32,313,45,16,62,012,45,23,62,287,45,1*61
$GPGSV,2,2,07,26,37,043,44,27,60,143,47,31,18,096,43,,,,,1*51
$GAGSV,2,1,05,02,35,283,42,03,54,252,43,05,31,182,39,24,24,058,00,7*75
$GAGSV,2,2,05,25,58,002,43,,,,,,,,,,,,,7*49
$GPRMC,052653.60,A,3046.9743889,N,10357.5043341,E,0.04,111.22,260319,0.0,E,D*3E
$GPGGA,052653.60,3046.9743889,N,10357.5043341,E,4,24,1.0,532.102,M,-40.962,M,1.6,*60
$GPGSA,A,3,08,09,16,23,26,27,31,,,,,,2.4,1.1,2.1,1*2E
$GAGSA,A,3,02,03,05,24,25,,,,,,,,3.4,1.4,3.1,3*39
$GPGSV,2,1,07,08,37,184,44,09,32,313,45,16,62,012,45,23,62,287,45,1*61
$GPGSV,2,2,07,26,37,043,44,27,60,143,47,31,18,096,43,,,,,1*51
$GAGSV,2,1,05,02,35,283,42,03,54,252,43,05,31,182,39,24,24,058,00,7*75
$GAGSV,2,2,05,25,58,002,43,,,,,,,,,,,,,7*49
$GPRMC,052653.80,A,3046.9743893,N,10357.5043341,E,0.07,111.22,260319,0.0,E,D*38
$GPGGA,052653.80,3046.9743893,N,10357.5043341,E,4,24,1.0,532.104,M,-40.962,M,1.8,*6D
$GPGSA,A,3,08,09,16,23,26,27,31,,,,,,2.4,1.1,2.1,1*2E
$GAGSA,A,3,02,03,05,24,25,,,,,,,,3.4,1.4,3.1,3*39
$GPGSV,2,1,07,08,37,184,44,09,32,313,45,16,62,012,45,23,62,287,45,1*61
$GPGSV,2,2,07,26,37,043,44,27,60,143,47,31,18,096,43,,,,,1*51
$GAGSV,2,1,05,02,35,283,42,03,54,252,43,05,31,182,39,24,24,058,00,7*75
$GAGSV,2,2,05,25,58,002,43,,,,,,,,,,,,,7*49
$GPRMC,052654.00,A,3046.9743884,N,10357.5043337,E,0.01,111.22,260319,0.0,E,D*36
$GPGGA,052654.00,3046.9743884,N,10357.5043337,E,4,24,1.0,532.104,M,-40.962,M,2.0,*6E
$GPGSA,A,3,08,09,16,23,26,27,31,,,,,,2.4,1.1,2.1,1*2E
$GAGSA,A,3,02,03,05,24,25,,,,,,,,3.4,1.4,3.1,3*39
$GPGSV,2,1,07,08,37,184,43,09,32,313,45,16,62,012,45,23,62,287,45,1*66
$GPGSV,2,2,07,26,37,043,44,27,60,143,47,31,18,096,43,,,,,1*51
$GAGSV,2,1,05,02,35,283,42,03,54,252,43,05,31,182,39,24,24,058,00,7*75
$GAGSV,2,2,05,25,58,002,43,,,,,,,,,,,,,7*49
$GPRMC,052654.20,A,3046.9743885,N,10357.5043341,E,0.09,111.22,260319,0.0,E,D*3C
$GPGGA,052654.20,3046.9743885,N,10357.5043341,E,4,24,1.0,532.101,M,-40.962,M,2.2,*6B
$GPGSA,A,3,08,09,16,23,26,27,31,,,,,,2.4,1.1,2.1,1*2E
$GAGSA,A,3,02,03,05,24,25,,,,,,,,3.4,1.4,3.1,3*39
$GPGSV,2,1,07,08,37,184,43,09,32,313,45,16,62,012,45,23,62,287,45,1*66
$GPGSV,2,2,07,26,37,043,44,27,60,143,47,31,18,096,42,,,,,1*50
$GAGSV,2,1,05,02,35,283,42,03,54,252,43,05,31,182,39,24,24,058,00,7*75
$GAGSV,2,2,05,25,58,002,43,,,,,,,,,,,,,7*49
$GPRMC,052654.40,A,3046.9743887,N,10357.5043337,E,0.02,111.22,260319,0.0,E,D*32
$GPGGA,052654.40,3046.9743887,N,10357.5043337,E,4,24,1.0,532.101,M,-40.962,M,2.4,*68
$GPGSA,A,3,08,09,16,23,26,27,31,,,,,,2.4,1.1,2.1,1*2E
$GAGSA,A,3,02,03,05,24,25,,,,,,,,3.4,1.4,3.1,3*39
$GPGSV,2,1,07,08,37,184,43,09,32,313,45,16,62,012,45,23,62,287,45,1*66
$GPGSV,2,2,07,26,37,043,44,27,60,143,47,31,18,096,42,,,,,1*50
$GAGSV,2,1,05,02,35,283,42,03,54,252,43,05,31,182,39,24,24,058,00,7*75
$GAGSV,2,2,05,25,58,002,43,,,,,,,,,,,,,7*49
$GPRMC,052654.60,A,3046.9743885,N,10357.5043336,E,0.02,111.22,260319,0.0,E,D*33
$GPGGA,052654.60,3046.9743885,N,10357.5043336,E,4,24,1.0,532.101,M,-40.962,M,2.6,*6B
$GPGSA,A,3,08,09,16,23,26,27,31,,,,,,2.4,1.1,2.1,1*2E
$GAGSA,A,3,02,03,05,24,25,,,,,,,,3.4,1.4,3.1,3*39
$GPGSV,2,1,07,08,37,184,43,09,32,313,45,16,62,012,45,23,62,287,45,1*66
$GPGSV,2,2,07,26,37,043,44,27,60,143,47,31,18,096,42,,,,,1*50
$GAGSV,2,1,05,02,35,283,42,03,54,252,43,05,31,182,39,24,24,058,00,7*75
$GAGSV,2,2,05,25,58,002,43,,,,,,,,,,,,,7*49
$GPRMC,052654.80,A,3046.9743892,N,10357.5043341,E,0.05,111.22,260319,0.0,E,D*3C
$GPGGA,052654.80,3046.9743892,N,10357.5043341,E,4,24,1.0,532.100,M,-40.962,M,2.8,*6C
$GPGSA,A,3,08,09,16,23,26,27,31,,,,,,2.4,1.1,2.1,1*2E
$GAGSA,A,3,02,03,05,24,25,,,,,,,,3.4,1.4,3.1,3*39
$GPGSV,2,1,07,08,37,184,43,09,32,313,45,16,62,012,45,23,62,287,45,1*66
$GPGSV,2,2,07,26,37,043,44,27,61,143,46,31,18,096,42,,,,,1*50
$GAGSV,2,1,05,02,35,283,42,03,54,252,43,05,31,182,39,24,24,058,00,7*75
$GAGSV,2,2,05,25,58,002,43,,,,,,,,,,,,,7*49
$GPRMC,052655.00,A,3046.9743890,N,10357.5043340,E,0.08,111.22,260319,0.0,E,D*3B
$GPGGA,052655.00,3046.9743890,N,10357.5043340,E,4,24,1.0,532.099,M,-40.962,M,3.0,*6E
$GPGSA,A,3,08,09,16,23,26,27,31,,,,,,2.4,1.1,2.1,1*2E
$GAGSA,A,3,02,03,05,24,25,,,,,,,,3.4,1.4,3.1,3*39
$GPGSV,2,1,07,08,37,184,43,09,32,313,45,16,62,012,45,23,62,287,45,1*66
$GPGSV,2,2,07,26,37,043,44,27,61,143,46,31,18,096,42,,,,,1*50
$GAGSV,2,1,05,02,35,283,42,03,54,252,43,05,31,182,39,24,24,058,00,7*75
$GAGSV,2,2,05,25,58,002,43,,,,,,,,,,,,,7*49
$GPRMC,052655.20,A,3046.9743898,N,10357.5043343,E,0.06,111.22,260319,0.0,E,D*3C
$GPGGA,052655.20,3046.9743898,N,10357.5043343,E,4,24,1.0,532.106,M,-40.962,M,1.2,*60
$GPGSA,A,3,08,09,16,23,26,27,31,,,,,,2.4,1.1,2.1,1*2E
$GAGSA,A,3,02,03,05,24,25,,,,,,,,3.4,1.4,3.1,3*39
$GPGSV,2,1,07,08,37,184,43,09,32,313,45,16,62,012,45,23,62,287,45,1*66
$GPGSV,2,2,07,26,37,043,44,27,61,143,46,31,18,096,42,,,,,1*50
$GAGSV,2,1,05,02,35,283,42,03,54,252,43,05,31,182,39,24,24,058,00,7*75
$GAGSV,2,2,05,25,58,002,43,,,,,,,,,,,,,7*49
$GPRMC,052655.40,A,3046.9743891,N,10357.5043347,E,0.02,111.22,260319,0.0,E,D*33
$GPGGA,052655.40,3046.9743891,N,10357.5043347,E,4,24,1.0,532.108,M,-40.962,M,1.4,*63
$GPGSA,A,3,08,09,16,23,26,27,31,,,,,,2.4,1.1,2.1,1*2E
$GAGSA,A,3,02,03,05,24,25,,,,,,,,3.4,1.4,3.1,3*39
$GPGSV,2,1,07,08,37,184,43,09,32,313,45,16,62,012,45,23,62,287,45,1*66
$GPGSV,2,2,07,26,37,043,44,27,61,143,46,31,18,096,42,,,,,1*50
$GAGSV,2,1,05,02,35,283,42,03,54,252,43,05,31,182,39,24,24,058,00,7*75
$GAGSV,2,2,05,25,58,002,43,,,,,,,,,,,,,7*49
$GPRMC,052655.60,A,3046.9743897,N,10357.5043350,E,0.06,111.22,260319,0.0,E,D*35
$GPGGA,052655.60,3046.9743897,N,10357.5043350,E,4,24,1.0,532.107,M,-40.962,M,1.6,*6C
$GPGSA,A,3,08,09,16,23,26,27,31,,,,,,2.4,1.1,2.1,1*2E
$GAGSA,A,3,02,03,05,24,25,,,,,,,,3.4,1.4,3.1,3*39
$GPGSV,2,1,07,08,37,184,43,09,32,313,45,16,62,012,45,23,62,287,45,1*66
$GPGSV,2,2,07,26,37,043,44,27,61,143,46,31,18,096,42,,,,,1*50
$GAGSV,2,1,05,02,35,283,42,03,54,252,43,05,31,182,39,24,24,058,00,7*75
$GAGSV,2,2,05,25,58,002,43,,,,,,,,,,,,,7*49
$GPRMC,052655.80,A,3046.9743895,N,10357.5043345,E,0.11,111.22,260319,0.0,E,D*3B
$GPGGA,052655.80,3046.9743895,N,10357.5043345,E,4,24,1.0,532.105,M,-40.962,M,1.8,*68
$GPGSA,A,3,08,09,16,23,26,27,31,,,,,,2.4,1.1,2.1,1*2E
$GAGSA,A,3,02,03,05,24,25,,,,,,,,3.4,1.4,3.1,3*39
$GPGSV,2,1,07,08,37,184,43,09,32,313,45,16,62,012,45,23,62,287,45,1*66
$GPGSV,2,2,07,26,37,043,44,27,61,143,46,31,18,096,42,,,,,1*50
$GAGSV,2,1,05,02,35,283,42,03,54,252,43,05,31,182,39,24,24,058,00,7*75
$GAGSV,2,2,05,25,58,002,43,,,,,,,,,,,,,7*49
$GPRMC,052656.00,A,3046.9743897,N,10357.5043347,E,0.04,111.22,260319,0.0,E,D*34
$GPGGA,052656.00,3046.9743897,N,10357.5043347,E,4,24,1.0,532.105,M,-40.962,M,2.0,*68
$GPGSA,A,3,08,09,16,23,26,27,31,,,,,,2.4,1.1,2.1,1*2E
$GAGSA,A,3,02,03,05,24,25,,,,,,,,3.4,1.4,3.1,3*39
$GPGSV,2,1,07,08,37,184,43,09,32,313,45,16,62,012,45,23,62,287,45,1*66
$GPGSV,2,2,07,26,37,043,44,27,61,143,46,31,18,096,42,,,,,1*50
$GAGSV,2,1,05,02,35,283,42,03,54,252,43,05,31,182,39,24,24,058,00,7*75
$GAGSV,2,2,05,25,58,002,43,,,,,,,,,,,,,7*49
$GPRMC,052656.20,A,3046.9743907,N,10357.5043346,E,0.11,111.22,260319,0.0,E,D*3B
$GPGGA,052656.20,3046.9743907,N,10357.5043346,E,4,24,1.0,532.105,M,-40.962,M,2.2,*61
$GPGSA,A,3,08,09,16,23,26,27,31,,,,,,2.4,1.1,2.1,1*2E
$GAGSA,A,3,02,03,05,24,25,,,,,,,,3.4,1.4,3.1,3*39
$GPGSV,2,1,07,08,37,184,43,09,32,313,45,16,62,012,45,23,62,287,45,1*66
$GPGSV,2,2,07,26,37,043,44,27,61,143,46,31,18,096,42,,,,,1*50
$GAGSV,2,1,05,02,35,283,42,03,54,252,43,05,31,182,39,24,24,058,00,7*75
$GAGSV,2,2,05,25,58,002,43,,,,,,,,,,,,,7*49
$GPRMC,052656.40,A,3046.9743902,N,10357.5043347,E,0.02,111.22,260319,0.0,E,D*3B
$GPGGA,052656.40,3046.9743902,N,10357.5043347,E,4,24,1.0,532.105,M,-40.962,M,2.4,*65
$GPGSA,A,3,08,09,16,23,26,27,31,,,,,,2.4,1.1,2.1,1*2E
$GAGSA,A,3,02,03,05,24,25,,,,,,,,3.4,1.4,3.1,3*39
$GPGSV,2,1,07,08,37,184,43,09,32,313,45,16,62,012,45,23,62,287,45,1*66
$GPGSV,2,2,07,26,37,043,44,27,61,143,46,31,18,096,42,,,,,1*50
$GAGSV,2,1,05,02,35,283,42,03,54,252,43,05,31,182,39,24,24,058,00,7*75
$GAGSV,2,2,05,25,58,002,43,,,,,,,,,,,,,7*49
$GPRMC,052656.60,A,3046.9743899,N,10357.5043346,E,0.04,111.22,260319,0.0,E,D*3D
$GPGGA,052656.60,3046.9743899,N,10357.5043346,E,4,24,1.0,532.104,M,-40.962,M,2.6,*66
$GPGSA,A,3,08,09,16,23,26,27,31,,,,,,2.4,1.1,2.1,1*2E
$GAGSA,A,3,02,03,05,24,25,,,,,,,,3.4,1.4,3.1,3*39
$GPGSV,2,1,07,08,37,184,43,09,32,313,45,16,62,012,45,23,62,287,45,1*66
$GPGSV,2,2,07,26,37,043,44,27,61,143,46,31,18,096,42,,,,,1*50
$GAGSV,2,1,05,02,35,283,42,03,54,252,43,05,31,182,39,24,24,058,00,7*75
$GAGSV,2,2,05,25,58,002,43,,,,,,,,,,,,,7*49
