$GPRMC,075922.80,A,3037.9552923,N,10405.2757614,E,0.62,0.00,031218,0.0,E,D*4E
$GPGGA,075922.80,3047.029488,N,10357.5143923,E,4,08,1.0,495.058,M,-41.787,M,2.8,*56
$GPGGA,075922.80,3047.026755,N,10357.51412032,E,4,08,1.0,495.058,M,-41.787,M,2.8,*63
$GPGGA,075922.80,3047.02439418,N,10357.51392328,E,4,08,1.0,495.058,M,-41.787,M,2.8,*66
$GPGGA,075922.80,3047.02143882,N,10357.51361512,E,4,08,1.0,495.058,M,-41.787,M,2.8,*62
$GPGGA,075922.80,3047.01895872,N,10357.51333612,E,4,08,1.0,495.058,M,-41.787,M,2.8,*68
$GPGGA,075922.80,3047.01607512,N,10357.51298692,E,4,08,1.0,495.058,M,-41.787,M,2.8,*6E
$GPGGA,075922.80,3047.01354762,N,10357.51274818,E,4,08,1.0,495.058,M,-41.787,M,2.8,*66
$GPGGA,075922.80,3047.01097902,N,10357.51245298,E,4,08,1.0,495.058,M,-41.787,M,2.8,*62
$GPGGA,075922.80,3047.00794668,N,10357.5120205,E,4,08,1.0,495.058,M,-41.787,M,2.8,*51
$GPGGA,075922.80,3047.00529252,N,10357.5116431,E,4,08,1.0,495.058,M,-41.787,M,2.8,*5C
$GPGGA,075922.80,3047.00268222,N,10357.51132102,E,4,08,1.0,495.058,M,-41.787,M,2.8,*6B
$GPGGA,075922.80,3046.99974648,N,10357.51095652,E,4,08,1.0,495.058,M,-41.787,M,2.8,*6A
$GPGGA,075922.80,3046.99719102,N,10357.510675,E,4,08,1.0,495.058,M,-41.787,M,2.8,*6F
$GPGGA,075922.80,3046.99463358,N,10357.5104902,E,4,08,1.0,495.058,M,-41.787,M,2.8,*57
$GPGGA,075922.80,3046.9918164,N,10357.51011748,E,4,08,1.0,495.058,M,-41.787,M,2.8,*56
$GPGGA,075922.80,3046.98950508,N,10357.5096292,E,4,08,1.0,495.058,M,-41.787,M,2.8,*50
$GPGGA,075922.80,3046.98724548,N,10357.5087958,E,4,08,1.0,495.058,M,-41.787,M,2.8,*54
$GPGGA,075922.80,3046.98565488,N,10357.50772048,E,4,08,1.0,495.058,M,-41.787,M,2.8,*6B
$GPGGA,075922.80,3046.98406572,N,10357.50612892,E,4,08,1.0,495.058,M,-41.787,M,2.8,*63
$GPGGA,075922.80,3046.98240972,N,10357.50381052,E,4,08,1.0,495.058,M,-41.787,M,2.8,*60
$GPGGA,075922.80,3046.9814826,N,10357.5015754,E,4,08,1.0,495.058,M,-41.787,M,2.8,*6C
$GPGGA,075922.80,3047.031218298,N,10357.514237002,E,4,08,1.0,495.058,M,-41.787,M,2.8,*6C
$GPGGA,075922.80,3047.031124098,N,10357.514225998,E,4,08,1.0,495.058,M,-41.787,M,2.8,*6B
$GPGGA,075922.80,3047.031030702,N,10357.5142096,E,4,08,1.0,495.058,M,-41.787,M,2.8,*6B
$GPGGA,075922.80,3047.030931798,N,10357.514190802,E,4,08,1.0,495.058,M,-41.787,M,2.8,*6E
$GPGGA,075922.80,3047.0308329,N,10357.514172898,E,4,08,1.0,495.058,M,-41.787,M,2.8,*6C
$GPGGA,075922.80,3047.030726898,N,10357.514163598,E,4,08,1.0,495.058,M,-41.787,M,2.8,*6B
$GPGGA,075922.80,3047.0306205,N,10357.514143102,E,4,08,1.0,495.058,M,-41.787,M,2.8,*65
$GPGGA,075922.80,3047.030511198,N,10357.514119498,E,4,08,1.0,495.058,M,-41.787,M,2.8,*68
$GPGGA,075922.80,3047.0303946,N,10357.514108998,E,4,08,1.0,495.058,M,-41.787,M,2.8,*68
$GPGGA,075922.80,3047.0302812,N,10357.5140953,E,4,08,1.0,495.058,M,-41.787,M,2.8,*67
$GPGGA,075922.80,3047.030167902,N,10357.5140737,E,4,08,1.0,495.058,M,-41.787,M,2.8,*69
$GPGGA,075922.80,3047.030055198,N,10357.514050702,E,4,08,1.0,495.058,M,-41.787,M,2.8,*61
$GPGGA,075922.80,3047.029940202,N,10357.5140407,E,4,08,1.0,495.058,M,-41.787,M,2.8,*67
$GPGGA,075922.80,3047.0298285,N,10357.514021398,E,4,08,1.0,495.058,M,-41.787,M,2.8,*6F
$GPGGA,075922.80,3047.029720098,N,10357.5140062,E,4,08,1.0,495.058,M,-41.787,M,2.8,*69
$GPGGA,075922.80,3047.029606098,N,10357.5139867,E,4,08,1.0,495.058,M,-41.787,M,2.8,*6F
$GPGGA,075922.80,3047.0295051,N,10357.513973698,E,4,08,1.0,495.058,M,-41.787,M,2.8,*65
$GPGGA,075922.80,3047.029402398,N,10357.513960702,E,4,08,1.0,495.058,M,-41.787,M,2.8,*60
$GPGGA,075922.80,3047.029301598,N,10357.513946398,E,4,08,1.0,495.058,M,-41.787,M,2.8,*61
$GPGGA,075922.80,3047.029192098,N,10357.5139246,E,4,08,1.0,495.058,M,-41.787,M,2.8,*6C
$GPGGA,075922.80,3047.0290866,N,10357.513910098,E,4,08,1.0,495.058,M,-41.787,M,2.8,*6F
$GPGGA,075922.80,3047.028979398,N,10357.5138994,E,4,08,1.0,495.058,M,-41.787,M,2.8,*66
$GPGGA,075922.80,3047.028868998,N,10357.5138832,E,4,08,1.0,495.058,M,-41.787,M,2.8,*60
$GPGGA,075922.80,3047.028770202,N,10357.5138688,E,4,08,1.0,495.058,M,-41.787,M,2.8,*61
$GPGGA,075922.80,3047.0286597,N,10357.5138472,E,4,08,1.0,495.058,M,-41.787,M,2.8,*6B
$GPGGA,075922.80,3047.0285535,N,10357.513844002,E,4,08,1.0,495.058,M,-41.787,M,2.8,*63
$GPGGA,075922.80,3047.028447702,N,10357.5138271,E,4,08,1.0,495.058,M,-41.787,M,2.8,*61
$GPGGA,075922.80,3047.0283387,N,10357.513809802,E,4,08,1.0,495.058,M,-41.787,M,2.8,*6B
$GPGGA,075922.80,3047.028235698,N,10357.5137944,E,4,08,1.0,495.058,M,-41.787,M,2.8,*62
$GPGGA,075922.80,3047.028131298,N,10357.51378,E,4,08,1.0,495.058,M,-41.787,M,2.8,*60
$GPGGA,075922.80,3047.0280249,N,10357.513763098,E,4,08,1.0,495.058,M,-41.787,M,2.8,*63
$GPGGA,075922.80,3047.027921202,N,10357.5137533,E,4,08,1.0,495.058,M,-41.787,M,2.8,*68
$GPGGA,075922.80,3047.027821302,N,10357.5137332,E,4,08,1.0,495.058,M,-41.787,M,2.8,*6F
$GPGGA,075922.80,3047.027704302,N,10357.5137218,E,4,08,1.0,495.058,M,-41.787,M,2.8,*6E
$GPGGA,075922.80,3047.0276031,N,10357.513707502,E,4,08,1.0,495.058,M,-41.787,M,2.8,*63
$GPGGA,075922.80,3047.027496402,N,10357.5136969,E,4,08,1.0,495.058,M,-41.787,M,2.8,*6D
$GPGGA,075922.80,3047.027390802,N,10357.513683502,E,4,08,1.0,495.058,M,-41.787,M,2.8,*6A
$GPGGA,075922.80,3047.027279202,N,10357.513667998,E,4,08,1.0,495.058,M,-41.787,M,2.8,*63
$GPGGA,075922.80,3047.027172402,N,10357.5136534,E,4,08,1.0,495.058,M,-41.787,M,2.8,*66
$GPGGA,075922.80,3047.027067498,N,10357.513644298,E,4,08,1.0,495.058,M,-41.787,M,2.8,*61
$GPGGA,075922.80,3047.0269617,N,10357.5136261,E,4,08,1.0,495.058,M,-41.787,M,2.8,*6B
$GPGGA,075922.80,3047.026848798,N,10357.513617298,E,4,08,1.0,495.058,M,-41.787,M,2.8,*60
$GPGGA,075922.80,3047.026743798,N,10357.513601098,E,4,08,1.0,495.058,M,-41.787,M,2.8,*61
$GPGGA,075922.80,3047.026638402,N,10357.513588702,E,4,08,1.0,495.058,M,-41.787,M,2.8,*6A
$GPGGA,072500.20,3047.02675440,N,10357.51460740,E,4,16,1.0,480.038,M,-41.911,M,1.2,*65
$GPGGA,075922.80,3047.026524198,N,10357.5135805,E,4,08,1.0,495.058,M,-41.787,M,2.8,*6A
$GPGGA,075922.80,3047.026420398,N,10357.513567102,E,4,08,1.0,495.058,M,-41.787,M,2.8,*62
$GPGGA,075922.80,3047.0263179,N,10357.5135481,E,4,08,1.0,495.058,M,-41.787,M,2.8,*65
$GPGGA,075922.80,3047.026208202,N,10357.5135463,E,4,08,1.0,495.058,M,-41.787,M,2.8,*6F
$GPGGA,075922.80,3047.026105302,N,10357.513524802,E,4,08,1.0,495.058,M,-41.787,M,2.8,*6D
$GPGGA,075922.80,3047.0259936,N,10357.5135076,E,4,08,1.0,495.058,M,-41.787,M,2.8,*63
$GPGGA,075922.80,3047.025883998,N,10357.5134992,E,4,08,1.0,495.058,M,-41.787,M,2.8,*6F
$GPGGA,075922.80,3047.025781002,N,10357.513481902,E,4,08,1.0,495.058,M,-41.787,M,2.8,*68
$GPGGA,075922.80,3047.025676398,N,10357.513471,E,4,08,1.0,495.058,M,-41.787,M,2.8,*55
$GPGGA,075922.80,3047.025568302,N,10357.513459402,E,4,08,1.0,495.058,M,-41.787,M,2.8,*66
$GPGGA,075922.80,3047.025455898,N,10357.513449298,E,4,08,1.0,495.058,M,-41.787,M,2.8,*65
$GPGGA,075922.80,3047.025351102,N,10357.5134404,E,4,08,1.0,495.058,M,-41.787,M,2.8,*62
$GPGGA,075922.80,3047.0252466,N,10357.513429102,E,4,08,1.0,495.058,M,-41.787,M,2.8,*68
$GPGGA,075922.80,3047.025136002,N,10357.513414102,E,4,08,1.0,495.058,M,-41.787,M,2.8,*66
$GPGGA,075922.80,3047.0250288,N,10357.5134026,E,4,08,1.0,495.058,M,-41.787,M,2.8,*60
$GPGGA,075922.80,3047.0249247,N,10357.513385602,E,4,08,1.0,495.058,M,-41.787,M,2.8,*61
$GPGGA,075922.80,3047.0248134,N,10357.5133741,E,4,08,1.0,495.058,M,-41.787,M,2.8,*6C
$GPGGA,075922.80,3047.024707002,N,10357.5133609,E,4,08,1.0,495.058,M,-41.787,M,2.8,*6D
$GPGGA,075922.80,3047.024602098,N,10357.513354798,E,4,08,1.0,495.058,M,-41.787,M,2.8,*62
$GPGGA,075922.80,3047.024493498,N,10357.513343998,E,4,08,1.0,495.058,M,-41.787,M,2.8,*64
$GPGGA,075922.80,3047.024385198,N,10357.513333798,E,4,08,1.0,495.058,M,-41.787,M,2.8,*68
$GPGGA,075922.80,3047.0242755,N,10357.513321198,E,4,08,1.0,495.058,M,-41.787,M,2.8,*66
$GPGGA,075922.80,3047.024170698,N,10357.513311598,E,4,08,1.0,495.058,M,-41.787,M,2.8,*65
$GPGGA,075922.80,3047.024066598,N,10357.513292902,E,4,08,1.0,495.058,M,-41.787,M,2.8,*65
$GPGGA,075922.80,3047.0239575,N,10357.513286302,E,4,08,1.0,495.058,M,-41.787,M,2.8,*67
$GPGGA,075922.80,3047.023852098,N,10357.513273198,E,4,08,1.0,495.058,M,-41.787,M,2.8,*6C
$GPGGA,075922.80,3047.023744098,N,10357.513264402,E,4,08,1.0,495.058,M,-41.787,M,2.8,*64
$GPGGA,075922.80,3047.023639398,N,10357.513257202,E,4,08,1.0,495.058,M,-41.787,M,2.8,*6A
$GPGGA,075922.80,3047.023534602,N,10357.513244602,E,4,08,1.0,495.058,M,-41.787,M,2.8,*64
$GPGGA,075922.80,3047.023429602,N,10357.5132331,E,4,08,1.0,495.058,M,-41.787,M,2.8,*6C
$GPGGA,075922.80,3047.023316202,N,10357.5132265,E,4,08,1.0,495.058,M,-41.787,M,2.8,*63
$GPGGA,075922.80,3047.023213602,N,10357.5132148,E,4,08,1.0,495.058,M,-41.787,M,2.8,*6F
$GPGGA,075922.80,3047.023102698,N,10357.5132085,E,4,08,1.0,495.058,M,-41.787,M,2.8,*6F
$GPGGA,075922.80,3047.0230017,N,10357.5131956,E,4,08,1.0,495.058,M,-41.787,M,2.8,*69
$GPGGA,075922.80,3047.0228922,N,10357.5131872,E,4,08,1.0,495.058,M,-41.787,M,2.8,*68
$GPGGA,075922.80,3047.022789702,N,10357.513173202,E,4,08,1.0,495.058,M,-41.787,M,2.8,*63
$GPGGA,075922.80,3047.0226801,N,10357.513165198,E,4,08,1.0,495.058,M,-41.787,M,2.8,*68
$GPGGA,075922.80,3047.022571998,N,10357.513155298,E,4,08,1.0,495.058,M,-41.787,M,2.8,*6C
$GPGGA,075922.80,3047.022467502,N,10357.5131461,E,4,08,1.0,495.058,M,-41.787,M,2.8,*65
$GPGGA,075922.80,3047.022366498,N,10357.513128598,E,4,08,1.0,495.058,M,-41.787,M,2.8,*6C
$GPGGA,075922.80,3047.022255798,N,10357.513126498,E,4,08,1.0,495.058,M,-41.787,M,2.8,*61
$GPGGA,075922.80,3047.022144702,N,10357.513125298,E,4,08,1.0,495.058,M,-41.787,M,2.8,*64
$GPGGA,075922.80,3047.0220459,N,10357.5131044,E,4,08,1.0,495.058,M,-41.787,M,2.8,*6C
$GPGGA,075922.80,3047.0219367,N,10357.513106998,E,4,08,1.0,495.058,M,-41.787,M,2.8,*62
$GPGGA,075922.80,3047.021832102,N,10357.5130924,E,4,08,1.0,495.058,M,-41.787,M,2.8,*63
$GPGGA,075922.80,3047.021724102,N,10357.513088902,E,4,08,1.0,495.058,M,-41.787,M,2.8,*6F
$GPGGA,075922.80,3047.021616798,N,10357.5130753,E,4,08,1.0,495.058,M,-41.787,M,2.8,*60
$GPGGA,075922.80,3047.021508798,N,10357.5130699,E,4,08,1.0,495.058,M,-41.787,M,2.8,*6B
$GPGGA,075922.80,3047.021404398,N,10357.513059802,E,4,08,1.0,495.058,M,-41.787,M,2.8,*62
$GPGGA,075922.80,3047.0212959,N,10357.513048198,E,4,08,1.0,495.058,M,-41.787,M,2.8,*6D
$GPGGA,075922.80,3047.021189598,N,10357.513044598,E,4,08,1.0,495.058,M,-41.787,M,2.8,*66
$GPGGA,075922.80,3047.0210826,N,10357.5130372,E,4,08,1.0,495.058,M,-41.787,M,2.8,*6C
$GPGGA,075922.80,3047.020973898,N,10357.513027,E,4,08,1.0,495.058,M,-41.787,M,2.8,*56
$GPGGA,075922.80,3047.020868898,N,10357.513030198,E,4,08,1.0,495.058,M,-41.787,M,2.8,*6B
$GPGGA,075922.80,3047.020760898,N,10357.5130168,E,4,08,1.0,495.058,M,-41.787,M,2.8,*60
$GPGGA,075922.80,3047.020646502,N,10357.513003102,E,4,08,1.0,495.058,M,-41.787,M,2.8,*64
$GPGGA,075922.80,3047.020545198,N,10357.5129967,E,4,08,1.0,495.058,M,-41.787,M,2.8,*63
$GPGGA,075922.80,3047.020437702,N,10357.512989902,E,4,08,1.0,495.058,M,-41.787,M,2.8,*60
$GPGGA,075922.80,3047.0203332,N,10357.512988798,E,4,08,1.0,495.058,M,-41.787,M,2.8,*68
$GPGGA,075922.80,3047.020227702,N,10357.512973102,E,4,08,1.0,495.058,M,-41.787,M,2.8,*6A
$GPGGA,075922.80,3047.020118298,N,10357.512966298,E,4,08,1.0,495.058,M,-41.787,M,2.8,*67
$GPGGA,075922.80,3047.0200086,N,10357.512960802,E,4,08,1.0,495.058,M,-41.787,M,2.8,*6D
$GPGGA,075922.80,3047.019900702,N,10357.512958702,E,4,08,1.0,495.058,M,-41.787,M,2.8,*61
$GPGGA,075922.80,3047.0197947,N,10357.512941002,E,4,08,1.0,495.058,M,-41.787,M,2.8,*6F
$GPGGA,075922.80,3047.0196819,N,10357.5129385,E,4,08,1.0,495.058,M,-41.787,M,2.8,*6D
$GPGGA,075922.80,3047.019577998,N,10357.5129277,E,4,08,1.0,495.058,M,-41.787,M,2.8,*6A
$GPGGA,075922.80,3047.019472398,N,10357.512925198,E,4,08,1.0,495.058,M,-41.787,M,2.8,*61
$GPGGA,075922.80,3047.0193624,N,10357.5129193,E,4,08,1.0,495.058,M,-41.787,M,2.8,*6D
$GPGGA,075922.80,3047.0192517,N,10357.512910798,E,4,08,1.0,495.058,M,-41.787,M,2.8,*63
$GPGGA,075922.80,3047.019147102,N,10357.5129079,E,4,08,1.0,495.058,M,-41.787,M,2.8,*6A
$GPGGA,075922.80,3047.019041298,N,10357.512901498,E,4,08,1.0,495.058,M,-41.787,M,2.8,*67
$GPGGA,075922.80,3047.018935998,N,10357.512898798,E,4,08,1.0,495.058,M,-41.787,M,2.8,*65
$GPGGA,075922.80,3047.018822802,N,10357.512890302,E,4,08,1.0,495.058,M,-41.787,M,2.8,*6F
$GPGGA,075922.80,3047.018717598,N,10357.512887902,E,4,08,1.0,495.058,M,-41.787,M,2.8,*64
$GPGGA,075922.80,3047.018616198,N,10357.5128767,E,4,08,1.0,495.058,M,-41.787,M,2.8,*62
$GPGGA,075922.80,3047.0185038,N,10357.5128782,E,4,08,1.0,495.058,M,-41.787,M,2.8,*66
$GPGGA,075922.80,3047.018398998,N,10357.512873802,E,4,08,1.0,495.058,M,-41.787,M,2.8,*61
$GPGGA,075922.80,3047.018292798,N,10357.512862498,E,4,08,1.0,495.058,M,-41.787,M,2.8,*6B
$GPGGA,075922.80,3047.0181849,N,10357.512853198,E,4,08,1.0,495.058,M,-41.787,M,2.8,*67
$GPGGA,075922.80,3047.018076702,N,10357.512854698,E,4,08,1.0,495.058,M,-41.787,M,2.8,*67
$GPGGA,075922.80,3047.0179698,N,10357.512846298,E,4,08,1.0,495.058,M,-41.787,M,2.8,*65
$GPGGA,075922.80,3047.017866702,N,10357.512841798,E,4,08,1.0,495.058,M,-41.787,M,2.8,*64
$GPGGA,075922.80,3047.0177604,N,10357.5128335,E,4,08,1.0,495.058,M,-41.787,M,2.8,*6A
$GPGGA,075922.80,3047.017650102,N,10357.512828202,E,4,08,1.0,495.058,M,-41.787,M,2.8,*60
$GPGGA,075922.80,3047.0175426,N,10357.512821098,E,4,08,1.0,495.058,M,-41.787,M,2.8,*6D
$GPGGA,075922.80,3047.017436802,N,10357.512818902,E,4,08,1.0,495.058,M,-41.787,M,2.8,*63
$GPGGA,075922.80,3047.017325598,N,10357.5128197,E,4,08,1.0,495.058,M,-41.787,M,2.8,*65
$GPGGA,075922.80,3047.017214898,N,10357.512819298,E,4,08,1.0,495.058,M,-41.787,M,2.8,*6F
$GPGGA,075922.80,3047.017109898,N,10357.512807202,E,4,08,1.0,495.058,M,-41.787,M,2.8,*6C
$GPGGA,075922.80,3047.0170047,N,10357.512798598,E,4,08,1.0,495.058,M,-41.787,M,2.8,*63
$GPGGA,075922.80,3047.016896898,N,10357.512793198,E,4,08,1.0,495.058,M,-41.787,M,2.8,*60
$GPGGA,075922.80,3047.016790398,N,10357.512783802,E,4,08,1.0,495.058,M,-41.787,M,2.8,*69
$GPGGA,075922.80,3047.0166855,N,10357.512782902,E,4,08,1.0,495.058,M,-41.787,M,2.8,*6B
$GPGGA,075922.80,3047.0165709,N,10357.5127825,E,4,08,1.0,495.058,M,-41.787,M,2.8,*60
$GPGGA,075922.80,3047.016467598,N,10357.512776698,E,4,08,1.0,495.058,M,-41.787,M,2.8,*63
$GPGGA,075922.80,3047.016358602,N,10357.512762502,E,4,08,1.0,495.058,M,-41.787,M,2.8,*6D
$GPGGA,075922.80,3047.016253698,N,10357.512771598,E,4,08,1.0,495.058,M,-41.787,M,2.8,*65
$GPGGA,075922.80,3047.0161446,N,10357.512760402,E,4,08,1.0,495.058,M,-41.787,M,2.8,*63
$GPGGA,075922.80,3047.0160384,N,10357.5127645,E,4,08,1.0,495.058,M,-41.787,M,2.8,*6C
$GPGGA,075922.80,3047.0159322,N,10357.512761698,E,4,08,1.0,495.058,M,-41.787,M,2.8,*6D
$GPGGA,075922.80,3047.015824302,N,10357.512748102,E,4,08,1.0,495.058,M,-41.787,M,2.8,*67
$GPGGA,075922.80,3047.0157174,N,10357.512747898,E,4,08,1.0,495.058,M,-41.787,M,2.8,*68
$GPGGA,075922.80,3047.015611698,N,10357.512737698,E,4,08,1.0,495.058,M,-41.787,M,2.8,*65
$GPGGA,075922.80,3047.015501202,N,10357.5127312,E,4,08,1.0,495.058,M,-41.787,M,2.8,*63
$GPGGA,075922.80,3047.015392602,N,10357.5127234,E,4,08,1.0,495.058,M,-41.787,M,2.8,*6E
$GPGGA,075922.80,3047.015285202,N,10357.512711802,E,4,08,1.0,495.058,M,-41.787,M,2.8,*62
$GPGGA,075922.80,3047.015174802,N,10357.512689302,E,4,08,1.0,495.058,M,-41.787,M,2.8,*6E
$GPGGA,075922.80,3047.015063298,N,10357.512671602,E,4,08,1.0,495.058,M,-41.787,M,2.8,*62
$GPGGA,075922.80,3047.014954998,N,10357.512649198,E,4,08,1.0,495.058,M,-41.787,M,2.8,*6A
$GPGGA,075922.80,3047.014842498,N,10357.5126319,E,4,08,1.0,495.058,M,-41.787,M,2.8,*67
$GPGGA,075922.80,3047.0147316,N,10357.5126178,E,4,08,1.0,495.058,M,-41.787,M,2.8,*6A
$GPGGA,075922.80,3047.0146236,N,10357.512597598,E,4,08,1.0,495.058,M,-41.787,M,2.8,*6F
$GPGGA,075922.80,3047.014516602,N,10357.5125842,E,4,08,1.0,495.058,M,-41.787,M,2.8,*6C
$GPGGA,075922.80,3047.0144007,N,10357.512575698,E,4,08,1.0,495.058,M,-41.787,M,2.8,*62
$GPGGA,075922.80,3047.0142903,N,10357.512562,E,4,08,1.0,495.058,M,-41.787,M,2.8,*58
$GPGGA,075922.80,3047.014182198,N,10357.512552502,E,4,08,1.0,495.058,M,-41.787,M,2.8,*6F
$GPGGA,075922.80,3047.0140716,N,10357.512537598,E,4,08,1.0,495.058,M,-41.787,M,2.8,*64
$GPGGA,075922.80,3047.0139645,N,10357.512526198,E,4,08,1.0,495.058,M,-41.787,M,2.8,*69
$GPGGA,075922.80,3047.013864,N,10357.5125329,E,4,08,1.0,495.058,M,-41.787,M,2.8,*51
$GPGGA,075922.80,3047.0137575,N,10357.512521098,E,4,08,1.0,495.058,M,-41.787,M,2.8,*61
$GPGGA,075922.80,3047.013639,N,10357.512495598,E,4,08,1.0,495.058,M,-41.787,M,2.8,*56
$GPGGA,075922.80,3047.013531198,N,10357.512485698,E,4,08,1.0,495.058,M,-41.787,M,2.8,*6F
$GPGGA,075922.80,3047.013424602,N,10357.512483898,E,4,08,1.0,495.058,M,-41.787,M,2.8,*66
$GPGGA,075922.80,3047.013313698,N,10357.5124729,E,4,08,1.0,495.058,M,-41.787,M,2.8,*68
$GPGGA,075922.80,3047.013208302,N,10357.5124534,E,4,08,1.0,495.058,M,-41.787,M,2.8,*6B
$GPGGA,075922.80,3047.0131086,N,10357.5124426,E,4,08,1.0,495.058,M,-41.787,M,2.8,*6D
$GPGGA,075922.80,3047.012998398,N,10357.5124339,E,4,08,1.0,495.058,M,-41.787,M,2.8,*60
$GPGGA,075922.80,3047.0128902,N,10357.512419002,E,4,08,1.0,495.058,M,-41.787,M,2.8,*6A
$GPGGA,075922.80,3047.0127846,N,10357.512411898,E,4,08,1.0,495.058,M,-41.787,M,2.8,*67
$GPGGA,075922.80,3047.012679102,N,10357.5124024,E,4,08,1.0,495.058,M,-41.787,M,2.8,*6E
$GPGGA,075922.80,3047.012569002,N,10357.512396802,E,4,08,1.0,495.058,M,-41.787,M,2.8,*69
$GPGGA,075922.80,3047.012459298,N,10357.512375598,E,4,08,1.0,495.058,M,-41.787,M,2.8,*69
$GPGGA,075922.80,3047.012347698,N,10357.5123721,E,4,08,1.0,495.058,M,-41.787,M,2.8,*67
$GPGGA,075922.80,3047.0122431,N,10357.512360202,E,4,08,1.0,495.058,M,-41.787,M,2.8,*66
$GPGGA,075922.80,3047.0121345,N,10357.512339898,E,4,08,1.0,495.058,M,-41.787,M,2.8,*64
$GPGGA,075922.80,3047.012024598,N,10357.512334402,E,4,08,1.0,495.058,M,-41.787,M,2.8,*67
$GPGGA,075922.80,3047.011917198,N,10357.512313498,E,4,08,1.0,495.058,M,-41.787,M,2.8,*6F
$GPGGA,075922.80,3047.011806198,N,10357.512314902,E,4,08,1.0,495.058,M,-41.787,M,2.8,*67
$GPGGA,075922.80,3047.0116935,N,10357.512313702,E,4,08,1.0,495.058,M,-41.787,M,2.8,*69
$GPGGA,075922.80,3047.0115858,N,10357.512299902,E,4,08,1.0,495.058,M,-41.787,M,2.8,*6D
$GPGGA,075922.80,3047.0114748,N,10357.512288598,E,4,08,1.0,495.058,M,-41.787,M,2.8,*6D
$GPGGA,075922.80,3047.011369398,N,10357.512278302,E,4,08,1.0,495.058,M,-41.787,M,2.8,*66
$GPGGA,075922.80,3047.01126,N,10357.512271,E,4,08,1.0,495.058,M,-41.787,M,2.8,*54
$GPGGA,075922.80,3047.011150398,N,10357.512253402,E,4,08,1.0,495.058,M,-41.787,M,2.8,*60
$GPGGA,075922.80,3047.011041198,N,10357.512249598,E,4,08,1.0,495.058,M,-41.787,M,2.8,*6A
$GPGGA,075922.80,3047.010933198,N,10357.5122404,E,4,08,1.0,495.058,M,-41.787,M,2.8,*6E
$GPGGA,075922.80,3047.010829398,N,10357.5122275,E,4,08,1.0,495.058,M,-41.787,M,2.8,*66
$GPGGA,075922.80,3047.010717498,N,10357.5122188,E,4,08,1.0,495.058,M,-41.787,M,2.8,*62
$GPGGA,075922.80,3047.010611802,N,10357.5122125,E,4,08,1.0,495.058,M,-41.787,M,2.8,*6D
$GPGGA,075922.80,3047.010499302,N,10357.512199198,E,4,08,1.0,495.058,M,-41.787,M,2.8,*61
$GPGGA,075922.80,3047.010390498,N,10357.512188302,E,4,08,1.0,495.058,M,-41.787,M,2.8,*6A
$GPGGA,075922.80,3047.010281202,N,10357.512183202,E,4,08,1.0,495.058,M,-41.787,M,2.8,*64
$GPGGA,075922.80,3047.010169098,N,10357.5121744,E,4,08,1.0,495.058,M,-41.787,M,2.8,*6C
$GPGGA,075922.80,3047.010063,N,10357.512161098,E,4,08,1.0,495.058,M,-41.787,M,2.8,*57
$GPGGA,075922.80,3047.009953998,N,10357.512155698,E,4,08,1.0,495.058,M,-41.787,M,2.8,*6C
$GPGGA,075922.80,3047.009843598,N,10357.512146902,E,4,08,1.0,495.058,M,-41.787,M,2.8,*6E
$GPGGA,075922.80,3047.0097411,N,10357.512134002,E,4,08,1.0,495.058,M,-41.787,M,2.8,*6A
$GPGGA,075922.80,3047.0096289,N,10357.5121273,E,4,08,1.0,495.058,M,-41.787,M,2.8,*6F
$GPGGA,075922.80,3047.009523798,N,10357.512115498,E,4,08,1.0,495.058,M,-41.787,M,2.8,*6F
$GPGGA,075922.80,3047.009415798,N,10357.512112498,E,4,08,1.0,495.058,M,-41.787,M,2.8,*6C
$GPGGA,075922.80,3047.0093061,N,10357.512099802,E,4,08,1.0,495.058,M,-41.787,M,2.8,*63
$GPGGA,075922.80,3047.009199,N,10357.5120889,E,4,08,1.0,495.058,M,-41.787,M,2.8,*55
$GPGGA,075922.80,3047.009095602,N,10357.512085102,E,4,08,1.0,495.058,M,-41.787,M,2.8,*6B
$GPGGA,075922.80,3047.008978902,N,10357.5120763,E,4,08,1.0,495.058,M,-41.787,M,2.8,*63
$GPGGA,075922.80,3047.0088765,N,10357.5120622,E,4,08,1.0,495.058,M,-41.787,M,2.8,*66
$GPGGA,075922.80,3047.0087706,N,10357.512056698,E,4,08,1.0,495.058,M,-41.787,M,2.8,*6E
$GPGGA,075922.80,3047.0086659,N,10357.512053398,E,4,08,1.0,495.058,M,-41.787,M,2.8,*64
$GPGGA,075922.80,3047.008559298,N,10357.5120346,E,4,08,1.0,495.058,M,-41.787,M,2.8,*67
$GPGGA,075922.80,3047.008453002,N,10357.512027502,E,4,08,1.0,495.058,M,-41.787,M,2.8,*6E
$GPGGA,075922.80,3047.008345302,N,10357.512024802,E,4,08,1.0,495.058,M,-41.787,M,2.8,*63
$GPGGA,075922.80,3047.008238598,N,10357.512018202,E,4,08,1.0,495.058,M,-41.787,M,2.8,*68
$GPGGA,075922.80,3047.0081334,N,10357.5120064,E,4,08,1.0,495.058,M,-41.787,M,2.8,*6B
$GPGGA,075922.80,3047.0080239,N,10357.511991502,E,4,08,1.0,495.058,M,-41.787,M,2.8,*61
$GPGGA,075922.80,3047.007916098,N,10357.511994802,E,4,08,1.0,495.058,M,-41.787,M,2.8,*61
$GPGGA,075922.80,3047.00781,N,10357.511982802,E,4,08,1.0,495.058,M,-41.787,M,2.8,*60
$GPGGA,075922.80,3047.007705,N,10357.511967502,E,4,08,1.0,495.058,M,-41.787,M,2.8,*5D
$GPGGA,075922.80,3047.007595302,N,10357.511955598,E,4,08,1.0,495.058,M,-41.787,M,2.8,*65
$GPGGA,075922.80,3047.007483798,N,10357.511945302,E,4,08,1.0,495.058,M,-41.787,M,2.8,*60
$GPGGA,075922.80,3047.007379002,N,10357.5119155,E,4,08,1.0,495.058,M,-41.787,M,2.8,*67
$GPGGA,075922.80,3047.007265398,N,10357.511896,E,4,08,1.0,495.058,M,-41.787,M,2.8,*54
$GPGGA,075922.80,3047.007160998,N,10357.511867698,E,4,08,1.0,495.058,M,-41.787,M,2.8,*61
$GPGGA,075922.80,3047.0070504,N,10357.511846902,E,4,08,1.0,495.058,M,-41.787,M,2.8,*60
$GPGGA,075922.80,3047.0069403,N,10357.511811502,E,4,08,1.0,495.058,M,-41.787,M,2.8,*60
$GPGGA,075922.80,3047.006830002,N,10357.511774998,E,4,08,1.0,495.058,M,-41.787,M,2.8,*64
$GPGGA,075922.80,3047.0067195,N,10357.5117568,E,4,08,1.0,495.058,M,-41.787,M,2.8,*67
$GPGGA,075922.80,3047.006608002,N,10357.51174,E,4,08,1.0,495.058,M,-41.787,M,2.8,*6E
$GPGGA,075922.80,3047.006499702,N,10357.511716702,E,4,08,1.0,495.058,M,-41.787,M,2.8,*65
$GPGGA,075922.80,3047.0063859,N,10357.511698,E,4,08,1.0,495.058,M,-41.787,M,2.8,*51
$GPGGA,075922.80,3047.006277,N,10357.5116803,E,4,08,1.0,495.058,M,-41.787,M,2.8,*5E
$GPGGA,075922.80,3047.006175102,N,10357.5116641,E,4,08,1.0,495.058,M,-41.787,M,2.8,*64
$GPGGA,075922.80,3047.006069502,N,10357.511644,E,4,08,1.0,495.058,M,-41.787,M,2.8,*5F
$GPGGA,075922.80,3047.005975098,N,10357.5116176,E,4,08,1.0,495.058,M,-41.787,M,2.8,*6E
$GPGGA,075922.80,3047.005884498,N,10357.5116086,E,4,08,1.0,495.058,M,-41.787,M,2.8,*6B
$GPGGA,075922.80,3047.005793298,N,10357.511592502,E,4,08,1.0,495.058,M,-41.787,M,2.8,*65
$GPGGA,075922.80,3047.005711902,N,10357.511579602,E,4,08,1.0,495.058,M,-41.787,M,2.8,*61
$GPGGA,075922.80,3047.005628202,N,10357.5115657,E,4,08,1.0,495.058,M,-41.787,M,2.8,*6F
$GPGGA,075922.80,3047.005552098,N,10357.511557498,E,4,08,1.0,495.058,M,-41.787,M,2.8,*63
$GPGGA,075922.80,3047.005480002,N,10357.511539,E,4,08,1.0,495.058,M,-41.787,M,2.8,*53
$GPGGA,075922.80,3047.0054121,N,10357.511530198,E,4,08,1.0,495.058,M,-41.787,M,2.8,*62
$GPGGA,075922.80,3047.005343202,N,10357.511514598,E,4,08,1.0,495.058,M,-41.787,M,2.8,*62
$GPGGA,075922.80,3047.005283202,N,10357.511508802,E,4,08,1.0,495.058,M,-41.787,M,2.8,*6C
$GPGGA,075922.80,3047.005227402,N,10357.5115051,E,4,08,1.0,495.058,M,-41.787,M,2.8,*62
$GPGGA,075922.80,3047.0051754,N,10357.511486302,E,4,08,1.0,495.058,M,-41.787,M,2.8,*6E
$GPGGA,075922.80,3047.005126998,N,10357.511478502,E,4,08,1.0,495.058,M,-41.787,M,2.8,*63
$GPGGA,075922.80,3047.0050803,N,10357.511473498,E,4,08,1.0,495.058,M,-41.787,M,2.8,*6C
$GPGGA,075922.80,3047.005040898,N,10357.511467798,E,4,08,1.0,495.058,M,-41.787,M,2.8,*6C
$GPGGA,075922.80,3047.005000602,N,10357.5114646,E,4,08,1.0,495.058,M,-41.787,M,2.8,*66
$GPGGA,075922.80,3047.004968202,N,10357.511459398,E,4,08,1.0,495.058,M,-41.787,M,2.8,*6E
$GPGGA,075922.80,3047.004935598,N,10357.511449498,E,4,08,1.0,495.058,M,-41.787,M,2.8,*64
$GPGGA,075922.80,3047.004906702,N,10357.511447902,E,4,08,1.0,495.058,M,-41.787,M,2.8,*65
$GPGGA,075922.80,3047.004881502,N,10357.511444002,E,4,08,1.0,495.058,M,-41.787,M,2.8,*63
$GPGGA,075922.80,3047.004861702,N,10357.511440498,E,4,08,1.0,495.058,M,-41.787,M,2.8,*6C
$GPGGA,075922.80,3047.004846402,N,10357.511440102,E,4,08,1.0,495.058,M,-41.787,M,2.8,*6C
$GPGGA,075922.80,3047.0048355,N,10357.511439598,E,4,08,1.0,495.058,M,-41.787,M,2.8,*62
$GPGGA,075922.80,3047.004826902,N,10357.5114385,E,4,08,1.0,495.058,M,-41.787,M,2.8,*6E
$GPGGA,075922.80,3047.0048226,N,10357.511437498,E,4,08,1.0,495.058,M,-41.787,M,2.8,*68
$GPGGA,075922.80,3047.0048214,N,10357.511438098,E,4,08,1.0,495.058,M,-41.787,M,2.8,*62
$GPGGA,075922.80,3047.004822498,N,10357.511436898,E,4,08,1.0,495.058,M,-41.787,M,2.8,*66
$GPGGA,075922.80,3047.004822702,N,10357.511438002,E,4,08,1.0,495.058,M,-41.787,M,2.8,*63
$GPGGA,075922.80,3047.0048217,N,10357.511439298,E,4,08,1.0,495.058,M,-41.787,M,2.8,*62
$GPGGA,075922.80,3047.004821502,N,10357.511440198,E,4,08,1.0,495.058,M,-41.787,M,2.8,*6F
$GPGGA,075922.80,3047.004821802,N,10357.5114412,E,4,08,1.0,495.058,M,-41.787,M,2.8,*61
$GPGGA,075922.80,3047.004822198,N,10357.511440498,E,4,08,1.0,495.058,M,-41.787,M,2.8,*6E
$GPGGA,075922.80,3047.004822102,N,10357.511440198,E,4,08,1.0,495.058,M,-41.787,M,2.8,*68
$GPGGA,075922.80,3047.004822702,N,10357.511439802,E,4,08,1.0,495.058,M,-41.787,M,2.8,*6A
$GPGGA,075922.80,3047.004821898,N,10357.5114403,E,4,08,1.0,495.058,M,-41.787,M,2.8,*62
$GPGGA,075922.80,3047.0048214,N,10357.511440198,E,4,08,1.0,495.058,M,-41.787,M,2.8,*6C
$GPGGA,075922.80,3047.004821898,N,10357.511440198,E,4,08,1.0,495.058,M,-41.787,M,2.8,*61
$GPGGA,075922.80,3047.004821898,N,10357.511440702,E,4,08,1.0,495.058,M,-41.787,M,2.8,*64
$GPGGA,075922.80,3047.004820698,N,10357.5114409,E,4,08,1.0,495.058,M,-41.787,M,2.8,*67
$GPGGA,075922.80,3047.004821598,N,10357.511440702,E,4,08,1.0,495.058,M,-41.787,M,2.8,*69
$GPGGA,075922.80,3047.004821202,N,10357.5114409,E,4,08,1.0,495.058,M,-41.787,M,2.8,*61
$GPGGA,075922.80,3047.0048211,N,10357.511440702,E,4,08,1.0,495.058,M,-41.787,M,2.8,*6C
$GPGGA,075922.80,3047.004821202,N,10357.511441398,E,4,08,1.0,495.058,M,-41.787,M,2.8,*6B
$GPGGA,075922.80,3047.0048214,N,10357.511440798,E,4,08,1.0,495.058,M,-41.787,M,2.8,*6A
$GPGGA,075922.80,3047.0048217,N,10357.511440798,E,4,08,1.0,495.058,M,-41.787,M,2.8,*69
$GPGGA,075922.80,3047.004821598,N,10357.511441098,E,4,08,1.0,495.058,M,-41.787,M,2.8,*6C
$GPGGA,075922.80,3047.004821298,N,10357.5114409,E,4,08,1.0,495.058,M,-41.787,M,2.8,*62
$GPGGA,075922.80,3047.004820902,N,10357.511441398,E,4,08,1.0,495.058,M,-41.787,M,2.8,*61
$GPGGA,075922.80,3047.0048214,N,10357.5114418,E,4,08,1.0,495.058,M,-41.787,M,2.8,*65
$GPGGA,075922.80,3047.004820998,N,10357.5114421,E,4,08,1.0,495.058,M,-41.787,M,2.8,*62
$GPGGA,075922.80,3047.0048211,N,10357.511441602,E,4,08,1.0,495.058,M,-41.787,M,2.8,*6C
$GPGGA,075922.80,3047.0048211,N,10357.511441998,E,4,08,1.0,495.058,M,-41.787,M,2.8,*60
$GPGGA,075922.80,3047.004821502,N,10357.511441998,E,4,08,1.0,495.058,M,-41.787,M,2.8,*66
$GPGGA,075922.80,3047.0048208,N,10357.511442802,E,4,08,1.0,495.058,M,-41.787,M,2.8,*69
$GPGGA,075922.80,3047.0048196,N,10357.5114418,E,4,08,1.0,495.058,M,-41.787,M,2.8,*6C
$GPGGA,075922.80,3047.004816198,N,10357.511441602,E,4,08,1.0,495.058,M,-41.787,M,2.8,*69
$GPGGA,075922.80,3047.0048073,N,10357.511439202,E,4,08,1.0,495.058,M,-41.787,M,2.8,*61
$GPGGA,075922.80,3047.0047908,N,10357.5114352,E,4,08,1.0,495.058,M,-41.787,M,2.8,*65
$GPGGA,075922.80,3047.004764898,N,10357.511428402,E,4,08,1.0,495.058,M,-41.787,M,2.8,*67
$GPGGA,075922.80,3047.004733998,N,10357.511422798,E,4,08,1.0,495.058,M,-41.787,M,2.8,*6E
$GPGGA,075922.80,3047.004692898,N,10357.511410198,E,4,08,1.0,495.058,M,-41.787,M,2.8,*62
$GPGGA,075922.80,3047.004642702,N,10357.5114085,E,4,08,1.0,495.058,M,-41.787,M,2.8,*6F
$GPGGA,075922.80,3047.004582498,N,10357.511396302,E,4,08,1.0,495.058,M,-41.787,M,2.8,*64
$GPGGA,075922.80,3047.0045145,N,10357.511388202,E,4,08,1.0,495.058,M,-41.787,M,2.8,*65
$GPGGA,075922.80,3047.004437598,N,10357.511374102,E,4,08,1.0,495.058,M,-41.787,M,2.8,*64
$GPGGA,075922.80,3047.0043627,N,10357.511362102,E,4,08,1.0,495.058,M,-41.787,M,2.8,*67
$GPGGA,075922.80,3047.004278298,N,10357.5113479,E,4,08,1.0,495.058,M,-41.787,M,2.8,*64
$GPGGA,075922.80,3047.004191802,N,10357.511338102,E,4,08,1.0,495.058,M,-41.787,M,2.8,*6B
$GPGGA,075922.80,3047.004102102,N,10357.511318302,E,4,08,1.0,495.058,M,-41.787,M,2.8,*68
$GPGGA,075922.80,3047.0040081,N,10357.5113044,E,4,08,1.0,495.058,M,-41.787,M,2.8,*69
$GPGGA,075922.80,3047.003915502,N,10357.511290498,E,4,08,1.0,495.058,M,-41.787,M,2.8,*60
$GPGGA,075922.80,3047.003819298,N,10357.5112753,E,4,08,1.0,495.058,M,-41.787,M,2.8,*64
$GPGGA,075922.80,3047.0037171,N,10357.5112576,E,4,08,1.0,495.058,M,-41.787,M,2.8,*62
$GPGGA,075922.80,3047.003613102,N,10357.5112441,E,4,08,1.0,495.058,M,-41.787,M,2.8,*60
$GPGGA,075922.80,3047.0035116,N,10357.511226898,E,4,08,1.0,495.058,M,-41.787,M,2.8,*68
$GPGGA,075922.80,3047.003398902,N,10357.5112117,E,4,08,1.0,495.058,M,-41.787,M,2.8,*68
$GPGGA,075922.80,3047.003286702,N,10357.511188798,E,4,08,1.0,495.058,M,-41.787,M,2.8,*6A
$GPGGA,075922.80,3047.003173398,N,10357.5111829,E,4,08,1.0,495.058,M,-41.787,M,2.8,*61
$GPGGA,075922.80,3047.003061702,N,10357.511156302,E,4,08,1.0,495.058,M,-41.787,M,2.8,*65
$GPGGA,075922.80,3047.002947198,N,10357.511137498,E,4,08,1.0,495.058,M,-41.787,M,2.8,*6F
$GPGGA,075922.80,3047.002834002,N,10357.511122798,E,4,08,1.0,495.058,M,-41.787,M,2.8,*6F
$GPGGA,075922.80,3047.0027223,N,10357.511108302,E,4,08,1.0,495.058,M,-41.787,M,2.8,*69
$GPGGA,075922.80,3047.0026119,N,10357.511097502,E,4,08,1.0,495.058,M,-41.787,M,2.8,*63
$GPGGA,075922.80,3047.002503,N,10357.5110767,E,4,08,1.0,495.058,M,-41.787,M,2.8,*55
$GPGGA,075922.80,3047.002396302,N,10357.511057902,E,4,08,1.0,495.058,M,-41.787,M,2.8,*61
$GPGGA,075922.80,3047.0022894,N,10357.511036698,E,4,08,1.0,495.058,M,-41.787,M,2.8,*60
$GPGGA,075922.80,3047.0021829,N,10357.5110272,E,4,08,1.0,495.058,M,-41.787,M,2.8,*60
$GPGGA,075922.80,3047.0020764,N,10357.511009002,E,4,08,1.0,495.058,M,-41.787,M,2.8,*6B
$GPGGA,075922.80,3047.0019669,N,10357.510996402,E,4,08,1.0,495.058,M,-41.787,M,2.8,*67
$GPGGA,075922.80,3047.0018661,N,10357.510976098,E,4,08,1.0,495.058,M,-41.787,M,2.8,*67
$GPGGA,075922.80,3047.001758202,N,10357.510967302,E,4,08,1.0,495.058,M,-41.787,M,2.8,*64
$GPGGA,075922.80,3047.001654798,N,10357.510947598,E,4,08,1.0,495.058,M,-41.787,M,2.8,*68
$GPGGA,075922.80,3047.0015478,N,10357.5109279,E,4,08,1.0,495.058,M,-41.787,M,2.8,*6C
$GPGGA,075922.80,3047.001441402,N,10357.510908802,E,4,08,1.0,495.058,M,-41.787,M,2.8,*6B
$GPGGA,075922.80,3047.001337098,N,10357.510897702,E,4,08,1.0,495.058,M,-41.787,M,2.8,*62
$GPGGA,075922.80,3047.001227598,N,10357.510882798,E,4,08,1.0,495.058,M,-41.787,M,2.8,*60
$GPGGA,075922.80,3047.001120798,N,10357.510862002,E,4,08,1.0,495.058,M,-41.787,M,2.8,*6C
$GPGGA,075922.80,3047.001018402,N,10357.5108505,E,4,08,1.0,495.058,M,-41.787,M,2.8,*60
$GPGGA,075922.80,3047.0009076,N,10357.510832602,E,4,08,1.0,495.058,M,-41.787,M,2.8,*63
$GPGGA,075922.80,3047.000800602,N,10357.5108217,E,4,08,1.0,495.058,M,-41.787,M,2.8,*66
$GPGGA,075922.80,3047.000693598,N,10357.510804402,E,4,08,1.0,495.058,M,-41.787,M,2.8,*64
$GPGGA,075922.80,3047.0005887,N,10357.5107842,E,4,08,1.0,495.058,M,-41.787,M,2.8,*6D
$GPGGA,075922.80,3047.000483202,N,10357.510771798,E,4,08,1.0,495.058,M,-41.787,M,2.8,*6E
$GPGGA,075922.80,3047.000375202,N,10357.510751602,E,4,08,1.0,495.058,M,-41.787,M,2.8,*60
$GPGGA,075922.80,3047.000269398,N,10357.510740898,E,4,08,1.0,495.058,M,-41.787,M,2.8,*63
$GPGGA,075922.80,3047.000161098,N,10357.510720402,E,4,08,1.0,495.058,M,-41.787,M,2.8,*62
$GPGGA,075922.80,3047.0000493,N,10357.5106999,E,4,08,1.0,495.058,M,-41.787,M,2.8,*67
$GPGGA,075922.80,3046.999942302,N,10357.5106858,E,4,08,1.0,495.058,M,-41.787,M,2.8,*63
$GPGGA,075922.80,3046.999832898,N,10357.510676302,E,4,08,1.0,495.058,M,-41.787,M,2.8,*68
$GPGGA,075922.80,3046.9997253,N,10357.5106687,E,4,08,1.0,495.058,M,-41.787,M,2.8,*62
$GPGGA,075922.80,3046.9996116,N,10357.5106507,E,4,08,1.0,495.058,M,-41.787,M,2.8,*6A
$GPGGA,075922.80,3046.999505502,N,10357.510635802,E,4,08,1.0,495.058,M,-41.787,M,2.8,*63
$GPGGA,075922.80,3046.999398,N,10357.510622098,E,4,08,1.0,495.058,M,-41.787,M,2.8,*5B
$GPGGA,075922.80,3046.9992963,N,10357.510599898,E,4,08,1.0,495.058,M,-41.787,M,2.8,*6C
$GPGGA,075922.80,3046.999191702,N,10357.510506298,E,4,08,1.0,495.058,M,-41.787,M,2.8,*62
$GPGGA,075922.80,3046.999064298,N,10357.510370902,E,4,08,1.0,495.058,M,-41.787,M,2.8,*60
$GPGGA,075922.80,3046.998951702,N,10357.510247602,E,4,08,1.0,495.058,M,-41.787,M,2.8,*62
$GPGGA,075922.80,3046.998848598,N,10357.510208602,E,4,08,1.0,495.058,M,-41.787,M,2.8,*61
$GPGGA,075922.80,3046.998744198,N,10357.510202398,E,4,08,1.0,495.058,M,-41.787,M,2.8,*6A
$GPGGA,075922.80,3046.998635598,N,10357.5102208,E,4,08,1.0,495.058,M,-41.787,M,2.8,*63
$GPGGA,075922.80,3046.998533598,N,10357.510248298,E,4,08,1.0,495.058,M,-41.787,M,2.8,*63
$GPGGA,075922.80,3046.998442398,N,10357.510276498,E,4,08,1.0,495.058,M,-41.787,M,2.8,*69
$GPGGA,075922.80,3046.998351798,N,10357.510316902,E,4,08,1.0,495.058,M,-41.787,M,2.8,*61
$GPGGA,075922.80,3046.998233802,N,10357.510335598,E,4,08,1.0,495.058,M,-41.787,M,2.8,*66
$GPGGA,075922.80,3046.998121902,N,10357.510336498,E,4,08,1.0,495.058,M,-41.787,M,2.8,*65
$GPGGA,075922.80,3046.998026598,N,10357.510332802,E,4,08,1.0,495.058,M,-41.787,M,2.8,*67
$GPGGA,075922.80,3046.9979235,N,10357.510337002,E,4,08,1.0,495.058,M,-41.787,M,2.8,*68
$GPGGA,075922.80,3046.9978191,N,10357.510327702,E,4,08,1.0,495.058,M,-41.787,M,2.8,*62
$GPGGA,075922.80,3046.997730498,N,10357.510309798,E,4,08,1.0,495.058,M,-41.787,M,2.8,*6D
$GPGGA,075922.80,3046.997617098,N,10357.510295398,E,4,08,1.0,495.058,M,-41.787,M,2.8,*6D
$GPGGA,075922.80,3046.997508198,N,10357.510273702,E,4,08,1.0,495.058,M,-41.787,M,2.8,*6E
$GPGGA,075922.80,3046.997400198,N,10357.510277098,E,4,08,1.0,495.058,M,-41.787,M,2.8,*67
$GPGGA,075922.80,3046.997294202,N,10357.510267198,E,4,08,1.0,495.058,M,-41.787,M,2.8,*6C
$GPGGA,075922.80,3046.997191902,N,10357.5102541,E,4,08,1.0,495.058,M,-41.787,M,2.8,*60
$GPGGA,075922.80,3046.997086002,N,10357.510235602,E,4,08,1.0,495.058,M,-41.787,M,2.8,*6C
$GPGGA,075922.80,3046.996995402,N,10357.510210402,E,4,08,1.0,495.058,M,-41.787,M,2.8,*67
$GPGGA,075922.80,3046.996896498,N,10357.510178602,E,4,08,1.0,495.058,M,-41.787,M,2.8,*69
$GPGGA,075922.80,3046.996793802,N,10357.510168102,E,4,08,1.0,495.058,M,-41.787,M,2.8,*6A
$GPGGA,075922.80,3046.996687998,N,10357.510171402,E,4,08,1.0,495.058,M,-41.787,M,2.8,*61
$GPGGA,075922.80,3046.996580802,N,10357.5101779,E,4,08,1.0,495.058,M,-41.787,M,2.8,*6E
$GPGGA,075922.80,3046.996479798,N,10357.510169998,E,4,08,1.0,495.058,M,-41.787,M,2.8,*6B
$GPGGA,075922.80,3046.996400598,N,10357.5101581,E,4,08,1.0,495.058,M,-41.787,M,2.8,*6C
$GPGGA,075922.80,3046.996304298,N,10357.510135,E,4,08,1.0,495.058,M,-41.787,M,2.8,*52
$GPGGA,075922.80,3046.9961916,N,10357.510119202,E,4,08,1.0,495.058,M,-41.787,M,2.8,*67
$GPGGA,075922.80,3046.996075002,N,10357.5101086,E,4,08,1.0,495.058,M,-41.787,M,2.8,*6E
$GPGGA,075922.80,3046.995962202,N,10357.5100951,E,4,08,1.0,495.058,M,-41.787,M,2.8,*62
$GPGGA,075922.80,3046.995853698,N,10357.510080598,E,4,08,1.0,495.058,M,-41.787,M,2.8,*67
$GPGGA,075922.80,3046.995750798,N,10357.510053202,E,4,08,1.0,495.058,M,-41.787,M,2.8,*60
$GPGGA,075922.80,3046.995640998,N,10357.510053298,E,4,08,1.0,495.058,M,-41.787,M,2.8,*6D
$GPGGA,075922.80,3046.9955325,N,10357.5100426,E,4,08,1.0,495.058,M,-41.787,M,2.8,*63
$GPGGA,075922.80,3046.995414498,N,10357.510031998,E,4,08,1.0,495.058,M,-41.787,M,2.8,*6C
$GPGGA,075922.80,3046.995308802,N,10357.5100297,E,4,08,1.0,495.058,M,-41.787,M,2.8,*6F
$GPGGA,075922.80,3046.9951998,N,10357.510019002,E,4,08,1.0,495.058,M,-41.787,M,2.8,*61
$GPGGA,075922.80,3046.9950933,N,10357.510006798,E,4,08,1.0,495.058,M,-41.787,M,2.8,*6B
$GPGGA,075922.80,3046.994984298,N,10357.509995302,E,4,08,1.0,495.058,M,-41.787,M,2.8,*69
$GPGGA,075922.80,3046.994887902,N,10357.509983398,E,4,08,1.0,495.058,M,-41.787,M,2.8,*67
$GPGGA,075922.80,3046.994775702,N,10357.509961798,E,4,08,1.0,495.058,M,-41.787,M,2.8,*63
$GPGGA,075922.80,3046.9946535,N,10357.509956698,E,4,08,1.0,495.058,M,-41.787,M,2.8,*63
$GPGGA,075922.80,3046.9945383,N,10357.509938098,E,4,08,1.0,495.058,M,-41.787,M,2.8,*65
$GPGGA,075922.80,3046.994424,N,10357.509927802,E,4,08,1.0,495.058,M,-41.787,M,2.8,*5F
$GPGGA,075922.80,3046.994310498,N,10357.509925702,E,4,08,1.0,495.058,M,-41.787,M,2.8,*67
$GPGGA,075922.80,3046.9941888,N,10357.5098974,E,4,08,1.0,495.058,M,-41.787,M,2.8,*60
$GPGGA,075922.80,3046.994082402,N,10357.509891802,E,4,08,1.0,495.058,M,-41.787,M,2.8,*6D
$GPGGA,075922.80,3046.993975098,N,10357.509875002,E,4,08,1.0,495.058,M,-41.787,M,2.8,*6E
$GPGGA,075922.80,3046.9938597,N,10357.509857698,E,4,08,1.0,495.058,M,-41.787,M,2.8,*62
$GPGGA,075922.80,3046.993756098,N,10357.5098506,E,4,08,1.0,495.058,M,-41.787,M,2.8,*62
$GPGGA,075922.80,3046.9936452,N,10357.509835,E,4,08,1.0,495.058,M,-41.787,M,2.8,*57
$GPGGA,075922.80,3046.9935354,N,10357.5098281,E,4,08,1.0,495.058,M,-41.787,M,2.8,*68
$GPGGA,075922.80,3046.993427202,N,10357.5098263,E,4,08,1.0,495.058,M,-41.787,M,2.8,*62
$GPGGA,075922.80,3046.9933209,N,10357.509811402,E,4,08,1.0,495.058,M,-41.787,M,2.8,*6A
$GPGGA,075922.80,3046.993215,N,10357.509805498,E,4,08,1.0,495.058,M,-41.787,M,2.8,*52
$GPGGA,075922.80,3046.993108002,N,10357.509795598,E,4,08,1.0,495.058,M,-41.787,M,2.8,*68
$GPGGA,075922.80,3046.9929996,N,10357.509780202,E,4,08,1.0,495.058,M,-41.787,M,2.8,*6D
$GPGGA,075922.80,3046.992889902,N,10357.509765502,E,4,08,1.0,495.058,M,-41.787,M,2.8,*6C
$GPGGA,075922.80,3046.992777798,N,10357.509750802,E,4,08,1.0,495.058,M,-41.787,M,2.8,*64
$GPGGA,075922.80,3046.992674598,N,10357.509744898,E,4,08,1.0,495.058,M,-41.787,M,2.8,*62
$GPGGA,075922.80,3046.992564102,N,10357.509733798,E,4,08,1.0,495.058,M,-41.787,M,2.8,*68
$GPGGA,075922.80,3046.992462702,N,10357.509723598,E,4,08,1.0,495.058,M,-41.787,M,2.8,*6A
$GPGGA,075922.80,3046.992370902,N,10357.509710602,E,4,08,1.0,495.058,M,-41.787,M,2.8,*60
$GPGGA,075922.80,3046.9922859,N,10357.509702898,E,4,08,1.0,495.058,M,-41.787,M,2.8,*67
$GPGGA,075922.80,3046.9922001,N,10357.509694102,E,4,08,1.0,495.058,M,-41.787,M,2.8,*66
$GPGGA,075922.80,3046.9921191,N,10357.5096868,E,4,08,1.0,495.058,M,-41.787,M,2.8,*65
$GPGGA,075922.80,3046.992039798,N,10357.509675298,E,4,08,1.0,495.058,M,-41.787,M,2.8,*66
$GPGGA,075922.80,3046.991968998,N,10357.509670702,E,4,08,1.0,495.058,M,-41.787,M,2.8,*65
$GPGGA,075922.80,3046.991898498,N,10357.509663802,E,4,08,1.0,495.058,M,-41.787,M,2.8,*6B
$GPGGA,075922.80,3046.991838102,N,10357.509660898,E,4,08,1.0,495.058,M,-41.787,M,2.8,*67
$GPGGA,075922.80,3046.9917825,N,10357.509653098,E,4,08,1.0,495.058,M,-41.787,M,2.8,*67
$GPGGA,075922.80,3046.991725302,N,10357.509648298,E,4,08,1.0,495.058,M,-41.787,M,2.8,*66
$GPGGA,075922.80,3046.991670702,N,10357.509645202,E,4,08,1.0,495.058,M,-41.787,M,2.8,*6D
$GPGGA,075922.80,3046.9916223,N,10357.509638398,E,4,08,1.0,495.058,M,-41.787,M,2.8,*64
$GPGGA,075922.80,3046.9915761,N,10357.509632602,E,4,08,1.0,495.058,M,-41.787,M,2.8,*68
$GPGGA,075922.80,3046.991534202,N,10357.5096247,E,4,08,1.0,495.058,M,-41.787,M,2.8,*6B
$GPGGA,075922.80,3046.991496102,N,10357.509625702,E,4,08,1.0,495.058,M,-41.787,M,2.8,*62
$GPGGA,075922.80,3046.991458098,N,10357.509623098,E,4,08,1.0,495.058,M,-41.787,M,2.8,*60
$GPGGA,075922.80,3046.991423298,N,10357.5096181,E,4,08,1.0,495.058,M,-41.787,M,2.8,*66
$GPGGA,075922.80,3046.9913934,N,10357.5096139,E,4,08,1.0,495.058,M,-41.787,M,2.8,*6E
$GPGGA,075922.80,3046.991370198,N,10357.509616,E,4,08,1.0,495.058,M,-41.787,M,2.8,*5B
$GPGGA,075922.80,3046.9913514,N,10357.5096157,E,4,08,1.0,495.058,M,-41.787,M,2.8,*68
$GPGGA,075922.80,3046.991335398,N,10357.5096157,E,4,08,1.0,495.058,M,-41.787,M,2.8,*6C
$GPGGA,075922.80,3046.991321502,N,10357.509611602,E,4,08,1.0,495.058,M,-41.787,M,2.8,*6B
$GPGGA,075922.80,3046.991311002,N,10357.509611098,E,4,08,1.0,495.058,M,-41.787,M,2.8,*68
$GPGGA,075922.80,3046.991303898,N,10357.5096106,E,4,08,1.0,495.058,M,-41.787,M,2.8,*66
$GPGGA,075922.80,3046.991300502,N,10357.509611398,E,4,08,1.0,495.058,M,-41.787,M,2.8,*6E
$GPGGA,075922.80,3046.9913004,N,10357.5096127,E,4,08,1.0,495.058,M,-41.787,M,2.8,*6B
$GPGGA,075922.80,3046.9913037,N,10357.5096142,E,4,08,1.0,495.058,M,-41.787,M,2.8,*68
$GPGGA,075922.80,3046.9913043,N,10357.509614698,E,4,08,1.0,495.058,M,-41.787,M,2.8,*6E
$GPGGA,075922.80,3046.991303502,N,10357.509617302,E,4,08,1.0,495.058,M,-41.787,M,2.8,*68
$GPGGA,075922.80,3046.991302902,N,10357.509619198,E,4,08,1.0,495.058,M,-41.787,M,2.8,*6A
$GPGGA,075922.80,3046.9913031,N,10357.509620998,E,4,08,1.0,495.058,M,-41.787,M,2.8,*63
$GPGGA,075922.80,3046.991301,N,10357.509625498,E,4,08,1.0,495.058,M,-41.787,M,2.8,*58
$GPGGA,075922.80,3046.991298702,N,10357.509630898,E,4,08,1.0,495.058,M,-41.787,M,2.8,*64
$GPGGA,075922.80,3046.991295498,N,10357.509633502,E,4,08,1.0,495.058,M,-41.787,M,2.8,*64
$GPGGA,075922.80,3046.9912944,N,10357.509634198,E,4,08,1.0,495.058,M,-41.787,M,2.8,*64
$GPGGA,075922.80,3046.991294502,N,10357.509634798,E,4,08,1.0,495.058,M,-41.787,M,2.8,*61
$GPGGA,075922.80,3046.991295198,N,10357.5096331,E,4,08,1.0,495.058,M,-41.787,M,2.8,*67
$GPGGA,075922.80,3046.991293998,N,10357.509634702,E,4,08,1.0,495.058,M,-41.787,M,2.8,*6A
$GPGGA,075922.80,3046.991294598,N,10357.5096346,E,4,08,1.0,495.058,M,-41.787,M,2.8,*62
$GPGGA,075922.80,3046.991296302,N,10357.5096337,E,4,08,1.0,495.058,M,-41.787,M,2.8,*63
$GPGGA,075922.80,3046.9912974,N,10357.509633202,E,4,08,1.0,495.058,M,-41.787,M,2.8,*60
$GPGGA,075922.80,3046.9912959,N,10357.509634498,E,4,08,1.0,495.058,M,-41.787,M,2.8,*6D
$GPGGA,075922.80,3046.991295402,N,10357.509634402,E,4,08,1.0,495.058,M,-41.787,M,2.8,*61
$GPGGA,075922.80,3046.991296302,N,10357.5096349,E,4,08,1.0,495.058,M,-41.787,M,2.8,*6A
$GPGGA,075922.80,3046.991296002,N,10357.509635602,E,4,08,1.0,495.058,M,-41.787,M,2.8,*65
$GPGGA,075922.80,3046.991295702,N,10357.509633898,E,4,08,1.0,495.058,M,-41.787,M,2.8,*6A
$GPGGA,075922.80,3046.991298402,N,10357.509636898,E,4,08,1.0,495.058,M,-41.787,M,2.8,*61
$GPGGA,075922.80,3046.991298702,N,10357.5096376,E,4,08,1.0,495.058,M,-41.787,M,2.8,*6C
$GPGGA,075922.80,3046.991301,N,10357.509638098,E,4,08,1.0,495.058,M,-41.787,M,2.8,*50
$GPGGA,075922.80,3046.991300202,N,10357.509638098,E,4,08,1.0,495.058,M,-41.787,M,2.8,*61
$GPGGA,075922.80,3046.9912995,N,10357.509638998,E,4,08,1.0,495.058,M,-41.787,M,2.8,*6C
$GPGGA,075922.80,3046.991300202,N,10357.5096373,E,4,08,1.0,495.058,M,-41.787,M,2.8,*6C
$GPGGA,075922.80,3046.991299698,N,10357.509637702,E,4,08,1.0,495.058,M,-41.787,M,2.8,*6C
$GPGGA,075922.80,3046.991299302,N,10357.5096361,E,4,08,1.0,495.058,M,-41.787,M,2.8,*6F
$GPGGA,075922.80,3046.991299002,N,10357.509636898,E,4,08,1.0,495.058,M,-41.787,M,2.8,*64
$GPGGA,075922.80,3046.991299698,N,10357.5096367,E,4,08,1.0,495.058,M,-41.787,M,2.8,*6F
$GPGGA,075922.80,3046.9912992,N,10357.509636598,E,4,08,1.0,495.058,M,-41.787,M,2.8,*69
$GPGGA,075922.80,3046.9913004,N,10357.5096373,E,4,08,1.0,495.058,M,-41.787,M,2.8,*68
$GPGGA,075922.80,3046.9912998,N,10357.5096364,E,4,08,1.0,495.058,M,-41.787,M,2.8,*63
$GPGGA,075922.80,3046.991299098,N,10357.5096367,E,4,08,1.0,495.058,M,-41.787,M,2.8,*69
$GPGGA,075922.80,3046.9912998,N,10357.509636898,E,4,08,1.0,495.058,M,-41.787,M,2.8,*6E
$GPGGA,075922.80,3046.9912998,N,10357.509637702,E,4,08,1.0,495.058,M,-41.787,M,2.8,*63
$GPGGA,075922.80,3046.991299698,N,10357.509637498,E,4,08,1.0,495.058,M,-41.787,M,2.8,*6C
$GPGGA,075922.80,3046.9913004,N,10357.509638302,E,4,08,1.0,495.058,M,-41.787,M,2.8,*65
$GPGGA,075922.80,3046.991300202,N,10357.5096367,E,4,08,1.0,495.058,M,-41.787,M,2.8,*69
$GPGGA,075922.80,3046.991300298,N,10357.5096364,E,4,08,1.0,495.058,M,-41.787,M,2.8,*69
$GPGGA,075922.80,3046.991301,N,10357.5096355,E,4,08,1.0,495.058,M,-41.787,M,2.8,*59
$GPGGA,075922.80,3046.991301198,N,10357.509636502,E,4,08,1.0,495.058,M,-41.787,M,2.8,*68
$GPGGA,075922.80,3046.991301102,N,10357.509635098,E,4,08,1.0,495.058,M,-41.787,M,2.8,*6E
$GPGGA,075922.80,3046.991301,N,10357.5096349,E,4,08,1.0,495.058,M,-41.787,M,2.8,*54
$GPGGA,075922.80,3046.991301102,N,10357.509636202,E,4,08,1.0,495.058,M,-41.787,M,2.8,*6C
$GPGGA,075922.80,3046.991301198,N,10357.509635302,E,4,08,1.0,495.058,M,-41.787,M,2.8,*6D
$GPGGA,075922.80,3046.991301702,N,10357.509636298,E,4,08,1.0,495.058,M,-41.787,M,2.8,*69
$GPGGA,075922.80,3046.991302098,N,10357.509636298,E,4,08,1.0,495.058,M,-41.787,M,2.8,*6E
$GPGGA,075922.80,3046.991304702,N,10357.509636898,E,4,08,1.0,495.058,M,-41.787,M,2.8,*66
$GPGGA,075922.80,3046.991301702,N,10357.509636298,E,4,08,1.0,495.058,M,-41.787,M,2.8,*69
$GPGGA,075922.80,3046.991302098,N,10357.5096364,E,4,08,1.0,495.058,M,-41.787,M,2.8,*69
$GPGGA,075922.80,3046.991302998,N,10357.509635098,E,4,08,1.0,495.058,M,-41.787,M,2.8,*66
$GPGGA,075922.80,3046.991302302,N,10357.509634702,E,4,08,1.0,495.058,M,-41.787,M,2.8,*6A
$GPGGA,075922.80,3046.9913013,N,10357.509632998,E,4,08,1.0,495.058,M,-41.787,M,2.8,*60
$GPGGA,075922.80,3046.9913001,N,10357.5096349,E,4,08,1.0,495.058,M,-41.787,M,2.8,*64
$GPGGA,075922.80,3046.991300502,N,10357.509633898,E,4,08,1.0,495.058,M,-41.787,M,2.8,*65
$GPGGA,075922.80,3046.991300898,N,10357.5096337,E,4,08,1.0,495.058,M,-41.787,M,2.8,*65
$GPGGA,075922.80,3046.9913001,N,10357.509632998,E,4,08,1.0,495.058,M,-41.787,M,2.8,*63
$GPGGA,075922.80,3046.9912998,N,10357.509635002,E,4,08,1.0,495.058,M,-41.787,M,2.8,*66
$GPGGA,075922.80,3046.9913025,N,10357.5096334,E,4,08,1.0,495.058,M,-41.787,M,2.8,*68
$GPGGA,075922.80,3046.9913049,N,10357.509633802,E,4,08,1.0,495.058,M,-41.787,M,2.8,*6C
$GPGGA,075922.80,3046.991304102,N,10357.509628198,E,4,08,1.0,495.058,M,-41.787,M,2.8,*66
$GPGGA,075922.80,3046.991304498,N,10357.509625402,E,4,08,1.0,495.058,M,-41.787,M,2.8,*6B
$GPGGA,075922.80,3046.991306598,N,10357.5096265,E,4,08,1.0,495.058,M,-41.787,M,2.8,*68
$GPGGA,075922.80,3046.991305602,N,10357.5096283,E,4,08,1.0,495.058,M,-41.787,M,2.8,*63
$GPGGA,075922.80,3046.991305002,N,10357.5096307,E,4,08,1.0,495.058,M,-41.787,M,2.8,*68
$GPGGA,075922.80,3046.991304498,N,10357.509629902,E,4,08,1.0,495.058,M,-41.787,M,2.8,*6A
$GPGGA,075922.80,3046.991304,N,10357.509629698,E,4,08,1.0,495.058,M,-41.787,M,2.8,*53
$GPGGA,075922.80,3046.9913052,N,10357.509630298,E,4,08,1.0,495.058,M,-41.787,M,2.8,*6C
$GPGGA,075922.80,3046.991305002,N,10357.5096307,E,4,08,1.0,495.058,M,-41.787,M,2.8,*68
$GPGGA,075922.80,3046.991303898,N,10357.5096331,E,4,08,1.0,495.058,M,-41.787,M,2.8,*60
$GPGGA,075922.80,3046.991305698,N,10357.509640798,E,4,08,1.0,495.058,M,-41.787,M,2.8,*6B
$GPGGA,075922.80,3046.991302098,N,10357.509639898,E,4,08,1.0,495.058,M,-41.787,M,2.8,*6B
$GPGGA,075922.80,3046.991300802,N,10357.5096403,E,4,08,1.0,495.058,M,-41.787,M,2.8,*66
$GPGGA,075922.80,3046.991301498,N,10357.509639898,E,4,08,1.0,495.058,M,-41.787,M,2.8,*6C
$GPGGA,075922.80,3046.991302098,N,10357.509638398,E,4,08,1.0,495.058,M,-41.787,M,2.8,*61
$GPGGA,075922.80,3046.991301198,N,10357.5096379,E,4,08,1.0,495.058,M,-41.787,M,2.8,*67
$GPGGA,075922.80,3046.991302098,N,10357.5096376,E,4,08,1.0,495.058,M,-41.787,M,2.8,*6A
$GPGGA,075922.80,3046.991302398,N,10357.509635302,E,4,08,1.0,495.058,M,-41.787,M,2.8,*6C
$GPGGA,075922.80,3046.991302398,N,10357.509637702,E,4,08,1.0,495.058,M,-41.787,M,2.8,*6A
$GPGGA,075922.80,3046.991301,N,10357.5096382,E,4,08,1.0,495.058,M,-41.787,M,2.8,*53
$GPGGA,075922.80,3046.991301798,N,10357.5096379,E,4,08,1.0,495.058,M,-41.787,M,2.8,*61
$GPGGA,075922.80,3046.991302002,N,10357.509636298,E,4,08,1.0,495.058,M,-41.787,M,2.8,*6D
$GPGGA,075922.80,3046.991302398,N,10357.509636502,E,4,08,1.0,495.058,M,-41.787,M,2.8,*69
$GPGGA,075922.80,3046.991304198,N,10357.509637198,E,4,08,1.0,495.058,M,-41.787,M,2.8,*6B
$GPGGA,075922.80,3046.991302698,N,10357.5096364,E,4,08,1.0,495.058,M,-41.787,M,2.8,*6F
$GPGGA,075922.80,3046.991303802,N,10357.509635998,E,4,08,1.0,495.058,M,-41.787,M,2.8,*6C
$GPGGA,075922.80,3046.991303898,N,10357.5096364,E,4,08,1.0,495.058,M,-41.787,M,2.8,*60
$GPGGA,075922.80,3046.9913043,N,10357.509635698,E,4,08,1.0,495.058,M,-41.787,M,2.8,*6D
$GPGGA,075922.80,3046.991304498,N,10357.509635302,E,4,08,1.0,495.058,M,-41.787,M,2.8,*6D
$GPGGA,075922.80,3046.991304498,N,10357.509635302,E,4,08,1.0,495.058,M,-41.787,M,2.8,*6D
$GPGGA,075922.80,3046.9913052,N,10357.509634498,E,4,08,1.0,495.058,M,-41.787,M,2.8,*6E
$GPGGA,075922.80,3046.991305602,N,10357.5096355,E,4,08,1.0,495.058,M,-41.787,M,2.8,*69
$GPGGA,075922.80,3046.991305302,N,10357.509636202,E,4,08,1.0,495.058,M,-41.787,M,2.8,*6A
$GPGGA,075922.80,3046.991303898,N,10357.509635398,E,4,08,1.0,495.058,M,-41.787,M,2.8,*65
$GPGGA,075922.80,3046.991302902,N,10357.509635698,E,4,08,1.0,495.058,M,-41.787,M,2.8,*63
$GPGGA,075922.80,3046.991302602,N,10357.509635902,E,4,08,1.0,495.058,M,-41.787,M,2.8,*60
$GPGGA,075922.80,3046.9913043,N,10357.509635998,E,4,08,1.0,495.058,M,-41.787,M,2.8,*62
$GPGGA,075922.80,3046.991304798,N,10357.5096358,E,4,08,1.0,495.058,M,-41.787,M,2.8,*67
$GPGGA,075922.80,3046.9913052,N,10357.509636802,E,4,08,1.0,495.058,M,-41.787,M,2.8,*63
$GPGGA,075922.80,3046.991304702,N,10357.509636898,E,4,08,1.0,495.058,M,-41.787,M,2.8,*66
$GPGGA,075922.80,3046.9913043,N,10357.5096361,E,4,08,1.0,495.058,M,-41.787,M,2.8,*68
$GPGGA,075922.80,3046.991305098,N,10357.509635902,E,4,08,1.0,495.058,M,-41.787,M,2.8,*62
$GPGGA,075922.80,3046.9913049,N,10357.5096349,E,4,08,1.0,495.058,M,-41.787,M,2.8,*68
$GPGGA,075922.80,3046.991303502,N,10357.5096358,E,4,08,1.0,495.058,M,-41.787,M,2.8,*61
$GPGGA,075922.80,3046.991303298,N,10357.509635302,E,4,08,1.0,495.058,M,-41.787,M,2.8,*6C
$GPGGA,075922.80,3046.9913031,N,10357.509635302,E,4,08,1.0,495.058,M,-41.787,M,2.8,*6E
$GPGGA,075922.80,3046.991303598,N,10357.509635602,E,4,08,1.0,495.058,M,-41.787,M,2.8,*6E
$GPGGA,075922.80,3046.9913037,N,10357.509635398,E,4,08,1.0,495.058,M,-41.787,M,2.8,*6B
$GPGGA,075922.80,3046.9913031,N,10357.509634498,E,4,08,1.0,495.058,M,-41.787,M,2.8,*6B
$GPGGA,075922.80,3046.991303298,N,10357.509635902,E,4,08,1.0,495.058,M,-41.787,M,2.8,*66
$GPGGA,075922.80,3046.991304798,N,10357.509636598,E,4,08,1.0,495.058,M,-41.787,M,2.8,*68
$GPGGA,075922.80,3046.9913031,N,10357.509634798,E,4,08,1.0,495.058,M,-41.787,M,2.8,*68
$GPGGA,075922.80,3046.9913049,N,10357.509632098,E,4,08,1.0,495.058,M,-41.787,M,2.8,*66
$GPGGA,075922.80,3046.9913076,N,10357.5096319,E,4,08,1.0,495.058,M,-41.787,M,2.8,*61
$GPGGA,075922.80,3046.991310798,N,10357.509634102,E,4,08,1.0,495.058,M,-41.787,M,2.8,*68
$GPGGA,075922.80,3046.9913106,N,10357.509634102,E,4,08,1.0,495.058,M,-41.787,M,2.8,*68
$GPGGA,075922.80,3046.991310198,N,10357.5096352,E,4,08,1.0,495.058,M,-41.787,M,2.8,*6E
$GPGGA,075922.80,3046.991310402,N,10357.509634798,E,4,08,1.0,495.058,M,-41.787,M,2.8,*6D
$GPGGA,075922.80,3046.9913091,N,10357.509635302,E,4,08,1.0,495.058,M,-41.787,M,2.8,*64
$GPGGA,075922.80,3046.9913106,N,10357.509635698,E,4,08,1.0,495.058,M,-41.787,M,2.8,*6D
$GPGGA,075922.80,3046.991310402,N,10357.5096358,E,4,08,1.0,495.058,M,-41.787,M,2.8,*62
$GPGGA,075922.80,3046.991308998,N,10357.5096364,E,4,08,1.0,495.058,M,-41.787,M,2.8,*6A
$GPGGA,075922.80,3046.991311098,N,10357.509636202,E,4,08,1.0,495.058,M,-41.787,M,2.8,*6F
$GPGGA,075922.80,3046.9913088,N,10357.509635698,E,4,08,1.0,495.058,M,-41.787,M,2.8,*6A
$GPGGA,075922.80,3046.9913082,N,10357.509635698,E,4,08,1.0,495.058,M,-41.787,M,2.8,*60
$GPGGA,075922.80,3046.991308398,N,10357.509635998,E,4,08,1.0,495.058,M,-41.787,M,2.8,*6F
$GPGGA,075922.80,3046.991309202,N,10357.509634102,E,4,08,1.0,495.058,M,-41.787,M,2.8,*66
$GPGGA,075922.80,3046.991308902,N,10357.509635902,E,4,08,1.0,495.058,M,-41.787,M,2.8,*65
$GPGGA,075922.80,3046.9913088,N,10357.509635998,E,4,08,1.0,495.058,M,-41.787,M,2.8,*65
$GPGGA,075922.80,3046.9913079,N,10357.5096355,E,4,08,1.0,495.058,M,-41.787,M,2.8,*66
$GPGGA,075922.80,3046.9913133,N,10357.509631798,E,4,08,1.0,495.058,M,-41.787,M,2.8,*6E
$GPGGA,075922.80,3046.9913232,N,10357.509607102,E,4,08,1.0,495.058,M,-41.787,M,2.8,*6C
$GPGGA,075922.80,3046.991314602,N,10357.509585598,E,4,08,1.0,495.058,M,-41.787,M,2.8,*60
$GPGGA,075922.80,3046.9912755,N,10357.509586402,E,4,08,1.0,495.058,M,-41.787,M,2.8,*66
$GPGGA,075922.80,3046.991237898,N,10357.509597202,E,4,08,1.0,495.058,M,-41.787,M,2.8,*6A
$GPGGA,075922.80,3046.991215698,N,10357.509609502,E,4,08,1.0,495.058,M,-41.787,M,2.8,*67
$GPGGA,075922.80,3046.991203002,N,10357.5096115,E,4,08,1.0,495.058,M,-41.787,M,2.8,*6E
$GPGGA,075922.80,3046.991200302,N,10357.509612802,E,4,08,1.0,495.058,M,-41.787,M,2.8,*62
$GPGGA,075922.80,3046.991200302,N,10357.509609598,E,4,08,1.0,495.058,M,-41.787,M,2.8,*66
$GPGGA,075922.80,3046.9912023,N,10357.5096034,E,4,08,1.0,495.058,M,-41.787,M,2.8,*6C
$GPGGA,075922.80,3046.9912023,N,10357.509603898,E,4,08,1.0,495.058,M,-41.787,M,2.8,*61
$GPGGA,075922.80,3046.9912026,N,10357.5096037,E,4,08,1.0,495.058,M,-41.787,M,2.8,*6A
$GPGGA,075922.80,3046.9912023,N,10357.509604102,E,4,08,1.0,495.058,M,-41.787,M,2.8,*6C
$GPGGA,075922.80,3046.991203698,N,10357.509604498,E,4,08,1.0,495.058,M,-41.787,M,2.8,*6F
$GPGGA,075922.80,3046.991203698,N,10357.5096052,E,4,08,1.0,495.058,M,-41.787,M,2.8,*69
$GPGGA,075922.80,3046.991203998,N,10357.509605602,E,4,08,1.0,495.058,M,-41.787,M,2.8,*60
$GPGGA,075922.80,3046.991204802,N,10357.509605002,E,4,08,1.0,495.058,M,-41.787,M,2.8,*63
$GPGGA,075922.80,3046.991203698,N,10357.5096055,E,4,08,1.0,495.058,M,-41.787,M,2.8,*6E
$GPGGA,075922.80,3046.991204598,N,10357.509605902,E,4,08,1.0,495.058,M,-41.787,M,2.8,*64
$GPGGA,075922.80,3046.991204502,N,10357.5096046,E,4,08,1.0,495.058,M,-41.787,M,2.8,*6B
$GPGGA,075922.80,3046.991204598,N,10357.509605098,E,4,08,1.0,495.058,M,-41.787,M,2.8,*6E
$GPGGA,075922.80,3046.991204502,N,10357.5096061,E,4,08,1.0,495.058,M,-41.787,M,2.8,*6E
$GPGGA,075922.80,3046.991203398,N,10357.509603202,E,4,08,1.0,495.058,M,-41.787,M,2.8,*68
$GPGGA,075922.80,3046.991200398,N,10357.509604198,E,4,08,1.0,495.058,M,-41.787,M,2.8,*6C
$GPGGA,075922.80,3046.991201298,N,10357.5096058,E,4,08,1.0,495.058,M,-41.787,M,2.8,*65
$GPGGA,075922.80,3046.991202102,N,10357.509604,E,4,08,1.0,495.058,M,-41.787,M,2.8,*5F
$GPGGA,075922.80,3046.9912014,N,10357.5096058,E,4,08,1.0,495.058,M,-41.787,M,2.8,*62
$GPGGA,075922.80,3046.991200098,N,10357.509605398,E,4,08,1.0,495.058,M,-41.787,M,2.8,*6C
$GPGGA,075922.80,3046.9912002,N,10357.5096064,E,4,08,1.0,495.058,M,-41.787,M,2.8,*6A
$GPGGA,075922.80,3046.9912002,N,10357.509604402,E,4,08,1.0,495.058,M,-41.787,M,2.8,*6A
$GPGGA,075922.80,3046.991199198,N,10357.509604402,E,4,08,1.0,495.058,M,-41.787,M,2.8,*6B
$GPGGA,075922.80,3046.9911993,N,10357.5096055,E,4,08,1.0,495.058,M,-41.787,M,2.8,*6A
$GPGGA,075922.80,3046.9911999,N,10357.509604702,E,4,08,1.0,495.058,M,-41.787,M,2.8,*61
$GPGGA,075922.80,3046.991200398,N,10357.509604402,E,4,08,1.0,495.058,M,-41.787,M,2.8,*6A
$GPGGA,075922.80,3046.991199798,N,10357.509604402,E,4,08,1.0,495.058,M,-41.787,M,2.8,*6D
$GPGGA,075922.80,3046.991199702,N,10357.509604702,E,4,08,1.0,495.058,M,-41.787,M,2.8,*6D
$GPGGA,075922.80,3046.9912002,N,10357.509603802,E,4,08,1.0,495.058,M,-41.787,M,2.8,*61
$GPGGA,075922.80,3046.9911999,N,10357.509605002,E,4,08,1.0,495.058,M,-41.787,M,2.8,*67
$GPGGA,075922.80,3046.991200398,N,10357.5096049,E,4,08,1.0,495.058,M,-41.787,M,2.8,*65
